{"meta":{"code":200},"response":{"venues":[{"id":"4df442cc18a88611c6bfbf61","name":"城陽深谷郵便局","contact":{"phone":"+81774536727","formattedPhone":"+81 774-53-6727"},"location":{"address":"寺田深谷23-3","lat":34.85805413768378,"lng":135.787416100502,"postalCode":"610-0121","city":"城陽市","state":"京都府","country":"Japan"},"categories":[{"id":"4bf58dd8d48988d172941735","name":"Post Office","pluralName":"Post Offices","shortName":"Post Office","icon":{"prefix":"https:\/\/foursquare.com\/img\/categories_v2\/building\/postoffice_","suffix":".png"},"primary":true}],"verified":false,"stats":{"checkinsCount":76,"usersCount":3,"tipCount":0},"likes":{"count":0,"groups":[]},"specials":{"count":0,"items":[]},"hereNow":{"count":0,"groups":[]}},{"id":"4e0ed14b22711665f618bb2d","name":"城陽市シルバー農園","contact":{},"location":{"lat":34.856798,"lng":135.785757,"city":"城陽市","state":"京都府","country":"Japan"},"categories":[{"id":"4bf58dd8d48988d15b941735","name":"Farm","pluralName":"Farms","shortName":"Farm","icon":{"prefix":"https:\/\/foursquare.com\/img\/categories_v2\/parks_outdoors\/farm_","suffix":".png"},"primary":true}],"verified":false,"stats":{"checkinsCount":13,"usersCount":3,"tipCount":0},"likes":{"count":0,"groups":[]},"specials":{"count":0,"items":[]},"hereNow":{"count":0,"groups":[]}},{"id":"4d136fbb0ad2f04da572b354","name":"ファミリーマート 城陽深谷店","contact":{"phone":"+81774571002","formattedPhone":"+81 774-57-1002"},"location":{"address":"寺田深谷64-280","lat":34.85985008646186,"lng":135.7899910211563,"city":"城陽市","state":"京都府","country":"Japan"},"categories":[{"id":"4d954b0ea243a5684a65b473","name":"Convenience Store","pluralName":"Convenience Stores","shortName":"Convenience Stores","icon":{"prefix":"https:\/\/foursquare.com\/img\/categories_v2\/shops\/conveniencestore_","suffix":".png"},"primary":true}],"verified":false,"stats":{"checkinsCount":137,"usersCount":12,"tipCount":0},"likes":{"count":0,"groups":[]},"specials":{"count":0,"items":[]},"hereNow":{"count":0,"groups":[]}},{"id":"4e0ed5eb18a8bf9784d143ab","name":"ヤマザキシヨップ 宮地酒店","contact":{},"location":{"lat":34.856454,"lng":135.788356,"city":"城陽市","state":"京都府","country":"Japan"},"categories":[{"id":"4bf58dd8d48988d1f9941735","name":"Food & Drink Shop","pluralName":"Food & Drink Shops","shortName":"Food & Drink","icon":{"prefix":"https:\/\/foursquare.com\/img\/categories_v2\/shops\/foodanddrink_","suffix":".png"},"primary":true}],"verified":false,"stats":{"checkinsCount":1,"usersCount":1,"tipCount":0},"likes":{"count":0,"groups":[]},"specials":{"count":0,"items":[]},"hereNow":{"count":0,"groups":[]}},{"id":"4e0ed76fa8099e15260d0367","name":"尼塚第９幼児公園","contact":{},"location":{"lat":34.857992,"lng":135.785733,"city":"城陽市","state":"京都府","country":"Japan"},"categories":[{"id":"4bf58dd8d48988d163941735","name":"Park","pluralName":"Parks","shortName":"Park","icon":{"prefix":"https:\/\/foursquare.com\/img\/categories_v2\/parks_outdoors\/park_","suffix":".png"},"primary":true}],"verified":false,"stats":{"checkinsCount":6,"usersCount":2,"tipCount":0},"likes":{"count":0,"groups":[]},"specials":{"count":0,"items":[]},"hereNow":{"count":0,"groups":[]}}]}}
