{"meta":{"code":200},"response":{"venues":[{"id":"4cecc683f7ac8eec0bbee51e","name":"三栖公園","contact":{"phone":"+81756118664","formattedPhone":"+81 75-611-8664"},"location":{"address":"島津町","lat":34.93359314421586,"lng":135.75232073664665,"postalCode":"612-8377","city":"京都市伏見区","state":"京都府","country":"Japan"},"categories":[{"id":"4bf58dd8d48988d162941735","name":"Other Great Outdoors","pluralName":"Other Great Outdoors","shortName":"Other Outdoors","icon":{"prefix":"https:\/\/foursquare.com\/img\/categories_v2\/parks_outdoors\/outdoors_","suffix":".png"},"primary":true}],"verified":false,"stats":{"checkinsCount":14,"usersCount":1,"tipCount":0},"likes":{"count":0,"groups":[]},"specials":{"count":0,"items":[]},"hereNow":{"count":0,"groups":[]}},{"id":"4fa60f60e4b0fc2afb867986","name":"宝福寺","contact":{},"location":{"lat":34.93231002285811,"lng":135.75516886816325,"country":"Japan"},"categories":[{"id":"4bf58dd8d48988d13a941735","name":"Temple","pluralName":"Temples","shortName":"Temple","icon":{"prefix":"https:\/\/foursquare.com\/img\/categories_v2\/building\/religious_temple_","suffix":".png"},"primary":true}],"verified":false,"stats":{"checkinsCount":1,"usersCount":1,"tipCount":0},"likes":{"count":0,"groups":[]},"specials":{"count":0,"items":[]},"hereNow":{"count":0,"groups":[]}},{"id":"4c9815fab6ee236a399ca5a7","name":"光照寺","contact":{},"location":{"lat":34.93436,"lng":135.755473,"city":"京都市伏見区","state":"京都府","country":"Japan"},"categories":[],"verified":false,"stats":{"checkinsCount":1,"usersCount":1,"tipCount":0},"likes":{"count":0,"groups":[]},"specials":{"count":0,"items":[]},"hereNow":{"count":0,"groups":[]}},{"id":"4f714e29e4b007de8fae158a","name":"角倉橋","contact":{},"location":{"address":"伏見区","lat":34.930582,"lng":135.755567,"city":"京都市","country":"Japan"},"categories":[{"id":"4bf58dd8d48988d1f9931735","name":"Road","pluralName":"Roads","shortName":"Road","icon":{"prefix":"https:\/\/foursquare.com\/img\/categories_v2\/travel\/highway_","suffix":".png"},"primary":true}],"verified":false,"stats":{"checkinsCount":9,"usersCount":2,"tipCount":0},"likes":{"count":0,"groups":[]},"specials":{"count":0,"items":[]},"hereNow":{"count":0,"groups":[]}},{"id":"4f35f97be4b039c3c0ed3dde","name":"油小路大手筋 交差点","contact":{},"location":{"address":"伏見区","lat":34.93289788744196,"lng":135.75123552621645,"city":"京都市","country":"Japan"},"categories":[{"id":"4bf58dd8d48988d1f9931735","name":"Road","pluralName":"Roads","shortName":"Road","icon":{"prefix":"https:\/\/foursquare.com\/img\/categories_v2\/travel\/highway_","suffix":".png"},"primary":true}],"verified":false,"stats":{"checkinsCount":124,"usersCount":3,"tipCount":0},"likes":{"count":0,"groups":[]},"specials":{"count":0,"items":[]},"hereNow":{"count":0,"groups":[]}},{"id":"4badbdb4f964a52067663be3","name":"ベーカリーレストラン サンマルク 京都伏見店","contact":{"phone":"+81756210309","formattedPhone":"+81 75-621-0309","twitter":"ryukou_t"},"location":{"address":"下鳥羽浄春ケ前町12-1","lat":34.93504221878395,"lng":135.7514476776123,"city":"京都市伏見区","state":"京都府","country":"Japan"},"categories":[{"id":"4bf58dd8d48988d16a941735","name":"Bakery","pluralName":"Bakeries","shortName":"Bakery","icon":{"prefix":"https:\/\/foursquare.com\/img\/categories_v2\/food\/bakery_","suffix":".png"},"primary":true}],"verified":false,"stats":{"checkinsCount":57,"usersCount":43,"tipCount":1},"likes":{"count":0,"groups":[]},"specials":{"count":0,"items":[]},"hereNow":{"count":0,"groups":[]}},{"id":"4d292b70849f3704dff97b41","name":"鎌倉パスタ","contact":{},"location":{"address":"日本","lat":34.93540584299748,"lng":135.75154555431968,"city":"京都市","state":"京都府","country":"Japan"},"categories":[{"id":"4bf58dd8d48988d110941735","name":"Italian Restaurant","pluralName":"Italian Restaurants","shortName":"Italian","icon":{"prefix":"https:\/\/foursquare.com\/img\/categories_v2\/food\/italian_","suffix":".png"},"primary":true}],"verified":false,"stats":{"checkinsCount":23,"usersCount":17,"tipCount":0},"likes":{"count":0,"groups":[]},"specials":{"count":0,"items":[]},"hereNow":{"count":0,"groups":[]}},{"id":"4c4bbc669c8d2d7f8f055c6b","name":"トヨタカローラ京都 伏見店","contact":{},"location":{"lat":34.935257489065364,"lng":135.75115686269032,"country":"Japan"},"categories":[],"verified":false,"stats":{"checkinsCount":4,"usersCount":2,"tipCount":0},"likes":{"count":0,"groups":[]},"specials":{"count":0,"items":[]},"hereNow":{"count":0,"groups":[]}},{"id":"4e027d841f6edc1602326aa3","name":"浅田鳥羽健診クリニック","contact":{},"location":{"address":"下鳥羽六反長町109","lat":34.93487070598257,"lng":135.75185805559158,"city":"京都市伏見区","state":"京都府","country":"Japan"},"categories":[{"id":"4bf58dd8d48988d104941735","name":"Medical Center","pluralName":"Medical Centers","shortName":"Medical","icon":{"prefix":"https:\/\/foursquare.com\/img\/categories_v2\/building\/medical_","suffix":".png"},"primary":true}],"verified":false,"stats":{"checkinsCount":1,"usersCount":1,"tipCount":0},"likes":{"count":0,"groups":[]},"specials":{"count":0,"items":[]},"hereNow":{"count":0,"groups":[]}},{"id":"4b9b73c2f964a520250836e3","name":"鎌倉パスタ 京都伏見店","contact":{"phone":"+81756056309","formattedPhone":"+81 75-605-6309"},"location":{"address":"下鳥羽浄春ケ前町10-2","lat":34.935434,"lng":135.75159134,"postalCode":"612-8384","city":"京都市伏見区","state":"京都府","country":"Japan"},"categories":[{"id":"4bf58dd8d48988d110941735","name":"Italian Restaurant","pluralName":"Italian Restaurants","shortName":"Italian","icon":{"prefix":"https:\/\/foursquare.com\/img\/categories_v2\/food\/italian_","suffix":".png"},"primary":true}],"verified":false,"stats":{"checkinsCount":26,"usersCount":19,"tipCount":1},"likes":{"count":0,"groups":[]},"specials":{"count":0,"items":[]},"hereNow":{"count":0,"groups":[]}},{"id":"4df97a6218a8ab1870bb5e77","name":"すき家 新堀川店","contact":{},"location":{"lat":34.934345,"lng":135.75116,"country":"Japan"},"categories":[{"id":"4bf58dd8d48988d16e941735","name":"Fast Food Restaurant","pluralName":"Fast Food Restaurants","shortName":"Fast Food","icon":{"prefix":"https:\/\/foursquare.com\/img\/categories_v2\/food\/fastfood_","suffix":".png"},"primary":true}],"verified":false,"stats":{"checkinsCount":29,"usersCount":21,"tipCount":0},"likes":{"count":0,"groups":[]},"specials":{"count":0,"items":[]},"hereNow":{"count":0,"groups":[]}},{"id":"4c57d05e6418a5936b3b800e","name":"伏見警察署","contact":{},"location":{"lat":34.93305758630111,"lng":135.75134195354678,"country":"Japan"},"categories":[{"id":"4bf58dd8d48988d12e941735","name":"Police Station","pluralName":"Police Stations","shortName":"Police Station","icon":{"prefix":"https:\/\/foursquare.com\/img\/categories_v2\/building\/government_policestation_","suffix":".png"},"primary":true}],"verified":false,"stats":{"checkinsCount":24,"usersCount":13,"tipCount":0},"likes":{"count":0,"groups":[]},"specials":{"count":0,"items":[]},"hereNow":{"count":0,"groups":[]}},{"id":"4eeb059f8b814fef8919b7f6","name":"ザ・シューズ 新堀川店","contact":{},"location":{"address":"伏見区下鳥羽浄春ケ前町121","lat":34.93322385217952,"lng":135.7510596902786,"city":"京都市","country":"Japan"},"categories":[{"id":"4bf58dd8d48988d107951735","name":"Shoe Store","pluralName":"Shoe Stores","shortName":"Shoes","icon":{"prefix":"https:\/\/foursquare.com\/img\/categories_v2\/shops\/apparel_shoestore_","suffix":".png"},"primary":true}],"verified":false,"stats":{"checkinsCount":9,"usersCount":6,"tipCount":0},"likes":{"count":0,"groups":[]},"specials":{"count":0,"items":[]},"hereNow":{"count":0,"groups":[]}},{"id":"4f3f489d7b0c93cd69a20f6b","name":"三栖公園前 バス停","contact":{},"location":{"address":"伏見区 下鳥羽浄春ケ前町・下鳥羽但馬町","crossStreet":"市バス19・20・22・南3・南8系統\/京阪バス","lat":34.93279493287488,"lng":135.7511231303215,"city":"京都市","state":"京都府","country":"Japan"},"categories":[{"id":"4bf58dd8d48988d1fe931735","name":"Bus Station","pluralName":"Bus Stations","shortName":"Bus Station","icon":{"prefix":"https:\/\/foursquare.com\/img\/categories_v2\/travel\/busstation_","suffix":".png"},"primary":true}],"verified":false,"stats":{"checkinsCount":0,"usersCount":0,"tipCount":0},"likes":{"count":0,"groups":[]},"specials":{"count":0,"items":[]},"hereNow":{"count":0,"groups":[]}},{"id":"4e34d759c65b2313e287e3ff","name":"油小路油掛","contact":{},"location":{"lat":34.93115320057977,"lng":135.75114760816638,"country":"Japan"},"categories":[{"id":"4bf58dd8d48988d1f9931735","name":"Road","pluralName":"Roads","shortName":"Road","icon":{"prefix":"https:\/\/foursquare.com\/img\/categories_v2\/travel\/highway_","suffix":".png"},"primary":true}],"verified":false,"stats":{"checkinsCount":49,"usersCount":4,"tipCount":0},"likes":{"count":0,"groups":[]},"specials":{"count":0,"items":[]},"hereNow":{"count":0,"groups":[]}},{"id":"4b55c189f964a5208fee27e3","name":"セブンイレブン 京都伏見横大路店","contact":{"phone":"+81756023359","formattedPhone":"+81 75-602-3359"},"location":{"address":"横大路三栖泥町跡町1-1","lat":34.93075649015689,"lng":135.75147449970245,"postalCode":"612-8239","city":"京都市伏見区","state":"京都府","country":"Japan"},"categories":[{"id":"4d954b0ea243a5684a65b473","name":"Convenience Store","pluralName":"Convenience Stores","shortName":"Convenience Stores","icon":{"prefix":"https:\/\/foursquare.com\/img\/categories_v2\/shops\/conveniencestore_","suffix":".png"},"primary":true}],"verified":false,"stats":{"checkinsCount":92,"usersCount":36,"tipCount":0},"likes":{"count":0,"groups":[]},"specials":{"count":0,"items":[]},"hereNow":{"count":0,"groups":[]}},{"id":"4efc1c06c2ee80dc2e56aedf","name":"新大手橋","contact":{},"location":{"address":"下鳥羽六反長町","lat":34.93286090104873,"lng":135.7534646987915,"city":"京都市伏見区","state":"京都府","country":"Japan"},"categories":[{"id":"4bf58dd8d48988d1df941735","name":"Bridge","pluralName":"Bridges","shortName":"Bridge","icon":{"prefix":"https:\/\/foursquare.com\/img\/categories_v2\/parks_outdoors\/bridge_","suffix":".png"},"primary":true}],"verified":false,"stats":{"checkinsCount":81,"usersCount":8,"tipCount":0},"likes":{"count":0,"groups":[]},"specials":{"count":0,"items":[]},"hereNow":{"count":0,"groups":[]}},{"id":"4bb7e6bc3db7b71373c0209a","name":"シャトレーゼ　新堀川店","contact":{"phone":"+81756217041","formattedPhone":"+81 75-621-7041"},"location":{"address":"横大路下三栖辻堂町1","crossStreet":"新堀川通","lat":34.930352,"lng":135.750618,"postalCode":"612-8241","city":"京都市伏見区","state":"京都府","country":"Japan"},"categories":[{"id":"4bf58dd8d48988d1bc941735","name":"Cupcake Shop","pluralName":"Cupcake Shops","shortName":"Cupcakes","icon":{"prefix":"https:\/\/foursquare.com\/img\/categories_v2\/food\/cupcakes_","suffix":".png"},"primary":true}],"verified":false,"stats":{"checkinsCount":24,"usersCount":16,"tipCount":0},"likes":{"count":0,"groups":[]},"specials":{"count":0,"items":[]},"hereNow":{"count":0,"groups":[]}},{"id":"4d85f5515ad3a093a822effd","name":"来来亭 新堀川店","contact":{"phone":"+81756128138","formattedPhone":"+81 75-612-8138"},"location":{"address":"下鳥羽南六反長町22番地","lat":34.93123367060897,"lng":135.75141549110413,"postalCode":"612-8209","city":"京都市伏見区","state":"京都府","country":"Japan"},"categories":[{"id":"4bf58dd8d48988d1d1941735","name":"Ramen \/  Noodle House","pluralName":"Ramen \/  Noodle House","shortName":"Ramen \/ Noodles","icon":{"prefix":"https:\/\/foursquare.com\/img\/categories_v2\/food\/ramen_","suffix":".png"},"primary":true}],"verified":false,"stats":{"checkinsCount":49,"usersCount":29,"tipCount":0},"likes":{"count":0,"groups":[]},"specials":{"count":0,"items":[]},"hereNow":{"count":0,"groups":[]}},{"id":"4f65658ce4b03c270abafd55","name":"弥左衛門橋","contact":{},"location":{"address":"横大路三栖泥町跡町","lat":34.93125049196011,"lng":135.75365102243475,"country":"Japan"},"categories":[{"id":"4bf58dd8d48988d1f9931735","name":"Road","pluralName":"Roads","shortName":"Road","icon":{"prefix":"https:\/\/foursquare.com\/img\/categories_v2\/travel\/highway_","suffix":".png"},"primary":true}],"verified":false,"stats":{"checkinsCount":20,"usersCount":2,"tipCount":0},"likes":{"count":0,"groups":[]},"specials":{"count":0,"items":[]},"hereNow":{"count":0,"groups":[]}},{"id":"4b77a052f964a52095a42ee3","name":"スズキアリーナ伏見新堀川","contact":{"phone":"+81756028001","formattedPhone":"+81 75-602-8001"},"location":{"address":"伏見区下鳥羽但馬町136","lat":34.9315635172253,"lng":135.75057864189148,"postalCode":"612-8208","city":"京都市","state":"京都府","country":"Japan"},"categories":[{"id":"4eb1c1623b7b52c0e1adc2ec","name":"Car Dealership","pluralName":"Car Dealerships","shortName":"Car Dealer","icon":{"prefix":"https:\/\/foursquare.com\/img\/categories_v2\/shops\/automotive_","suffix":".png"},"primary":true}],"verified":false,"stats":{"checkinsCount":20,"usersCount":3,"tipCount":0},"likes":{"count":0,"groups":[]},"specials":{"count":0,"items":[]},"hereNow":{"count":0,"groups":[]}},{"id":"4f9de69ce4b0e1cb003801c8","name":"京都ダイハツ 伏見新堀川店","contact":{},"location":{"lat":34.930893046056404,"lng":135.751397480944,"country":"Japan"},"categories":[{"id":"4bf58dd8d48988d124951735","name":"Automotive Shop","pluralName":"Automotive Shops","shortName":"Automotive","icon":{"prefix":"https:\/\/foursquare.com\/img\/categories_v2\/shops\/automotive_","suffix":".png"},"primary":true}],"verified":false,"stats":{"checkinsCount":3,"usersCount":1,"tipCount":0},"likes":{"count":0,"groups":[]},"specials":{"count":0,"items":[]},"hereNow":{"count":0,"groups":[]}},{"id":"4e95a29200391ed4654a2c83","name":"阪神高速 伏見出入口","contact":{},"location":{"address":"横大路下三栖辻堂町","lat":34.93067072932057,"lng":135.75100243091583,"city":"京都市伏見区","state":"京都府","country":"Japan"},"categories":[{"id":"4bf58dd8d48988d1f9931735","name":"Road","pluralName":"Roads","shortName":"Road","icon":{"prefix":"https:\/\/foursquare.com\/img\/categories_v2\/travel\/highway_","suffix":".png"},"primary":true}],"verified":false,"stats":{"checkinsCount":4,"usersCount":2,"tipCount":0},"likes":{"count":0,"groups":[]},"specials":{"count":0,"items":[]},"hereNow":{"count":0,"groups":[]}},{"id":"4dfc514a149599f28fca6ab4","name":"京都ダイハツ伏見新堀川店","contact":{},"location":{"lat":34.930882,"lng":135.751082,"country":"Japan"},"categories":[],"verified":false,"stats":{"checkinsCount":1,"usersCount":1,"tipCount":0},"likes":{"count":0,"groups":[]},"specials":{"count":0,"items":[]},"hereNow":{"count":0,"groups":[]}},{"id":"4efc1c99c2ee80dc2e56becf","name":"縄手橋","contact":{},"location":{"address":"横大路三栖泥町跡町","lat":34.93115450722369,"lng":135.75347274541855,"city":"京都市伏見区","state":"京都府","country":"Japan"},"categories":[{"id":"4bf58dd8d48988d1df941735","name":"Bridge","pluralName":"Bridges","shortName":"Bridge","icon":{"prefix":"https:\/\/foursquare.com\/img\/categories_v2\/parks_outdoors\/bridge_","suffix":".png"},"primary":true}],"verified":false,"stats":{"checkinsCount":34,"usersCount":4,"tipCount":0},"likes":{"count":0,"groups":[]},"specials":{"count":0,"items":[]},"hereNow":{"count":0,"groups":[]}},{"id":"4d3a6903979ea143306d90fc","name":"松本酒造","contact":{},"location":{"address":"日本","lat":34.93300488548131,"lng":135.7538962808162,"country":"Japan"},"categories":[],"verified":false,"stats":{"checkinsCount":33,"usersCount":19,"tipCount":0},"likes":{"count":0,"groups":[]},"specials":{"count":0,"items":[]},"hereNow":{"count":0,"groups":[]}},{"id":"4bd3ec1ecaff95216004d6f0","name":"ホームセンターコーナン 伏見大手筋店","contact":{"phone":"+81756233445","formattedPhone":"+81 75-623-3445"},"location":{"address":"伏見区横大路三栖大黒町8-1","crossStreet":"大手筋通","lat":34.93234194998159,"lng":135.75436055660248,"postalCode":"612-8205","city":"京都府","state":"京都市","country":"Japan"},"categories":[{"id":"4bf58dd8d48988d1f8941735","name":"Furniture \/ Home Store","pluralName":"Furniture \/ Home Stores","shortName":"Furniture \/ Home","icon":{"prefix":"https:\/\/foursquare.com\/img\/categories_v2\/shops\/furniture_","suffix":".png"},"primary":true}],"verified":false,"stats":{"checkinsCount":70,"usersCount":38,"tipCount":0},"likes":{"count":0,"groups":[]},"specials":{"count":0,"items":[]},"hereNow":{"count":0,"groups":[]}},{"id":"4de9ea79d164ef597cdd2236","name":"齊藤酒造","contact":{"phone":"+81756112124","formattedPhone":"+81 75-611-2124"},"location":{"address":"伏見区横大路三栖山城屋敷町105","lat":34.93169633514197,"lng":135.75261819336447,"postalCode":"612-8207","city":"京都市","state":"京都府","country":"Japan"},"categories":[{"id":"4bf58dd8d48988d1d7941735","name":"Brewery","pluralName":"Breweries","shortName":"Brewery","icon":{"prefix":"https:\/\/foursquare.com\/img\/categories_v2\/nightlife\/brewery_","suffix":".png"},"primary":true}],"verified":false,"stats":{"checkinsCount":15,"usersCount":12,"tipCount":1},"url":"http:\/\/www.eikun.com","likes":{"count":0,"groups":[]},"specials":{"count":0,"items":[]},"hereNow":{"count":0,"groups":[]}},{"id":"4eda094b0cd6fe949352992b","name":"大東寝具工業株式会社","contact":{"phone":"+81756226245","formattedPhone":"+81 75-622-6245","twitter":"daitoshingu_net"},"location":{"address":"京都市伏見区横大路下三栖山殿66\u20102","lat":34.93101377212794,"lng":135.752115547657,"postalCode":"612\u20108238","city":"京都市伏見区","state":"京都府","country":"Japan"},"categories":[{"id":"4bf58dd8d48988d1f8941735","name":"Furniture \/ Home Store","pluralName":"Furniture \/ Home Stores","shortName":"Furniture \/ Home","icon":{"prefix":"https:\/\/foursquare.com\/img\/categories_v2\/shops\/furniture_","suffix":".png"},"primary":true}],"verified":false,"stats":{"checkinsCount":1,"usersCount":1,"tipCount":0},"likes":{"count":0,"groups":[]},"specials":{"count":0,"items":[]},"hereNow":{"count":0,"groups":[]}},{"id":"4f3f49117b0c93cd69a21971","name":"三栖大黒町 バス停","contact":{},"location":{"address":"伏見区横大路三栖大黒町","crossStreet":"市バス19・20・22・南3・南8系統\/京阪バス","lat":34.93288508936585,"lng":135.7540963590145,"city":"京都市","state":"京都府","country":"Japan"},"categories":[{"id":"4bf58dd8d48988d1fe931735","name":"Bus Station","pluralName":"Bus Stations","shortName":"Bus Station","icon":{"prefix":"https:\/\/foursquare.com\/img\/categories_v2\/travel\/busstation_","suffix":".png"},"primary":true}],"verified":false,"stats":{"checkinsCount":0,"usersCount":0,"tipCount":0},"likes":{"count":0,"groups":[]},"specials":{"count":0,"items":[]},"hereNow":{"count":0,"groups":[]}}]}}
