{"meta":{"code":200},"response":{"venues":[{"id":"4b641508f964a520319e2ae3","name":"JR 宇治駅 (Uji Sta.)","contact":{},"location":{"address":"宇治宇文字16","crossStreet":"JR奈良線","lat":34.890463218518654,"lng":135.80060720443726,"city":"宇治市","state":"京都府","country":"Japan"},"categories":[{"id":"4bf58dd8d48988d129951735","name":"Train Station","pluralName":"Train Stations","shortName":"Train Station","icon":{"prefix":"https:\/\/foursquare.com\/img\/categories_v2\/travel\/trainstation_","suffix":".png"},"primary":true}],"verified":false,"stats":{"checkinsCount":1512,"usersCount":740,"tipCount":1},"likes":{"count":0,"groups":[]},"specials":{"count":0,"items":[]},"hereNow":{"count":1,"groups":[{"type":"others","name":"Other people here","count":1,"items":[]}]}},{"id":"4e11c514c65b4a49f30fbdb2","name":"サークルK 宇治駅前店","contact":{"phone":"+81774225499","formattedPhone":"+81 774-22-5499"},"location":{"address":"宇治妙楽182-12","crossStreet":"トキジンビル 1F","lat":34.8903796156581,"lng":135.80158352851868,"postalCode":"611-0021","city":"宇治市","state":"京都府","country":"Japan"},"categories":[{"id":"4d954b0ea243a5684a65b473","name":"Convenience Store","pluralName":"Convenience Stores","shortName":"Convenience Stores","icon":{"prefix":"https:\/\/foursquare.com\/img\/categories_v2\/shops\/conveniencestore_","suffix":".png"},"primary":true}],"verified":false,"stats":{"checkinsCount":53,"usersCount":20,"tipCount":0},"likes":{"count":0,"groups":[]},"specials":{"count":0,"items":[]},"hereNow":{"count":0,"groups":[]}},{"id":"4b6be51bf964a520bf1b2ce3","name":"ソフトバンク JR宇治","contact":{"phone":"+81774257555","formattedPhone":"+81 774-25-7555"},"location":{"address":"宇治妙楽182-3","lat":34.890463218518654,"lng":135.80172032117844,"postalCode":"611-0021","city":"宇治市","state":"京都府","country":"Japan"},"categories":[{"id":"4f04afc02fb6e1c99f3db0bc","name":"Mobile Phone Shop","pluralName":"Mobile Phone Shops","shortName":"Mobile Phone","icon":{"prefix":"https:\/\/foursquare.com\/img\/categories_v2\/shops\/mobilephoneshop_","suffix":".png"},"primary":true}],"verified":false,"stats":{"checkinsCount":18,"usersCount":9,"tipCount":0},"likes":{"count":0,"groups":[]},"specials":{"count":0,"items":[]},"hereNow":{"count":0,"groups":[]}},{"id":"4e356bc9b61cddd1cd3cd6ef","name":"ユニチカフィットネスクラブ宇治","contact":{},"location":{"address":"宇治戸ノ内5","lat":34.89093309931735,"lng":135.8007823096628,"postalCode":"6110021","city":"宇治市","state":"京都府","country":"Japan"},"categories":[{"id":"4bf58dd8d48988d176941735","name":"Gym","pluralName":"Gyms","shortName":"Gym","icon":{"prefix":"https:\/\/foursquare.com\/img\/categories_v2\/building\/gym_","suffix":".png"},"primary":true}],"verified":false,"stats":{"checkinsCount":97,"usersCount":5,"tipCount":0},"likes":{"count":0,"groups":[]},"specials":{"count":0,"items":[]},"hereNow":{"count":0,"groups":[]}},{"id":"4d5e8ab4196ba093d4f10256","name":"どんたく","contact":{},"location":{"lat":34.890157248576095,"lng":135.80097685741276,"country":"Japan"},"categories":[{"id":"4bf58dd8d48988d1d1941735","name":"Ramen \/  Noodle House","pluralName":"Ramen \/  Noodle House","shortName":"Ramen \/ Noodles","icon":{"prefix":"https:\/\/foursquare.com\/img\/categories_v2\/food\/ramen_","suffix":".png"},"primary":true}],"verified":false,"stats":{"checkinsCount":29,"usersCount":13,"tipCount":0},"likes":{"count":0,"groups":[]},"specials":{"count":0,"items":[]},"hereNow":{"count":0,"groups":[]}},{"id":"4ece1b3f30f81894abb4b69d","name":"心","contact":{},"location":{"lat":34.88988697319243,"lng":135.800896,"city":"宇治市","state":"京都府","country":"Japan"},"categories":[{"id":"4bf58dd8d48988d111941735","name":"Japanese Restaurant","pluralName":"Japanese Restaurants","shortName":"Japanese","icon":{"prefix":"https:\/\/foursquare.com\/img\/categories_v2\/food\/japanese_","suffix":".png"},"primary":true}],"verified":false,"stats":{"checkinsCount":7,"usersCount":6,"tipCount":0},"likes":{"count":0,"groups":[]},"specials":{"count":0,"items":[]},"hereNow":{"count":0,"groups":[]}},{"id":"4b5d552af964a5201b5a29e3","name":"じゃがいも","contact":{"phone":"+81774221573","formattedPhone":"+81 774-22-1573"},"location":{"address":"宇治壱番125-2","lat":34.890052,"lng":135.801112,"postalCode":"611-0021","city":"宇治市","state":"京都府","country":"Japan"},"categories":[{"id":"4bf58dd8d48988d16d941735","name":"Café","pluralName":"Cafés","shortName":"Café","icon":{"prefix":"https:\/\/foursquare.com\/img\/categories_v2\/food\/cafe_","suffix":".png"},"primary":true}],"verified":false,"stats":{"checkinsCount":59,"usersCount":3,"tipCount":1},"likes":{"count":0,"groups":[]},"specials":{"count":0,"items":[]},"hereNow":{"count":0,"groups":[]}},{"id":"4d4d1b4b869cf04d4dc2d9ae","name":"ユニチカフィットネスクラブ","contact":{},"location":{"lat":34.891654,"lng":135.801021,"country":"Japan"},"categories":[{"id":"4bf58dd8d48988d175941735","name":"Gym \/ Fitness Center","pluralName":"Gyms or Fitness Centers","shortName":"Gym \/ Fitness","icon":{"prefix":"https:\/\/foursquare.com\/img\/categories_v2\/building\/gym_","suffix":".png"},"primary":true}],"verified":false,"stats":{"checkinsCount":3,"usersCount":2,"tipCount":0},"likes":{"count":0,"groups":[]},"specials":{"count":0,"items":[]},"hereNow":{"count":0,"groups":[]}}]}}
