{"meta":{"code":200},"response":{"venues":[{"id":"4dfef9fad22d48be8127705c","name":"中勢以","contact":{"phone":"+81755716962","formattedPhone":"+81 75-571-6962"},"location":{"address":"京都市伏見区石田桜木21-33","lat":34.93489835143464,"lng":135.8002496234512,"city":"Kyoto","state":"Kyoto Prefecture","country":"Japan"},"categories":[{"id":"4d4b7105d754a06374d81259","name":"Food","pluralName":"Food","shortName":"Food","icon":{"prefix":"https:\/\/foursquare.com\/img\/categories_v2\/food\/default_","suffix":".png"},"primary":true}],"verified":false,"stats":{"checkinsCount":4,"usersCount":2,"tipCount":0},"likes":{"count":0,"groups":[]},"specials":{"count":0,"items":[]},"hereNow":{"count":0,"groups":[]}},{"id":"4b67f4bcf964a5200c622be3","name":"すき家 伏見石田店","contact":{},"location":{"address":"伏見区石田西ノ坪1-9","lat":34.93827121016645,"lng":135.80151244997978,"city":"京都市","state":"京都府","country":"Japan"},"categories":[{"id":"4bf58dd8d48988d111941735","name":"Japanese Restaurant","pluralName":"Japanese Restaurants","shortName":"Japanese","icon":{"prefix":"https:\/\/foursquare.com\/img\/categories_v2\/food\/japanese_","suffix":".png"},"primary":true}],"verified":false,"stats":{"checkinsCount":36,"usersCount":11,"tipCount":0},"likes":{"count":0,"groups":[]},"specials":{"count":0,"items":[]},"hereNow":{"count":0,"groups":[]}},{"id":"4f0191f48b81b0190c70d4ea","name":"和食さと 醍醐店","contact":{"phone":"+81755740310","formattedPhone":"+81 75-574-0310"},"location":{"address":"伏見区石田森東町56-1","lat":34.940987280141,"lng":135.80467804771217,"city":"京都市","state":"京都府","country":"Japan"},"categories":[{"id":"4bf58dd8d48988d111941735","name":"Japanese Restaurant","pluralName":"Japanese Restaurants","shortName":"Japanese","icon":{"prefix":"https:\/\/foursquare.com\/img\/categories_v2\/food\/japanese_","suffix":".png"},"primary":true}],"verified":false,"stats":{"checkinsCount":10,"usersCount":5,"tipCount":0},"likes":{"count":0,"groups":[]},"specials":{"count":0,"items":[]},"hereNow":{"count":0,"groups":[]}},{"id":"4c3a88434565e21ee969556a","name":"醍醐図書館","contact":{"phone":"+81755720700","formattedPhone":"+81 75-572-0700"},"location":{"address":"石田西ノ坪1-2","lat":34.93862191693283,"lng":135.80091834068298,"postalCode":"601-1436","city":"京都市伏見区","state":"京都府","country":"Japan"},"categories":[{"id":"4bf58dd8d48988d12f941735","name":"Library","pluralName":"Libraries","shortName":"Library","icon":{"prefix":"https:\/\/foursquare.com\/img\/categories_v2\/building\/library_","suffix":".png"},"primary":true}],"verified":false,"stats":{"checkinsCount":6,"usersCount":4,"tipCount":1},"likes":{"count":0,"groups":[]},"specials":{"count":0,"items":[]},"hereNow":{"count":0,"groups":[]}},{"id":"4f9c0896e4b060642f40e13d","name":"くま","contact":{},"location":{"lat":34.93513381338737,"lng":135.80433524707104,"country":"Japan"},"categories":[{"id":"4bf58dd8d48988d12c951735","name":"Embassy\/Consulate","pluralName":"Embassies\/Consulates","shortName":"Embassy","icon":{"prefix":"https:\/\/foursquare.com\/img\/categories_v2\/travel\/embassy_","suffix":".png"},"primary":true}],"verified":false,"stats":{"checkinsCount":0,"usersCount":0,"tipCount":0},"likes":{"count":0,"groups":[]},"specials":{"count":0,"items":[]},"hereNow":{"count":0,"groups":[]}},{"id":"4d6333202f16b60c4be7ddf4","name":"醍醐病院","contact":{},"location":{"lat":34.935591,"lng":135.805456,"country":"Japan"},"categories":[{"id":"4bf58dd8d48988d196941735","name":"Hospital","pluralName":"Hospitals","shortName":"Hospital","icon":{"prefix":"https:\/\/foursquare.com\/img\/categories_v2\/building\/medical_hospital_","suffix":".png"},"primary":true}],"verified":false,"stats":{"checkinsCount":1,"usersCount":1,"tipCount":0},"likes":{"count":0,"groups":[]},"specials":{"count":0,"items":[]},"hereNow":{"count":0,"groups":[]}},{"id":"4d3806f7b9e5224bb4ef4f90","name":"リカーマウンテン 醍醐店","contact":{},"location":{"address":"石田内里町60-8","lat":34.939197996265875,"lng":135.80604135990143,"postalCode":"6011432","city":"京都市伏見区","state":"京都府","country":"Japan"},"categories":[{"id":"4bf58dd8d48988d186941735","name":"Liquor Store","pluralName":"Liquor Stores","shortName":"Liquor Store","icon":{"prefix":"https:\/\/foursquare.com\/img\/categories_v2\/shops\/food_liquor_","suffix":".png"},"primary":true}],"verified":false,"stats":{"checkinsCount":10,"usersCount":6,"tipCount":0},"likes":{"count":0,"groups":[]},"specials":{"count":0,"items":[]},"hereNow":{"count":0,"groups":[]}},{"id":"4e3f14c2d4c058f9dc1b7498","name":"京阪バス 石田南停留所","contact":{},"location":{"address":"日本","lat":34.93762351,"lng":135.80581687,"city":"京都市","state":"京都府","country":"Japan"},"categories":[{"id":"4bf58dd8d48988d1fe931735","name":"Bus Station","pluralName":"Bus Stations","shortName":"Bus Station","icon":{"prefix":"https:\/\/foursquare.com\/img\/categories_v2\/travel\/busstation_","suffix":".png"},"primary":true}],"verified":false,"stats":{"checkinsCount":1,"usersCount":1,"tipCount":0},"likes":{"count":0,"groups":[]},"specials":{"count":0,"items":[]},"hereNow":{"count":0,"groups":[]}},{"id":"4b83bdfff964a520db0e31e3","name":"下町のホルモン屋","contact":{},"location":{"lat":34.939392,"lng":135.805854,"country":"Japan"},"categories":[],"verified":false,"stats":{"checkinsCount":1,"usersCount":1,"tipCount":0},"likes":{"count":0,"groups":[]},"specials":{"count":0,"items":[]},"hereNow":{"count":0,"groups":[]}},{"id":"4c2abd0b2219c92866a1a348","name":"医仁会武田総合病院","contact":{"phone":"+81755726331","formattedPhone":"+81 75-572-6331"},"location":{"address":"石田森南町28-1","lat":34.93885938523973,"lng":135.80247402191162,"postalCode":"601-1434","city":"京都市伏見区","state":"京都府","country":"Japan"},"categories":[{"id":"4bf58dd8d48988d104941735","name":"Medical Center","pluralName":"Medical Centers","shortName":"Medical","icon":{"prefix":"https:\/\/foursquare.com\/img\/categories_v2\/building\/medical_","suffix":".png"},"primary":true}],"verified":false,"stats":{"checkinsCount":84,"usersCount":26,"tipCount":2},"likes":{"count":0,"groups":[]},"specials":{"count":0,"items":[]},"hereNow":{"count":0,"groups":[]}},{"id":"4c3d0771b169c9b605934668","name":"石田駅 (T02)","contact":{},"location":{"address":"石田森東町","crossStreet":"京都市営地下鉄 東西線","lat":34.9405128492036,"lng":135.80393314361572,"city":"京都市伏見区","state":"京都府","country":"Japan"},"categories":[{"id":"4bf58dd8d48988d1fd931735","name":"Subway","pluralName":"Subways","shortName":"Subway","icon":{"prefix":"https:\/\/foursquare.com\/img\/categories_v2\/travel\/subway_","suffix":".png"},"primary":true}],"verified":false,"stats":{"checkinsCount":119,"usersCount":29,"tipCount":0},"likes":{"count":0,"groups":[]},"specials":{"count":0,"items":[]},"hereNow":{"count":0,"groups":[]}},{"id":"4ea23441490102dac2863e46","name":"TSUTAYA 醍醐店","contact":{},"location":{"lat":34.93981424146611,"lng":135.8036496531699,"city":"京都市","state":"京都府","country":"Japan"},"categories":[{"id":"4bf58dd8d48988d126951735","name":"Video Store","pluralName":"Video Stores","shortName":"Video Store","icon":{"prefix":"https:\/\/foursquare.com\/img\/categories_v2\/shops\/video_","suffix":".png"},"primary":true}],"verified":false,"stats":{"checkinsCount":40,"usersCount":12,"tipCount":0},"likes":{"count":0,"groups":[]},"specials":{"count":0,"items":[]},"hereNow":{"count":0,"groups":[]}},{"id":"4e22e00245dd950bb0339b5c","name":"ファミリーマート 石田森東店","contact":{"phone":"+81755754330","formattedPhone":"+81 75-575-4330"},"location":{"address":"伏見区石田森東町27-2","lat":34.94011707628954,"lng":135.80319821834564,"city":"京都市","state":"京都府","country":"Japan"},"categories":[{"id":"4d954b0ea243a5684a65b473","name":"Convenience Store","pluralName":"Convenience Stores","shortName":"Convenience Stores","icon":{"prefix":"https:\/\/foursquare.com\/img\/categories_v2\/shops\/conveniencestore_","suffix":".png"},"primary":true}],"verified":false,"stats":{"checkinsCount":24,"usersCount":4,"tipCount":0},"likes":{"count":0,"groups":[]},"specials":{"count":0,"items":[]},"hereNow":{"count":1,"groups":[{"type":"others","name":"Other people here","count":1,"items":[]}]}},{"id":"4e68adf3d164156c90507a4a","name":"さくら薬局 京都伏見店","contact":{"phone":"+81755741301","formattedPhone":"+81 75-574-1301"},"location":{"address":"石田森東町30-1","lat":34.93927275435598,"lng":135.802720785141,"postalCode":"601-1439","city":"京都市伏見区","state":"京都府","country":"Japan"},"categories":[{"id":"4bf58dd8d48988d10f951735","name":"Drugstore \/ Pharmacy","pluralName":"Drugstores \/ Pharmacies","shortName":"Pharmacy","icon":{"prefix":"https:\/\/foursquare.com\/img\/categories_v2\/shops\/pharmacy_","suffix":".png"},"primary":true}],"verified":false,"stats":{"checkinsCount":10,"usersCount":6,"tipCount":0},"likes":{"count":0,"groups":[]},"specials":{"count":0,"items":[]},"hereNow":{"count":0,"groups":[]}},{"id":"4def4774fa76c1ceac8de6fa","name":"CoCo壱番屋 伏見醍醐店","contact":{"phone":"+81755733967","formattedPhone":"+81 75-573-3967"},"location":{"address":"伏見区石田森東町29-2","lat":34.93997745594468,"lng":135.80304466187954,"city":"京都市","state":"京都府","country":"Japan"},"categories":[{"id":"4bf58dd8d48988d10f941735","name":"Indian Restaurant","pluralName":"Indian Restaurants","shortName":"Indian","icon":{"prefix":"https:\/\/foursquare.com\/img\/categories_v2\/food\/default_","suffix":".png"},"primary":true}],"verified":false,"stats":{"checkinsCount":7,"usersCount":7,"tipCount":0},"likes":{"count":0,"groups":[]},"specials":{"count":0,"items":[]},"hereNow":{"count":0,"groups":[]}},{"id":"4d525ce57ee1a35d11199934","name":"オムライス屋・スー","contact":{},"location":{"lat":34.938996,"lng":135.802618,"country":"Japan"},"categories":[],"verified":false,"stats":{"checkinsCount":1,"usersCount":1,"tipCount":0},"likes":{"count":0,"groups":[]},"specials":{"count":0,"items":[]},"hereNow":{"count":0,"groups":[]}},{"id":"4da1500263b5a35dcd59e619","name":"天穂日命神社","contact":{},"location":{"lat":34.939844,"lng":135.801972,"city":"Kyoto","state":"Kyoto Prefecture","country":"Japan"},"categories":[{"id":"4eb1d80a4b900d56c88a45ff","name":"Shrine","pluralName":"Shrines","shortName":"Shrine","icon":{"prefix":"https:\/\/foursquare.com\/img\/categories_v2\/building\/religious_shrine_","suffix":".png"},"primary":true}],"verified":false,"stats":{"checkinsCount":1,"usersCount":1,"tipCount":0},"likes":{"count":0,"groups":[]},"specials":{"count":0,"items":[]},"hereNow":{"count":0,"groups":[]}}]}}
