{"meta":{"code":200},"response":{"venues":[{"id":"4e2132d9d164740632044489","name":"京都府立洛南病院","contact":{},"location":{"address":"宇治市五ケ庄岡谷2","lat":34.915905,"lng":135.807989,"city":"宇治市五ケ庄岡谷2","state":"京都府","country":"Japan"},"categories":[{"id":"4bf58dd8d48988d196941735","name":"Hospital","pluralName":"Hospitals","shortName":"Hospital","icon":{"prefix":"https:\/\/foursquare.com\/img\/categories_v2\/building\/medical_hospital_","suffix":".png"},"primary":true}],"verified":false,"stats":{"checkinsCount":4,"usersCount":2,"tipCount":0},"likes":{"count":0,"groups":[]},"specials":{"count":0,"items":[]},"hereNow":{"count":0,"groups":[]}},{"id":"4ee6cbc1a17ceecb163d0a1e","name":"宇治陵 22号","contact":{},"location":{"address":"木幡","lat":34.91953425301471,"lng":135.80684065818787,"city":"宇治市","state":"京都府","country":"Japan"},"categories":[{"id":"4bf58dd8d48988d15c941735","name":"Cemetery","pluralName":"Cemeteries","shortName":"Cemetery","icon":{"prefix":"https:\/\/foursquare.com\/img\/categories_v2\/parks_outdoors\/cemetery_","suffix":".png"},"primary":true}],"verified":false,"stats":{"checkinsCount":0,"usersCount":0,"tipCount":0},"likes":{"count":0,"groups":[]},"specials":{"count":0,"items":[]},"hereNow":{"count":0,"groups":[]}},{"id":"4ee6cb8ca17ceecb163d04d7","name":"宇治陵 21号","contact":{},"location":{"address":"木幡","lat":34.919463875531086,"lng":135.80639004707336,"city":"宇治市","state":"京都府","country":"Japan"},"categories":[{"id":"4bf58dd8d48988d15c941735","name":"Cemetery","pluralName":"Cemeteries","shortName":"Cemetery","icon":{"prefix":"https:\/\/foursquare.com\/img\/categories_v2\/parks_outdoors\/cemetery_","suffix":".png"},"primary":true}],"verified":false,"stats":{"checkinsCount":0,"usersCount":0,"tipCount":0},"likes":{"count":0,"groups":[]},"specials":{"count":0,"items":[]},"hereNow":{"count":0,"groups":[]}},{"id":"4dc548aac65b89d3ca6971d8","name":"株式会社山忠紙芸本社工場","contact":{},"location":{"lat":34.920651,"lng":135.809965,"city":"Uji","state":"Kyoto Prefecture","country":"Japan"},"categories":[{"id":"4bf58dd8d48988d124941735","name":"Office","pluralName":"Offices","shortName":"Corporate \/ Office","icon":{"prefix":"https:\/\/foursquare.com\/img\/categories_v2\/building\/default_","suffix":".png"},"primary":true}],"verified":false,"stats":{"checkinsCount":4,"usersCount":2,"tipCount":0},"likes":{"count":0,"groups":[]},"hereNow":{"count":0,"groups":[]}}]}}
