{"meta":{"code":200},"response":{"venues":[{"id":"4d743a549b28224bd557d30f","name":"京都地方法務局 宇治支局","contact":{"phone":"+81774244121","formattedPhone":"+81 774-24-4121"},"location":{"address":"宇治琵琶33-2","lat":34.88586098430873,"lng":135.7996845193574,"postalCode":"611-0021","city":"宇治市","state":"京都府","country":"Japan"},"categories":[],"verified":false,"stats":{"checkinsCount":17,"usersCount":10,"tipCount":1},"likes":{"count":0,"groups":[]},"specials":{"count":0,"items":[]},"hereNow":{"count":0,"groups":[]}},{"id":"4dce90f4e4cd130e166989e2","name":"備長扇屋 小倉駅前店","contact":{},"location":{"lat":34.88569896492879,"lng":135.7996011439097,"city":"Uji","state":"Kyoto Prefecture","country":"Japan"},"categories":[{"id":"4d4b7105d754a06374d81259","name":"Food","pluralName":"Food","shortName":"Food","icon":{"prefix":"https:\/\/foursquare.com\/img\/categories_v2\/food\/default_","suffix":".png"},"primary":true}],"verified":false,"stats":{"checkinsCount":4,"usersCount":3,"tipCount":0},"likes":{"count":0,"groups":[]},"specials":{"count":0,"items":[]},"hereNow":{"count":0,"groups":[]}},{"id":"4e619d931f6ef7d07a5be88e","name":"ロバ","contact":{"phone":"+81774245966","formattedPhone":"+81 774-24-5966"},"location":{"address":"宇治壱番83","lat":34.88682363419805,"lng":135.79891561797044,"city":"宇治市","state":"京都府","country":"Japan"},"categories":[{"id":"4bf58dd8d48988d111941735","name":"Japanese Restaurant","pluralName":"Japanese Restaurants","shortName":"Japanese","icon":{"prefix":"https:\/\/foursquare.com\/img\/categories_v2\/food\/japanese_","suffix":".png"},"primary":true}],"verified":false,"stats":{"checkinsCount":14,"usersCount":7,"tipCount":0},"likes":{"count":0,"groups":[]},"specials":{"count":0,"items":[]},"hereNow":{"count":0,"groups":[]}},{"id":"4b74e707f964a5206ef72de3","name":"松阪園茶舗","contact":{},"location":{"lat":34.88693,"lng":135.799021,"country":"Japan"},"categories":[],"verified":false,"stats":{"checkinsCount":2,"usersCount":1,"tipCount":0},"likes":{"count":0,"groups":[]},"specials":{"count":0,"items":[]},"hereNow":{"count":0,"groups":[]}},{"id":"4d50a549747f6dcb753db8d4","name":"村澤医院","contact":{},"location":{"lat":34.887035,"lng":135.798933,"country":"Japan"},"categories":[{"id":"4bf58dd8d48988d104941735","name":"Medical Center","pluralName":"Medical Centers","shortName":"Medical","icon":{"prefix":"https:\/\/foursquare.com\/img\/categories_v2\/building\/medical_","suffix":".png"},"primary":true}],"verified":false,"stats":{"checkinsCount":1,"usersCount":1,"tipCount":0},"likes":{"count":0,"groups":[]},"specials":{"count":0,"items":[]},"hereNow":{"count":0,"groups":[]}}]}}
