{"meta":{"code":200},"response":{"venues":[{"id":"4e06ad89ae60a90eabc4d3dd","name":"ステーキのどん 宇治店","contact":{},"location":{"lat":34.88799611,"lng":135.79829117,"city":"宇治市","state":"京都府","country":"Japan"},"categories":[{"id":"4bf58dd8d48988d1cc941735","name":"Steakhouse","pluralName":"Steakhouses","shortName":"Steakhouse","icon":{"prefix":"https:\/\/foursquare.com\/img\/categories_v2\/food\/steakhouse_","suffix":".png"},"primary":true}],"verified":false,"stats":{"checkinsCount":41,"usersCount":17,"tipCount":0},"likes":{"count":0,"groups":[]},"specials":{"count":0,"items":[]},"hereNow":{"count":0,"groups":[]}},{"id":"4f389eabe4b0cc4ce4bcd597","name":"宇治十帖像","contact":{},"location":{"lat":34.889574940786105,"lng":135.79775765731904,"country":"Japan"},"categories":[{"id":"4deefb944765f83613cdba6e","name":"Historic Site","pluralName":"Historic Sites","shortName":"Historic Site","icon":{"prefix":"https:\/\/foursquare.com\/img\/categories_v2\/arts_entertainment\/historicsite_","suffix":".png"},"primary":true}],"verified":false,"stats":{"checkinsCount":1,"usersCount":1,"tipCount":0},"likes":{"count":0,"groups":[]},"specials":{"count":0,"items":[]},"hereNow":{"count":0,"groups":[]}},{"id":"4e2bf25cfa76bbf847de9f67","name":"セブンイレブン 宇治戸ノ内店","contact":{"phone":"+81774247505","formattedPhone":"+81 774-24-7505"},"location":{"address":"宇治戸ノ内82-4","lat":34.89072337687601,"lng":135.79507112503052,"postalCode":"611-0021","city":"宇治市","state":"京都府","country":"Japan"},"categories":[{"id":"4d954b0ea243a5684a65b473","name":"Convenience Store","pluralName":"Convenience Stores","shortName":"Convenience Stores","icon":{"prefix":"https:\/\/foursquare.com\/img\/categories_v2\/shops\/conveniencestore_","suffix":".png"},"primary":true}],"verified":false,"stats":{"checkinsCount":18,"usersCount":9,"tipCount":0},"likes":{"count":0,"groups":[]},"specials":{"count":0,"items":[]},"hereNow":{"count":0,"groups":[]}},{"id":"4d5c8a950f352d43a8defdec","name":"Foods Bar FORMS","contact":{},"location":{"address":"京都府宇治市宇治戸ノ内82 グラスコート１Ｆ","lat":34.89074042739497,"lng":135.7958221435547,"city":"Uji","state":"Japan","country":"Japan"},"categories":[{"id":"4bf58dd8d48988d116941735","name":"Bar","pluralName":"Bars","shortName":"Bar","icon":{"prefix":"https:\/\/foursquare.com\/img\/categories_v2\/nightlife\/bar_","suffix":".png"},"primary":true}],"verified":false,"stats":{"checkinsCount":0,"usersCount":0,"tipCount":0},"likes":{"count":0,"groups":[]},"specials":{"count":0,"items":[]},"hereNow":{"count":0,"groups":[]}},{"id":"4ce555f6578e59416468e8c9","name":"コーナン JR宇治駅北店","contact":{},"location":{"address":"宇治樋ノ尻79-1","lat":34.89272486362418,"lng":135.79447031021118,"city":"宇治市","state":"京都府","country":"Japan"},"categories":[{"id":"4bf58dd8d48988d112951735","name":"Hardware Store","pluralName":"Hardware Stores","shortName":"Hardware","icon":{"prefix":"https:\/\/foursquare.com\/img\/categories_v2\/shops\/hardware_","suffix":".png"},"primary":true}],"verified":false,"stats":{"checkinsCount":196,"usersCount":44,"tipCount":0},"likes":{"count":0,"groups":[]},"specials":{"count":0,"items":[]},"hereNow":{"count":0,"groups":[]}},{"id":"4d931df2123cd7ce1c0d6812","name":"ドラッグユタカ宇治店","contact":{"phone":"+81774202979","formattedPhone":"+81 774-20-2979"},"location":{"address":"宇治樋ノ尻79-1","crossStreet":"フレンドマート宇治店 ２Ｆ","lat":34.89245206148546,"lng":135.7940948009491,"postalCode":"611-0021","city":"宇治市","state":"京都府","country":"Japan"},"categories":[{"id":"4bf58dd8d48988d10f951735","name":"Drugstore \/ Pharmacy","pluralName":"Drugstores \/ Pharmacies","shortName":"Pharmacy","icon":{"prefix":"https:\/\/foursquare.com\/img\/categories_v2\/shops\/pharmacy_","suffix":".png"},"primary":true}],"verified":false,"stats":{"checkinsCount":50,"usersCount":4,"tipCount":0},"likes":{"count":0,"groups":[]},"specials":{"count":0,"items":[]},"hereNow":{"count":0,"groups":[]}},{"id":"4ed85dda5c5c96a2fbc8d830","name":"文左亭","contact":{},"location":{"lat":34.8919792175293,"lng":135.79432678222656,"country":"Japan"},"categories":[{"id":"4bf58dd8d48988d1c7941735","name":"Snack Place","pluralName":"Snack Places","shortName":"Snacks","icon":{"prefix":"https:\/\/foursquare.com\/img\/categories_v2\/food\/snacks_","suffix":".png"},"primary":true}],"verified":false,"stats":{"checkinsCount":1,"usersCount":1,"tipCount":0},"likes":{"count":0,"groups":[]},"specials":{"count":0,"items":[]},"hereNow":{"count":0,"groups":[]}},{"id":"4c7f01b6e4b06dcb050846d7","name":"フレンドマート 宇治店","contact":{"phone":"+81774283900","formattedPhone":"+81 774-28-3900"},"location":{"address":"宇治樋ノ尻79番地の1","lat":34.891691,"lng":135.794458,"postalCode":"611-0021","city":"宇治市","state":"京都府","country":"Japan"},"categories":[{"id":"4bf58dd8d48988d118951735","name":"Grocery Store","pluralName":"Grocery Stores","shortName":"Grocery Store","icon":{"prefix":"https:\/\/foursquare.com\/img\/categories_v2\/shops\/food_grocery_","suffix":".png"},"primary":true}],"verified":false,"stats":{"checkinsCount":182,"usersCount":41,"tipCount":0},"likes":{"count":0,"groups":[]},"specials":{"count":0,"items":[]},"hereNow":{"count":0,"groups":[]}},{"id":"4b751a14f964a520f9fd2de3","name":"ジョーシン 宇治店","contact":{},"location":{"address":"宇治樋ノ尻７９−１","lat":34.891735,"lng":135.794499,"city":"宇治市","state":"京都府","country":"Japan"},"categories":[{"id":"4bf58dd8d48988d122951735","name":"Electronics Store","pluralName":"Electronics Stores","shortName":"Electronics","icon":{"prefix":"https:\/\/foursquare.com\/img\/categories_v2\/shops\/technology_","suffix":".png"},"primary":true}],"verified":false,"stats":{"checkinsCount":140,"usersCount":41,"tipCount":1},"likes":{"count":0,"groups":[]},"specials":{"count":0,"items":[]},"hereNow":{"count":0,"groups":[]}},{"id":"4c821feedc018cfa771acc6c","name":"宇治郵便局","contact":{},"location":{"address":"宇治蔭山6","lat":34.89095163353009,"lng":135.7927429676056,"postalCode":"6110021","city":"宇治市","state":"京都府","country":"Japan"},"categories":[{"id":"4bf58dd8d48988d172941735","name":"Post Office","pluralName":"Post Offices","shortName":"Post Office","icon":{"prefix":"https:\/\/foursquare.com\/img\/categories_v2\/building\/postoffice_","suffix":".png"},"primary":true}],"verified":false,"stats":{"checkinsCount":199,"usersCount":30,"tipCount":0},"likes":{"count":0,"groups":[]},"specials":{"count":0,"items":[]},"hereNow":{"count":0,"groups":[]}},{"id":"4e506c91b0fb088f3c2aee9b","name":"セリア生活良品 宇治店","contact":{"phone":"+81774247761","formattedPhone":"+81 774-24-7761"},"location":{"address":"宇治樋ノ尻7","lat":34.892038456515024,"lng":135.79474925994873,"city":"宇治市","state":"京都府","country":"Japan"},"categories":[{"id":"4d4b7105d754a06378d81259","name":"Shop & Service","pluralName":"Shops & Services","shortName":"Shops","icon":{"prefix":"https:\/\/foursquare.com\/img\/categories_v2\/shops\/default_","suffix":".png"},"primary":true}],"verified":false,"stats":{"checkinsCount":39,"usersCount":5,"tipCount":0},"likes":{"count":0,"groups":[]},"specials":{"count":0,"items":[]},"hereNow":{"count":1,"groups":[{"type":"others","name":"Other people here","count":1,"items":[]}]}},{"id":"4dd23dfad16465f3f94d3bc5","name":"魚民 宇治駅前店","contact":{},"location":{"lat":34.88874339,"lng":135.79793556,"country":"Japan"},"categories":[{"id":"4bf58dd8d48988d116941735","name":"Bar","pluralName":"Bars","shortName":"Bar","icon":{"prefix":"https:\/\/foursquare.com\/img\/categories_v2\/nightlife\/bar_","suffix":".png"},"primary":true}],"verified":false,"stats":{"checkinsCount":13,"usersCount":6,"tipCount":0},"likes":{"count":0,"groups":[]},"specials":{"count":0,"items":[]},"hereNow":{"count":0,"groups":[]}},{"id":"4d78810fa56e3704843a6c67","name":"京都府山城広域振興局","contact":{},"location":{"address":"日本","lat":34.888231867671635,"lng":135.7972342683202,"city":"宇治市","state":"京都府","country":"Japan"},"categories":[{"id":"4bf58dd8d48988d100941735","name":"Meeting Room","pluralName":"Meeting Rooms","shortName":"Meeting Room","icon":{"prefix":"https:\/\/foursquare.com\/img\/categories_v2\/building\/conventioncenter_meetingroom_","suffix":".png"},"primary":true}],"verified":false,"stats":{"checkinsCount":15,"usersCount":9,"tipCount":0},"likes":{"count":0,"groups":[]},"specials":{"count":0,"items":[]},"hereNow":{"count":0,"groups":[]}},{"id":"4f0e7c3b7716c5cc0ada0f3d","name":"山城広域振興局旅券窓口","contact":{"phone":"+81774245362","formattedPhone":"+81 774-24-5362"},"location":{"address":"宇治若森7-6","crossStreet":"山城広域振興局宇治総合庁舎 3F","lat":34.88789129157376,"lng":135.79741537570953,"postalCode":"611-0021","city":"宇治市","state":"京都府","country":"Japan"},"categories":[{"id":"4bf58dd8d48988d126941735","name":"Government Building","pluralName":"Government Buildings","shortName":"Government","icon":{"prefix":"https:\/\/foursquare.com\/img\/categories_v2\/building\/government_","suffix":".png"},"primary":true}],"verified":false,"stats":{"checkinsCount":0,"usersCount":0,"tipCount":0},"likes":{"count":0,"groups":[]},"specials":{"count":0,"items":[]},"hereNow":{"count":0,"groups":[]}}]}}
