{"meta":{"code":200},"response":{"venues":[{"id":"4b7cd8a7f964a52045a72fe3","name":"ファミリーマート 宇治弐番店","contact":{"phone":"+81774286827","formattedPhone":"+81 774-28-6827"},"location":{"address":"宇治弐番84-1","lat":34.88524227667114,"lng":135.7971552014351,"city":"宇治市","state":"京都府","country":"Japan"},"categories":[{"id":"4d954b0ea243a5684a65b473","name":"Convenience Store","pluralName":"Convenience Stores","shortName":"Convenience Stores","icon":{"prefix":"https:\/\/foursquare.com\/img\/categories_v2\/shops\/conveniencestore_","suffix":".png"},"primary":true}],"verified":false,"stats":{"checkinsCount":48,"usersCount":14,"tipCount":0},"likes":{"count":0,"groups":[]},"specials":{"count":0,"items":[]},"hereNow":{"count":0,"groups":[]}},{"id":"4d45f25ff83bcbffd0082fdc","name":"Solbird","contact":{"phone":"+81774237580","formattedPhone":"+81 774-23-7580"},"location":{"address":"宇治池森31-27","lat":34.884967,"lng":135.794222,"postalCode":"611-0021","city":"宇治市","state":"京都府","country":"Japan"},"categories":[{"id":"4bf58dd8d48988d1f2941735","name":"Sporting Goods Shop","pluralName":"Sporting Goods Shops","shortName":"Sporting Goods","icon":{"prefix":"https:\/\/foursquare.com\/img\/categories_v2\/shops\/sports_outdoors_","suffix":".png"},"primary":true}],"verified":false,"stats":{"checkinsCount":10,"usersCount":1,"tipCount":0},"likes":{"count":0,"groups":[]},"specials":{"count":0,"items":[]},"hereNow":{"count":0,"groups":[]}},{"id":"4f199d4fe4b02a5a243132b9","name":"A101 Armaganevler","contact":{},"location":{"address":"23 Nisan Cad.","lat":34.886051,"lng":135.797319,"city":"İstanbul","state":"Turkiye","country":"Japan"},"categories":[{"id":"4bf58dd8d48988d118951735","name":"Grocery Store","pluralName":"Grocery Stores","shortName":"Grocery Store","icon":{"prefix":"https:\/\/foursquare.com\/img\/categories_v2\/shops\/food_grocery_","suffix":".png"},"primary":true}],"verified":false,"stats":{"checkinsCount":0,"usersCount":0,"tipCount":0},"likes":{"count":0,"groups":[]},"specials":{"count":0,"items":[]},"hereNow":{"count":0,"groups":[]}},{"id":"4e06ad89ae60a90eabc4d3dd","name":"ステーキのどん 宇治店","contact":{},"location":{"lat":34.88799611,"lng":135.79829117,"city":"宇治市","state":"京都府","country":"Japan"},"categories":[{"id":"4bf58dd8d48988d1cc941735","name":"Steakhouse","pluralName":"Steakhouses","shortName":"Steakhouse","icon":{"prefix":"https:\/\/foursquare.com\/img\/categories_v2\/food\/steakhouse_","suffix":".png"},"primary":true}],"verified":false,"stats":{"checkinsCount":41,"usersCount":17,"tipCount":0},"likes":{"count":0,"groups":[]},"specials":{"count":0,"items":[]},"hereNow":{"count":0,"groups":[]}},{"id":"4da4245d7ccc816e9bb88a7b","name":"音楽教室","contact":{},"location":{"lat":34.88354980945587,"lng":135.7979518175125,"country":"Japan"},"categories":[],"verified":false,"stats":{"checkinsCount":2,"usersCount":1,"tipCount":0},"likes":{"count":0,"groups":[]},"specials":{"count":0,"items":[]},"hereNow":{"count":0,"groups":[]}},{"id":"4f0e7c3b7716c5cc0ada0f3d","name":"山城広域振興局旅券窓口","contact":{"phone":"+81774245362","formattedPhone":"+81 774-24-5362"},"location":{"address":"宇治若森7-6","crossStreet":"山城広域振興局宇治総合庁舎 3F","lat":34.88789129157376,"lng":135.79741537570953,"postalCode":"611-0021","city":"宇治市","state":"京都府","country":"Japan"},"categories":[{"id":"4bf58dd8d48988d126941735","name":"Government Building","pluralName":"Government Buildings","shortName":"Government","icon":{"prefix":"https:\/\/foursquare.com\/img\/categories_v2\/building\/government_","suffix":".png"},"primary":true}],"verified":false,"stats":{"checkinsCount":0,"usersCount":0,"tipCount":0},"likes":{"count":0,"groups":[]},"specials":{"count":0,"items":[]},"hereNow":{"count":0,"groups":[]}},{"id":"4d9beb3765c0cbff0ffbbf44","name":"野神社","contact":{},"location":{"address":"宇治野神","lat":34.883425,"lng":135.79605,"postalCode":"611-0021","city":"宇治市","state":"京都府","country":"Japan"},"categories":[{"id":"4bf58dd8d48988d131941735","name":"Religious Center","pluralName":"Religious Centers","shortName":"Religious","icon":{"prefix":"https:\/\/foursquare.com\/img\/categories_v2\/building\/religious_","suffix":".png"},"primary":true}],"verified":false,"stats":{"checkinsCount":23,"usersCount":2,"tipCount":0},"likes":{"count":0,"groups":[]},"specials":{"count":0,"items":[]},"hereNow":{"count":0,"groups":[]}},{"id":"4d42e4439f7aba7a55ce28f9","name":"和於屋三線","contact":{"twitter":"waoya_sanshin"},"location":{"address":"宇治池森23-8","lat":34.885724,"lng":135.794623,"city":"宇治市","state":"京都府","country":"Japan"},"categories":[{"id":"4bf58dd8d48988d1fe941735","name":"Music Store","pluralName":"Music Stores","shortName":"Music Store","icon":{"prefix":"https:\/\/foursquare.com\/img\/categories_v2\/shops\/music_instruments_","suffix":".png"},"primary":true}],"verified":false,"stats":{"checkinsCount":39,"usersCount":3,"tipCount":1},"likes":{"count":0,"groups":[]},"specials":{"count":0,"items":[]},"hereNow":{"count":0,"groups":[]}},{"id":"4c36f90052dfef3b69ebee70","name":"ライブ居酒屋Waoya","contact":{},"location":{"address":"京都府宇治市宇治池森23-8","lat":34.8857373233197,"lng":135.7945293188095,"city":"Uji","state":"Japan","country":"Japan"},"categories":[{"id":"4bf58dd8d48988d111941735","name":"Japanese Restaurant","pluralName":"Japanese Restaurants","shortName":"Japanese","icon":{"prefix":"https:\/\/foursquare.com\/img\/categories_v2\/food\/japanese_","suffix":".png"},"primary":true}],"verified":false,"stats":{"checkinsCount":37,"usersCount":2,"tipCount":0},"likes":{"count":0,"groups":[]},"specials":{"count":0,"items":[]},"hereNow":{"count":0,"groups":[]}},{"id":"4d9bea0b65c0cbff43f5bf44","name":"スワ診療所","contact":{"phone":"+81774225068","formattedPhone":"+81 774-22-5068"},"location":{"address":"宇治野神1-86","lat":34.883533,"lng":135.796754,"postalCode":"611-0021","city":"宇治市","state":"京都府","country":"Japan"},"categories":[{"id":"4bf58dd8d48988d177941735","name":"Doctor's Office","pluralName":"Doctor's Offices","shortName":"Doctor's Office","icon":{"prefix":"https:\/\/foursquare.com\/img\/categories_v2\/building\/medical_","suffix":".png"},"primary":true}],"verified":false,"stats":{"checkinsCount":3,"usersCount":1,"tipCount":0},"likes":{"count":0,"groups":[]},"specials":{"count":0,"items":[]},"hereNow":{"count":0,"groups":[]}},{"id":"4d4e219ddb1b370493ed091f","name":"ラーメンごんろく","contact":{},"location":{"lat":34.88588253643756,"lng":135.7948887348175,"country":"Japan"},"categories":[{"id":"4bf58dd8d48988d111941735","name":"Japanese Restaurant","pluralName":"Japanese Restaurants","shortName":"Japanese","icon":{"prefix":"https:\/\/foursquare.com\/img\/categories_v2\/food\/japanese_","suffix":".png"},"primary":true}],"verified":false,"stats":{"checkinsCount":36,"usersCount":5,"tipCount":0},"likes":{"count":0,"groups":[]},"specials":{"count":0,"items":[]},"hereNow":{"count":0,"groups":[]}},{"id":"4c999c88a004a1cd0e60416e","name":"ハローワーク宇治","contact":{"phone":"+81774208609","formattedPhone":"+81 774-20-8609"},"location":{"address":"宇治池森16-4","lat":34.88560787623575,"lng":135.79486751006175,"postalCode":"611-0021","city":"宇治市","state":"京都府","country":"Japan"},"categories":[{"id":"4bf58dd8d48988d126941735","name":"Government Building","pluralName":"Government Buildings","shortName":"Government","icon":{"prefix":"https:\/\/foursquare.com\/img\/categories_v2\/building\/government_","suffix":".png"},"primary":true}],"verified":false,"stats":{"checkinsCount":38,"usersCount":10,"tipCount":0},"likes":{"count":0,"groups":[]},"specials":{"count":0,"items":[]},"hereNow":{"count":0,"groups":[]}},{"id":"4f681a96e4b0786040af47cb","name":"ニュータージマハルエベレスト","contact":{},"location":{"lat":34.883955,"lng":135.795179,"city":"宇治市","country":"Japan"},"categories":[{"id":"4bf58dd8d48988d10f941735","name":"Indian Restaurant","pluralName":"Indian Restaurants","shortName":"Indian","icon":{"prefix":"https:\/\/foursquare.com\/img\/categories_v2\/food\/default_","suffix":".png"},"primary":true}],"verified":false,"stats":{"checkinsCount":2,"usersCount":2,"tipCount":1},"likes":{"count":0,"groups":[]},"specials":{"count":0,"items":[]},"hereNow":{"count":0,"groups":[]}},{"id":"4d69cc6ec165548121d6f081","name":"竹林","contact":{},"location":{"address":"京都府宇治市宇治弐番８３","lat":34.88511686438005,"lng":135.79680383205414,"city":"宇治市","state":"京都府","country":"Japan"},"categories":[{"id":"4bf58dd8d48988d111941735","name":"Japanese Restaurant","pluralName":"Japanese Restaurants","shortName":"Japanese","icon":{"prefix":"https:\/\/foursquare.com\/img\/categories_v2\/food\/japanese_","suffix":".png"},"primary":true}],"verified":false,"stats":{"checkinsCount":10,"usersCount":9,"tipCount":0},"likes":{"count":0,"groups":[]},"specials":{"count":0,"items":[]},"hereNow":{"count":0,"groups":[]}},{"id":"4c99aab178fc236a6ffc2e97","name":"京一 宇治神明店","contact":{},"location":{"lat":34.884519,"lng":135.795265,"country":"Japan"},"categories":[{"id":"4bf58dd8d48988d17c941735","name":"Casino","pluralName":"Casinos","shortName":"Casino","icon":{"prefix":"https:\/\/foursquare.com\/img\/categories_v2\/arts_entertainment\/casino_","suffix":".png"},"primary":true}],"verified":false,"stats":{"checkinsCount":2,"usersCount":1,"tipCount":0},"likes":{"count":0,"groups":[]},"specials":{"count":0,"items":[]},"hereNow":{"count":0,"groups":[]}},{"id":"4fb710e6e4b06a37b66c7e8b","name":"スギドラック宇治店","contact":{"phone":"+81774284181","formattedPhone":"+81 774-28-4181"},"location":{"address":"宇治弐番78番地1","lat":34.884368896484375,"lng":135.79605102539062,"postalCode":"6110021","city":"宇治市","state":"京都府","country":"Japan"},"categories":[{"id":"4bf58dd8d48988d10f951735","name":"Drugstore \/ Pharmacy","pluralName":"Drugstores \/ Pharmacies","shortName":"Pharmacy","icon":{"prefix":"https:\/\/foursquare.com\/img\/categories_v2\/shops\/pharmacy_","suffix":".png"},"primary":true}],"verified":false,"stats":{"checkinsCount":1,"usersCount":1,"tipCount":0},"likes":{"count":0,"groups":[]},"specials":{"count":0,"items":[]},"hereNow":{"count":0,"groups":[]}},{"id":"4fae205be4b08a2bb93b5b98","name":"コパン宇治","contact":{},"location":{"lat":34.885379791259766,"lng":135.79669189453125,"country":"Japan"},"categories":[{"id":"4bf58dd8d48988d105941735","name":"Gym Pool","pluralName":"Gym Pools","shortName":"Pool","icon":{"prefix":"https:\/\/foursquare.com\/img\/categories_v2\/shops\/gym_pool_","suffix":".png"},"primary":true}],"verified":false,"stats":{"checkinsCount":2,"usersCount":2,"tipCount":0},"likes":{"count":0,"groups":[]},"specials":{"count":0,"items":[]},"hereNow":{"count":0,"groups":[]}}]}}
