{"meta":{"code":200},"response":{"venues":[{"id":"4b584117f964a520be4f28e3","name":"京阪 中書島駅 (Chushojima Sta.)","contact":{},"location":{"address":"伏見区葭島矢倉町59","lat":34.926861978190324,"lng":135.75998783111572,"postalCode":"612-8224","city":"京都市","state":"京都府","country":"Japan"},"categories":[{"id":"4bf58dd8d48988d129951735","name":"Train Station","pluralName":"Train Stations","shortName":"Train Station","icon":{"prefix":"https:\/\/foursquare.com\/img\/categories_v2\/travel\/trainstation_","suffix":".png"},"primary":true}],"verified":false,"stats":{"checkinsCount":6524,"usersCount":1035,"tipCount":9},"likes":{"count":0,"groups":[]},"specials":{"count":0,"items":[]},"hereNow":{"count":2,"groups":[{"type":"others","name":"Other people here","count":2,"items":[]}]}},{"id":"4f4b97bfe4b0b1e352eb1d7c","name":"新向島湯","contact":{},"location":{"address":"京都市伏見区向島二ノ丸町25","lat":34.921614,"lng":135.770946,"country":"Japan"},"categories":[{"id":"4bf58dd8d48988d1ed941735","name":"Spa or Massage","pluralName":"Spas or Massages","shortName":"Spas \/ Massage","icon":{"prefix":"https:\/\/foursquare.com\/img\/categories_v2\/shops\/spa_","suffix":".png"},"primary":true}],"verified":false,"stats":{"checkinsCount":1,"usersCount":1,"tipCount":0},"likes":{"count":0,"groups":[]},"specials":{"count":0,"items":[]},"hereNow":{"count":0,"groups":[]}},{"id":"4d018eb5c8bda09323ac76af","name":"竹田街道外環","contact":{},"location":{"address":"葭島金井戸町","crossStreet":"竹田街道外環","lat":34.92489980861063,"lng":135.75978599488735,"city":"京都市伏見区","state":"京都府","country":"Japan"},"categories":[{"id":"4bf58dd8d48988d1f9931735","name":"Road","pluralName":"Roads","shortName":"Road","icon":{"prefix":"https:\/\/foursquare.com\/img\/categories_v2\/travel\/highway_","suffix":".png"},"primary":true}],"verified":false,"stats":{"checkinsCount":65,"usersCount":2,"tipCount":0},"likes":{"count":0,"groups":[]},"specials":{"count":0,"items":[]},"hereNow":{"count":0,"groups":[]}},{"id":"4bda8e082a3a0f47d06eabb6","name":"キザクラ カッパカントリー","contact":{"phone":"+81756119921","formattedPhone":"+81 75-611-9921"},"location":{"address":"塩屋町228","lat":34.93065313734304,"lng":135.76049208641052,"postalCode":"612-8046","city":"京都市伏見区","state":"京都府","country":"Japan"},"categories":[{"id":"4bf58dd8d48988d171941735","name":"Event Space","pluralName":"Event Spaces","shortName":"Event Space","icon":{"prefix":"https:\/\/foursquare.com\/img\/categories_v2\/building\/eventspace_","suffix":".png"},"primary":true}],"verified":false,"stats":{"checkinsCount":309,"usersCount":198,"tipCount":0},"likes":{"count":0,"groups":[]},"specials":{"count":0,"items":[]},"hereNow":{"count":0,"groups":[]}},{"id":"4f2bb3cfe4b0dd6b7749d2a9","name":"かっぱ天国 黄桜酒場 Kappa Tengoku","contact":{"phone":"+81756119919","formattedPhone":"+81 75-611-9919"},"location":{"address":"塩屋町228","lat":34.93090617175557,"lng":135.76049096538924,"postalCode":"612-8046","city":"伏見区","state":"京都","country":"Japan"},"categories":[{"id":"4bf58dd8d48988d111941735","name":"Japanese Restaurant","pluralName":"Japanese Restaurants","shortName":"Japanese","icon":{"prefix":"https:\/\/foursquare.com\/img\/categories_v2\/food\/japanese_","suffix":".png"},"primary":true}],"verified":false,"stats":{"checkinsCount":12,"usersCount":11,"tipCount":1},"url":"http:\/\/www.kizakura.co.jp\/","likes":{"count":0,"groups":[]},"specials":{"count":0,"items":[]},"hereNow":{"count":0,"groups":[]}},{"id":"4bd1152b462cb713dec9d907","name":"チャイニーズ Lee","contact":{"phone":"+81756210345","formattedPhone":"+81 75-621-0345"},"location":{"address":"納屋町120-1","lat":34.93048804031109,"lng":135.76142586471724,"city":"京都市","state":"京都府","country":"Japan"},"categories":[{"id":"4bf58dd8d48988d145941735","name":"Chinese Restaurant","pluralName":"Chinese Restaurants","shortName":"Chinese","icon":{"prefix":"https:\/\/foursquare.com\/img\/categories_v2\/food\/chinese_","suffix":".png"},"primary":true}],"verified":false,"stats":{"checkinsCount":15,"usersCount":4,"tipCount":1},"likes":{"count":0,"groups":[]},"specials":{"count":0,"items":[]},"hereNow":{"count":0,"groups":[]}},{"id":"4e22a067483b041af1f92ccb","name":"伏見土佐藩邸跡","contact":{},"location":{"lat":34.9306839233012,"lng":135.7614952325821,"city":"京都市","state":"京都府","country":"Japan"},"categories":[{"id":"4deefb944765f83613cdba6e","name":"Historic Site","pluralName":"Historic Sites","shortName":"Historic Site","icon":{"prefix":"https:\/\/foursquare.com\/img\/categories_v2\/arts_entertainment\/historicsite_","suffix":".png"},"primary":true}],"verified":false,"stats":{"checkinsCount":22,"usersCount":6,"tipCount":0},"likes":{"count":0,"groups":[]},"specials":{"count":0,"items":[]},"hereNow":{"count":0,"groups":[]}},{"id":"4f3bc19ce4b0f7c8c722dee6","name":"京阪 中書島駅前 喫煙コーナー","contact":{},"location":{"address":"伏見区葭島矢倉町57-3","lat":34.9268969412393,"lng":135.759903191539,"city":"京都市","state":"京都府","country":"Japan"},"categories":[{"id":"4bf58dd8d48988d129951735","name":"Train Station","pluralName":"Train Stations","shortName":"Train Station","icon":{"prefix":"https:\/\/foursquare.com\/img\/categories_v2\/travel\/trainstation_","suffix":".png"},"primary":true}],"verified":false,"stats":{"checkinsCount":104,"usersCount":9,"tipCount":0},"likes":{"count":0,"groups":[]},"specials":{"count":0,"items":[]},"hereNow":{"count":0,"groups":[]}},{"id":"4fd14994e4b0362dd35df19a","name":"京都京町郵便局","contact":{},"location":{"address":"京町","crossStreet":"伏見区","lat":34.93030990775576,"lng":135.76463798532836,"city":"京都市","country":"Japan"},"categories":[{"id":"4bf58dd8d48988d1fd941735","name":"Mall","pluralName":"Malls","shortName":"Mall","icon":{"prefix":"https:\/\/foursquare.com\/img\/categories_v2\/shops\/mall_","suffix":".png"},"primary":true}],"verified":false,"stats":{"checkinsCount":3,"usersCount":1,"tipCount":0},"likes":{"count":0,"groups":[]},"specials":{"count":0,"items":[]},"hereNow":{"count":0,"groups":[]}},{"id":"4c2e022711cb9c74750173b3","name":"月桂冠大倉記念館","contact":{"phone":"+81756232056","formattedPhone":"+81 75-623-2056"},"location":{"address":"南浜町247番地","lat":34.928834,"lng":135.76194694,"postalCode":"612-8660","city":"京都市伏見区","state":"京都府","country":"Japan"},"categories":[{"id":"4bf58dd8d48988d190941735","name":"History Museum","pluralName":"History Museums","shortName":"History Museum","icon":{"prefix":"https:\/\/foursquare.com\/img\/categories_v2\/arts_entertainment\/museum_history_","suffix":".png"},"primary":true}],"verified":false,"stats":{"checkinsCount":179,"usersCount":148,"tipCount":0},"likes":{"count":0,"groups":[]},"specials":{"count":0,"items":[]},"hereNow":{"count":0,"groups":[]}},{"id":"4e6ed1148998fd5c56595309","name":"ハーレーダビッドソン京都 洛南","contact":{},"location":{"address":"島津町121","lat":34.929571,"lng":135.764021,"city":"京都市伏見区","state":"京都府","country":"Japan"},"categories":[{"id":"4bf58dd8d48988d115951735","name":"Bike Shop","pluralName":"Bike Shops","shortName":"Bike shop","icon":{"prefix":"https:\/\/foursquare.com\/img\/categories_v2\/shops\/bikeshop_","suffix":".png"},"primary":true}],"verified":false,"stats":{"checkinsCount":2,"usersCount":1,"tipCount":0},"likes":{"count":0,"groups":[]},"specials":{"count":0,"items":[]},"hereNow":{"count":0,"groups":[]}},{"id":"4f7975d5e4b06ff83801cdb9","name":"広瀬レディースクリニック","contact":{},"location":{"lat":34.929473876953125,"lng":135.76449584960938,"country":"Japan"},"categories":[{"id":"4bf58dd8d48988d196941735","name":"Hospital","pluralName":"Hospitals","shortName":"Hospital","icon":{"prefix":"https:\/\/foursquare.com\/img\/categories_v2\/building\/medical_hospital_","suffix":".png"},"primary":true}],"verified":false,"stats":{"checkinsCount":1,"usersCount":1,"tipCount":0},"likes":{"count":0,"groups":[]},"specials":{"count":0,"items":[]},"hereNow":{"count":0,"groups":[]}},{"id":"4dc8972f1f6e936efe47f410","name":"京都南労働基準監督署","contact":{},"location":{"address":"日本","lat":34.93009150028229,"lng":135.76544880867004,"city":"京都市","state":"京都府","country":"Japan"},"categories":[],"verified":false,"stats":{"checkinsCount":6,"usersCount":2,"tipCount":0},"likes":{"count":0,"groups":[]},"specials":{"count":0,"items":[]},"hereNow":{"count":0,"groups":[]}},{"id":"4fd14b56e4b04e713c65cd42","name":"ももやま駐輪場","contact":{},"location":{"address":"俸行前町2-2","crossStreet":"伏見区","lat":34.931631,"lng":135.765877,"city":"京都市","country":"Japan"},"categories":[{"id":"4bf58dd8d48988d123951735","name":"Smoke Shop","pluralName":"Smoke Shops","shortName":"Tobacco & Cigars","icon":{"prefix":"https:\/\/foursquare.com\/img\/categories_v2\/shops\/tobacco_","suffix":".png"},"primary":true}],"verified":false,"stats":{"checkinsCount":2,"usersCount":1,"tipCount":0},"likes":{"count":0,"groups":[]},"specials":{"count":0,"items":[]},"hereNow":{"count":0,"groups":[]}},{"id":"4c2ff02d452620a1de791e0f","name":"伏見奉行所跡","contact":{},"location":{"lat":34.931175,"lng":135.765965,"country":"Japan"},"categories":[],"verified":false,"stats":{"checkinsCount":3,"usersCount":3,"tipCount":0},"likes":{"count":0,"groups":[]},"specials":{"count":0,"items":[]},"hereNow":{"count":0,"groups":[]}},{"id":"4e3c930e62e19d61096364f4","name":"日能研 桃山校","contact":{},"location":{"lat":34.931467,"lng":135.765826,"city":"京都市","state":"京都府","country":"Japan"},"categories":[{"id":"4bf58dd8d48988d13b941735","name":"School","pluralName":"Schools","shortName":"School","icon":{"prefix":"https:\/\/foursquare.com\/img\/categories_v2\/building\/school_","suffix":".png"},"primary":true}],"verified":false,"stats":{"checkinsCount":5,"usersCount":2,"tipCount":0},"likes":{"count":0,"groups":[]},"specials":{"count":0,"items":[]},"hereNow":{"count":0,"groups":[]}},{"id":"4def24a045dd29e26897ff45","name":"MILK BLOOSSOM Matsubara","contact":{},"location":{"lat":34.931273,"lng":135.764753,"country":"Japan"},"categories":[{"id":"4bf58dd8d48988d1e0931735","name":"Coffee Shop","pluralName":"Coffee Shops","shortName":"Coffee Shop","icon":{"prefix":"https:\/\/foursquare.com\/img\/categories_v2\/food\/coffeeshop_","suffix":".png"},"primary":true}],"verified":false,"stats":{"checkinsCount":2,"usersCount":1,"tipCount":0},"likes":{"count":0,"groups":[]},"specials":{"count":0,"items":[]},"hereNow":{"count":0,"groups":[]}},{"id":"4d95408061a3a1cd89038042","name":"大進亭","contact":{},"location":{"lat":34.93169,"lng":135.765543,"country":"Japan"},"categories":[{"id":"4bf58dd8d48988d1c4941735","name":"Restaurant","pluralName":"Restaurants","shortName":"Other - Food","icon":{"prefix":"https:\/\/foursquare.com\/img\/categories_v2\/food\/default_","suffix":".png"},"primary":true}],"verified":false,"stats":{"checkinsCount":2,"usersCount":2,"tipCount":0},"likes":{"count":0,"groups":[]},"specials":{"count":0,"items":[]},"hereNow":{"count":0,"groups":[]}},{"id":"4b5c1fa7f964a520d22429e3","name":"京阪 観月橋駅 (Kangetsukyo Sta.)","contact":{},"location":{"address":"伏見区豊後橋町761","lat":34.928090165811646,"lng":135.768411308527,"postalCode":"612-8106","city":"京都市","state":"京都府","country":"Japan"},"categories":[{"id":"4bf58dd8d48988d129951735","name":"Train Station","pluralName":"Train Stations","shortName":"Train Station","icon":{"prefix":"https:\/\/foursquare.com\/img\/categories_v2\/travel\/trainstation_","suffix":".png"},"primary":true}],"verified":false,"stats":{"checkinsCount":353,"usersCount":98,"tipCount":1},"likes":{"count":0,"groups":[]},"specials":{"count":0,"items":[]},"hereNow":{"count":1,"groups":[{"type":"others","name":"Other people here","count":1,"items":[]}]}},{"id":"4bb5b51d941ad13a1b771ee3","name":"アンスリー 中書島店","contact":{"phone":"+81756046401","formattedPhone":"+81 75-604-6401"},"location":{"address":"葭島矢倉町59","lat":34.9268565772922,"lng":135.7602179041949,"city":"京都市伏見区","state":"京都府","country":"Japan"},"categories":[{"id":"4bf58dd8d48988d118951735","name":"Grocery Store","pluralName":"Grocery Stores","shortName":"Grocery Store","icon":{"prefix":"https:\/\/foursquare.com\/img\/categories_v2\/shops\/food_grocery_","suffix":".png"},"primary":true}],"verified":false,"stats":{"checkinsCount":269,"usersCount":42,"tipCount":0},"likes":{"count":0,"groups":[]},"specials":{"count":0,"items":[]},"hereNow":{"count":0,"groups":[]}},{"id":"4ddf8efe7d8b04e5025ef85d","name":"沼田カイロプラクティック","contact":{},"location":{"address":"日本","lat":34.926674365997314,"lng":135.76050281524658,"city":"京都市","state":"京都府","country":"Japan"},"categories":[{"id":"4bf58dd8d48988d1ed941735","name":"Spa or Massage","pluralName":"Spas or Massages","shortName":"Spas \/ Massage","icon":{"prefix":"https:\/\/foursquare.com\/img\/categories_v2\/shops\/spa_","suffix":".png"},"primary":true}],"verified":false,"stats":{"checkinsCount":16,"usersCount":5,"tipCount":0},"likes":{"count":0,"groups":[]},"specials":{"count":0,"items":[]},"hereNow":{"count":0,"groups":[]}},{"id":"4cb666c6e262b60c76fb6ee0","name":"伏見 夢百衆","contact":{"phone":"+81756231360","formattedPhone":"+81 75-623-1360"},"location":{"address":"南浜町247","lat":34.9297119610468,"lng":135.76215505599976,"city":"京都市伏見区","state":"京都府","country":"Japan"},"categories":[{"id":"4bf58dd8d48988d16d941735","name":"Café","pluralName":"Cafés","shortName":"Café","icon":{"prefix":"https:\/\/foursquare.com\/img\/categories_v2\/food\/cafe_","suffix":".png"},"primary":true}],"verified":false,"stats":{"checkinsCount":52,"usersCount":27,"tipCount":0},"likes":{"count":0,"groups":[]},"specials":{"count":0,"items":[]},"hereNow":{"count":0,"groups":[]}},{"id":"4ee20977754a44a66d2923d4","name":"後崇光太上天皇 伏見松林院陵","contact":{},"location":{"address":"丹後町","lat":34.92930733988112,"lng":135.76299726963043,"city":"京都市伏見区","state":"京都府","country":"Japan"},"categories":[{"id":"4bf58dd8d48988d15c941735","name":"Cemetery","pluralName":"Cemeteries","shortName":"Cemetery","icon":{"prefix":"https:\/\/foursquare.com\/img\/categories_v2\/parks_outdoors\/cemetery_","suffix":".png"},"primary":true}],"verified":false,"stats":{"checkinsCount":2,"usersCount":1,"tipCount":0},"likes":{"count":0,"groups":[]},"specials":{"count":0,"items":[]},"hereNow":{"count":0,"groups":[]}},{"id":"4d488c81ea3f3704e2322c0a","name":"宇治川の上","contact":{},"location":{"lat":34.92591196190526,"lng":135.76687574386597,"country":"Japan"},"categories":[{"id":"4bf58dd8d48988d162941735","name":"Other Great Outdoors","pluralName":"Other Great Outdoors","shortName":"Other Outdoors","icon":{"prefix":"https:\/\/foursquare.com\/img\/categories_v2\/parks_outdoors\/outdoors_","suffix":".png"},"primary":true}],"verified":false,"stats":{"checkinsCount":191,"usersCount":52,"tipCount":0},"likes":{"count":0,"groups":[]},"specials":{"count":0,"items":[]},"hereNow":{"count":0,"groups":[]}},{"id":"4fb23643e4b0203ec50f9f51","name":"京都銀行 エキバンク 京阪中書島駅","contact":{},"location":{"address":"伏見区葭島矢倉町59番地","crossStreet":"中書島駅1番のりば","lat":34.92701151678877,"lng":135.76055645942688,"postalCode":"612-8224","city":"京都市","state":"京都府","country":"Japan"},"categories":[{"id":"4bf58dd8d48988d10a951735","name":"Bank","pluralName":"Banks","shortName":"Bank \/ Financial","icon":{"prefix":"https:\/\/foursquare.com\/img\/categories_v2\/shops\/financial_","suffix":".png"},"primary":true}],"verified":false,"stats":{"checkinsCount":1,"usersCount":1,"tipCount":0},"likes":{"count":0,"groups":[]},"specials":{"count":0,"items":[]},"hereNow":{"count":0,"groups":[]}},{"id":"4c4a6102959220a1f2ce060e","name":"麺座 中書島","contact":{"phone":"+81756222850","formattedPhone":"+81 75-622-2850"},"location":{"address":"伏見区葭島矢倉町59","crossStreet":"中書島駅2・3番のりば","lat":34.926826792598156,"lng":135.76073348522186,"postalCode":"612-8224","city":"京都市","state":"京都府","country":"Japan"},"categories":[{"id":"4bf58dd8d48988d1d1941735","name":"Ramen \/  Noodle House","pluralName":"Ramen \/  Noodle House","shortName":"Ramen \/ Noodles","icon":{"prefix":"https:\/\/foursquare.com\/img\/categories_v2\/food\/ramen_","suffix":".png"},"primary":true}],"verified":false,"stats":{"checkinsCount":37,"usersCount":21,"tipCount":0},"likes":{"count":0,"groups":[]},"specials":{"count":0,"items":[]},"hereNow":{"count":0,"groups":[]}},{"id":"4eb277599911d335b0798be5","name":"魚民 中書島店","contact":{},"location":{"lat":34.92674972644801,"lng":135.7602364167688,"country":"Japan"},"categories":[{"id":"4bf58dd8d48988d11c941735","name":"Sake Bar","pluralName":"Sake Bars","shortName":"Sake Bar","icon":{"prefix":"https:\/\/foursquare.com\/img\/categories_v2\/nightlife\/sake_","suffix":".png"},"primary":true}],"verified":false,"stats":{"checkinsCount":14,"usersCount":6,"tipCount":0},"likes":{"count":0,"groups":[]},"specials":{"count":0,"items":[]},"hereNow":{"count":0,"groups":[]}},{"id":"4b88eedbf964a5201f1432e3","name":"時代屋スタンド","contact":{"phone":"+81756222401","formattedPhone":"+81 75-622-2401"},"location":{"address":"南新地57-9","lat":34.926839,"lng":135.760344,"postalCode":"612-8228","city":"京都市伏見区","state":"京都府","country":"Japan"},"categories":[{"id":"4bf58dd8d48988d11c941735","name":"Sake Bar","pluralName":"Sake Bars","shortName":"Sake Bar","icon":{"prefix":"https:\/\/foursquare.com\/img\/categories_v2\/nightlife\/sake_","suffix":".png"},"primary":true}],"verified":false,"stats":{"checkinsCount":38,"usersCount":12,"tipCount":1},"likes":{"count":0,"groups":[]},"specials":{"count":0,"items":[]},"hereNow":{"count":0,"groups":[]}},{"id":"4d9de956d19f8eec8520a0e1","name":"コナミスポーツクラブ 伏見","contact":{"phone":"+81756220641","formattedPhone":"+81 75-622-0641"},"location":{"address":"両替町2-348-1","lat":34.93092391223395,"lng":135.76316612221092,"postalCode":"612-8082","city":"京都市伏見区","state":"京都府","country":"Japan"},"categories":[{"id":"4bf58dd8d48988d176941735","name":"Gym","pluralName":"Gyms","shortName":"Gym","icon":{"prefix":"https:\/\/foursquare.com\/img\/categories_v2\/building\/gym_","suffix":".png"},"primary":true}],"verified":false,"stats":{"checkinsCount":24,"usersCount":7,"tipCount":0},"likes":{"count":0,"groups":[]},"specials":{"count":0,"items":[]},"hereNow":{"count":0,"groups":[]}},{"id":"4e4de5d962e14b77e38727c6","name":"時代衣装おかむら","contact":{},"location":{"lat":34.92916526,"lng":135.76393967,"country":"Japan"},"categories":[{"id":"4d4b7104d754a06370d81259","name":"Arts & Entertainment","pluralName":"Arts & Entertainment","shortName":"Arts & Entertainment","icon":{"prefix":"https:\/\/foursquare.com\/img\/categories_v2\/arts_entertainment\/default_","suffix":".png"},"primary":true}],"verified":false,"stats":{"checkinsCount":4,"usersCount":4,"tipCount":0},"likes":{"count":0,"groups":[]},"specials":{"count":0,"items":[]},"hereNow":{"count":0,"groups":[]}},{"id":"4ef96b0fb8f72ebeaa067b7a","name":"たこ焼き ぼんちゃん","contact":{},"location":{"address":"京都市伏見区南新地","lat":34.927015,"lng":135.759712,"country":"Japan"},"categories":[{"id":"4bf58dd8d48988d114941735","name":"Food Court","pluralName":"Food Courts","shortName":"Food Court","icon":{"prefix":"https:\/\/foursquare.com\/img\/categories_v2\/food\/foodcourt_","suffix":".png"},"primary":true}],"verified":false,"stats":{"checkinsCount":1,"usersCount":1,"tipCount":0},"likes":{"count":0,"groups":[]},"specials":{"count":0,"items":[]},"hereNow":{"count":0,"groups":[]}},{"id":"4ce3b246c46e6dcb502ad715","name":"べんがらや","contact":{"phone":"+81756226908","formattedPhone":"+81 75-622-6908"},"location":{"address":"上油掛町185-2","lat":34.93034527712604,"lng":135.76294898986816,"city":"京都市伏見区","state":"京都府","country":"Japan"},"categories":[{"id":"4bf58dd8d48988d1c4941735","name":"Restaurant","pluralName":"Restaurants","shortName":"Other - Food","icon":{"prefix":"https:\/\/foursquare.com\/img\/categories_v2\/food\/default_","suffix":".png"},"primary":true}],"verified":false,"stats":{"checkinsCount":49,"usersCount":20,"tipCount":0},"likes":{"count":0,"groups":[]},"specials":{"count":0,"items":[]},"hereNow":{"count":0,"groups":[]}},{"id":"4b6a1875f964a5203ac72be3","name":"月桂冠 本社","contact":{},"location":{"lat":34.928381,"lng":135.761592,"country":"Japan"},"categories":[],"verified":false,"stats":{"checkinsCount":14,"usersCount":13,"tipCount":0},"likes":{"count":0,"groups":[]},"specials":{"count":0,"items":[]},"hereNow":{"count":0,"groups":[]}},{"id":"4ec79a3ed3e3e131f25a58e5","name":"ガーデンオリエンタル","contact":{},"location":{"lat":34.929331809307946,"lng":135.76273568026687,"country":"Japan"},"categories":[],"verified":false,"stats":{"checkinsCount":1,"usersCount":1,"tipCount":0},"likes":{"count":0,"groups":[]},"specials":{"count":0,"items":[]},"hereNow":{"count":0,"groups":[]}},{"id":"4f3c8416e4b0b4a7cd3cdbc0","name":"京の味 あさだ","contact":{},"location":{"address":"京都府伏見区","lat":34.92687643546305,"lng":135.76068072069998,"country":"Japan"},"categories":[{"id":"4bf58dd8d48988d111941735","name":"Japanese Restaurant","pluralName":"Japanese Restaurants","shortName":"Japanese","icon":{"prefix":"https:\/\/foursquare.com\/img\/categories_v2\/food\/japanese_","suffix":".png"},"primary":true}],"verified":false,"stats":{"checkinsCount":1,"usersCount":1,"tipCount":0},"likes":{"count":0,"groups":[]},"specials":{"count":0,"items":[]},"hereNow":{"count":0,"groups":[]}},{"id":"4cce5d4fc9b84688ab63c8c3","name":"韓国惣菜 Chili x 2","contact":{"phone":"+81756027506","formattedPhone":"+81 75-602-7506"},"location":{"address":"納屋町118 納屋町センター12","crossStreet":"納屋町センター","lat":34.93048948348074,"lng":135.76380484967933,"city":"京都市伏見区","state":"京都府","country":"Japan"},"categories":[{"id":"4bf58dd8d48988d113941735","name":"Korean Restaurant","pluralName":"Korean Restaurants","shortName":"Korean","icon":{"prefix":"https:\/\/foursquare.com\/img\/categories_v2\/food\/default_","suffix":".png"},"primary":true}],"verified":false,"stats":{"checkinsCount":20,"usersCount":2,"tipCount":2},"likes":{"count":0,"groups":[]},"specials":{"count":0,"items":[]},"hereNow":{"count":0,"groups":[]}},{"id":"4edaf3e661af8a14b7106b59","name":"京都市立 南浜小学校","contact":{},"location":{"address":"京都市伏見区","lat":34.92995001872877,"lng":135.76256099513327,"city":"京都市","state":"京都府","country":"Japan"},"categories":[{"id":"4bf58dd8d48988d13b941735","name":"School","pluralName":"Schools","shortName":"School","icon":{"prefix":"https:\/\/foursquare.com\/img\/categories_v2\/building\/school_","suffix":".png"},"primary":true}],"verified":false,"stats":{"checkinsCount":2,"usersCount":1,"tipCount":0},"likes":{"count":0,"groups":[]},"specials":{"count":0,"items":[]},"hereNow":{"count":0,"groups":[]}},{"id":"4cae5770aef16dcb99f49f54","name":"Cascade","contact":{},"location":{"lat":34.930777,"lng":135.763705,"country":"Japan"},"categories":[{"id":"4bf58dd8d48988d16d941735","name":"Café","pluralName":"Cafés","shortName":"Café","icon":{"prefix":"https:\/\/foursquare.com\/img\/categories_v2\/food\/cafe_","suffix":".png"},"primary":true}],"verified":false,"stats":{"checkinsCount":2,"usersCount":2,"tipCount":0},"likes":{"count":0,"groups":[]},"specials":{"count":0,"items":[]},"hereNow":{"count":0,"groups":[]}},{"id":"4cbc17aa4c60a09325594fca","name":"美ゅらら","contact":{},"location":{"lat":34.929953,"lng":135.761812,"country":"Japan"},"categories":[],"verified":false,"stats":{"checkinsCount":2,"usersCount":2,"tipCount":0},"likes":{"count":0,"groups":[]},"specials":{"count":0,"items":[]},"hereNow":{"count":0,"groups":[]}},{"id":"4e562ba9d164a0684c5ac004","name":"MICHI","contact":{},"location":{"lat":34.926832,"lng":135.759734,"country":"Japan"},"categories":[{"id":"4d4b7105d754a06374d81259","name":"Food","pluralName":"Food","shortName":"Food","icon":{"prefix":"https:\/\/foursquare.com\/img\/categories_v2\/food\/default_","suffix":".png"},"primary":true}],"verified":false,"stats":{"checkinsCount":1,"usersCount":1,"tipCount":0},"likes":{"count":0,"groups":[]},"specials":{"count":0,"items":[]},"hereNow":{"count":0,"groups":[]}},{"id":"4f09e690a17c067e4ff32809","name":"澱川橋梁","contact":{},"location":{"address":"近鉄京都線","crossStreet":"（桃山御陵前～向島）","lat":34.92550732199916,"lng":135.765620470047,"city":"京都市","state":"京都府","country":"Japan"},"categories":[{"id":"4bf58dd8d48988d1df941735","name":"Bridge","pluralName":"Bridges","shortName":"Bridge","icon":{"prefix":"https:\/\/foursquare.com\/img\/categories_v2\/parks_outdoors\/bridge_","suffix":".png"},"primary":true}],"verified":false,"stats":{"checkinsCount":25,"usersCount":4,"tipCount":1},"likes":{"count":0,"groups":[]},"specials":{"count":0,"items":[]},"hereNow":{"count":0,"groups":[]}},{"id":"4d6df02103cba35daebc1af5","name":"観月橋","contact":{},"location":{"address":"豊後橋町","crossStreet":"国道24号","lat":34.92713026783458,"lng":135.7685950398445,"postalCode":"612-8106","city":"京都市伏見区","state":"京都府","country":"Japan"},"categories":[{"id":"4bf58dd8d48988d1df941735","name":"Bridge","pluralName":"Bridges","shortName":"Bridge","icon":{"prefix":"https:\/\/foursquare.com\/img\/categories_v2\/parks_outdoors\/bridge_","suffix":".png"},"primary":true}],"verified":false,"stats":{"checkinsCount":198,"usersCount":85,"tipCount":1},"likes":{"count":0,"groups":[]},"specials":{"count":0,"items":[]},"hereNow":{"count":0,"groups":[]}},{"id":"4efc23b8c2ee80dc2e578f4f","name":"弁天橋","contact":{},"location":{"address":"本材木町","lat":34.9281066588059,"lng":135.7617661356926,"city":"京都市伏見区","state":"京都府","country":"Japan"},"categories":[{"id":"4bf58dd8d48988d1df941735","name":"Bridge","pluralName":"Bridges","shortName":"Bridge","icon":{"prefix":"https:\/\/foursquare.com\/img\/categories_v2\/parks_outdoors\/bridge_","suffix":".png"},"primary":true}],"verified":false,"stats":{"checkinsCount":28,"usersCount":6,"tipCount":0},"likes":{"count":0,"groups":[]},"specials":{"count":0,"items":[]},"hereNow":{"count":0,"groups":[]}},{"id":"4c4fbd802a73c928a02258d1","name":"きたせ昆布 Workshop 昆","contact":{"phone":"+81756011965","formattedPhone":"+81 75-601-1965","twitter":"Workshop_KON"},"location":{"address":"南新地4-2","lat":34.927986483597415,"lng":135.7599541007983,"postalCode":"612-8228","city":"京都市伏見区","state":"京都府","country":"Japan"},"categories":[{"id":"4bf58dd8d48988d120951735","name":"Food Court","pluralName":"Food Courts","shortName":"Food Court","icon":{"prefix":"https:\/\/foursquare.com\/img\/categories_v2\/shops\/food_foodcourt_","suffix":".png"},"primary":true}],"verified":false,"stats":{"checkinsCount":87,"usersCount":7,"tipCount":0},"likes":{"count":0,"groups":[]},"specials":{"count":0,"items":[]},"hereNow":{"count":0,"groups":[]}},{"id":"4f2df132e4b062ad2ba3b85f","name":"京都市立京都南浜小学校","contact":{},"location":{"address":"伏見区丹後町142","lat":34.929242841981186,"lng":135.76255980188162,"city":"京都市","country":"Japan"},"categories":[{"id":"4bf58dd8d48988d13b941735","name":"School","pluralName":"Schools","shortName":"School","icon":{"prefix":"https:\/\/foursquare.com\/img\/categories_v2\/building\/school_","suffix":".png"},"primary":true}],"verified":false,"stats":{"checkinsCount":2,"usersCount":2,"tipCount":0},"likes":{"count":0,"groups":[]},"specials":{"count":0,"items":[]},"hereNow":{"count":0,"groups":[]}},{"id":"4b71403cf964a520133e2de3","name":"ビデオ1 観月橋店","contact":{"phone":"+81756055733","formattedPhone":"+81 75-605-5733"},"location":{"address":"豊後橋町760","crossStreet":"国道24号線","lat":34.928025,"lng":135.768046,"postalCode":"612-8106","city":"京都市伏見区","state":"京都府","country":"Japan"},"categories":[{"id":"4bf58dd8d48988d126951735","name":"Video Store","pluralName":"Video Stores","shortName":"Video Store","icon":{"prefix":"https:\/\/foursquare.com\/img\/categories_v2\/shops\/video_","suffix":".png"},"primary":true}],"verified":false,"stats":{"checkinsCount":90,"usersCount":21,"tipCount":0},"likes":{"count":0,"groups":[]},"specials":{"count":0,"items":[]},"hereNow":{"count":0,"groups":[]}},{"id":"4efc23e7c2ee80dc2e57943c","name":"平戸橋","contact":{},"location":{"address":"平戸町","lat":34.92733588266482,"lng":135.7659698277712,"city":"京都市伏見区","state":"京都府","country":"Japan"},"categories":[{"id":"4bf58dd8d48988d1df941735","name":"Bridge","pluralName":"Bridges","shortName":"Bridge","icon":{"prefix":"https:\/\/foursquare.com\/img\/categories_v2\/parks_outdoors\/bridge_","suffix":".png"},"primary":true}],"verified":false,"stats":{"checkinsCount":3,"usersCount":1,"tipCount":0},"likes":{"count":0,"groups":[]},"specials":{"count":0,"items":[]},"hereNow":{"count":0,"groups":[]}},{"id":"4fc03c85e4b06229f8f68855","name":"観月橋北詰","contact":{},"location":{"address":"京都府京都市伏見区豊後橋町","lat":34.92830815143099,"lng":135.76847059688492,"country":"Japan"},"categories":[{"id":"4bf58dd8d48988d1f9931735","name":"Road","pluralName":"Roads","shortName":"Road","icon":{"prefix":"https:\/\/foursquare.com\/img\/categories_v2\/travel\/highway_","suffix":".png"},"primary":true}],"verified":false,"stats":{"checkinsCount":7,"usersCount":2,"tipCount":0},"likes":{"count":0,"groups":[]},"specials":{"count":0,"items":[]},"hereNow":{"count":0,"groups":[]}},{"id":"4cd5fc63b2a43704c8098244","name":"十石舟乗船場","contact":{},"location":{"lat":34.928497,"lng":135.76144388,"country":"Japan"},"categories":[{"id":"4bf58dd8d48988d12d951735","name":"Boat or Ferry","pluralName":"Boats or Ferries","shortName":"Boat \/ Ferry","icon":{"prefix":"https:\/\/foursquare.com\/img\/categories_v2\/travel\/ferry_","suffix":".png"},"primary":true}],"verified":false,"stats":{"checkinsCount":76,"usersCount":38,"tipCount":0},"likes":{"count":0,"groups":[]},"specials":{"count":0,"items":[]},"hereNow":{"count":0,"groups":[]}}]}}
