{"meta":{"code":200},"response":{"venues":[{"id":"4fd448b8e4b0296d1ed5f2ae","name":"フレスコ 小倉店","contact":{},"location":{"lat":34.89081069596254,"lng":135.78607309031088,"country":"Japan"},"categories":[{"id":"4bf58dd8d48988d118951735","name":"Grocery Store","pluralName":"Grocery Stores","shortName":"Grocery Store","icon":{"prefix":"https:\/\/foursquare.com\/img\/categories_v2\/shops\/food_grocery_","suffix":".png"},"primary":true}],"verified":false,"stats":{"checkinsCount":1,"usersCount":1,"tipCount":0},"likes":{"count":0,"groups":[]},"specials":{"count":0,"items":[]},"hereNow":{"count":0,"groups":[]}},{"id":"4e28fe0718384dd0a0e6f4ff","name":"串懐石 串徳","contact":{},"location":{"address":"小倉町西浦29-3","lat":34.895773,"lng":135.782475,"city":"宇治市","state":"京都府","country":"Japan"},"categories":[{"id":"4bf58dd8d48988d111941735","name":"Japanese Restaurant","pluralName":"Japanese Restaurants","shortName":"Japanese","icon":{"prefix":"https:\/\/foursquare.com\/img\/categories_v2\/food\/japanese_","suffix":".png"},"primary":true}],"verified":false,"stats":{"checkinsCount":5,"usersCount":3,"tipCount":0},"likes":{"count":0,"groups":[]},"specials":{"count":0,"items":[]},"hereNow":{"count":0,"groups":[]}},{"id":"4dc676fb45dd2645528a416b","name":"和食酒屋げん月","contact":{},"location":{"address":"日本","lat":34.89434027,"lng":135.78543338,"city":"宇治市","state":"京都府","country":"Japan"},"categories":[],"verified":false,"stats":{"checkinsCount":1,"usersCount":1,"tipCount":0},"likes":{"count":0,"groups":[]},"specials":{"count":0,"items":[]},"hereNow":{"count":0,"groups":[]}},{"id":"4f35c9c1e4b0653d48f0d4bc","name":"宇治市宇治蔭山","contact":{},"location":{"lat":34.890113,"lng":135.783935,"country":"Japan"},"categories":[],"verified":false,"stats":{"checkinsCount":0,"usersCount":0,"tipCount":0},"likes":{"count":0,"groups":[]},"specials":{"count":0,"items":[]},"hereNow":{"count":0,"groups":[]}},{"id":"4cb8300d43ec6dcb06139331","name":"はなび","contact":{},"location":{"lat":34.895423,"lng":135.781607,"country":"Japan"},"categories":[{"id":"4bf58dd8d48988d11a941735","name":"Other Nightlife","pluralName":"Other Nightlife","shortName":"Other - Nightlife","icon":{"prefix":"https:\/\/foursquare.com\/img\/categories_v2\/nightlife\/default_","suffix":".png"},"primary":true}],"verified":false,"stats":{"checkinsCount":2,"usersCount":2,"tipCount":0},"likes":{"count":0,"groups":[]},"specials":{"count":0,"items":[]},"hereNow":{"count":0,"groups":[]}},{"id":"4cc171d0668db60caf9b13b4","name":"ブックオフ 宇治小倉店","contact":{},"location":{"address":"小倉町西山10","lat":34.89101643,"lng":135.783169,"city":"宇治市","state":"京都府","country":"Japan"},"categories":[{"id":"4bf58dd8d48988d114951735","name":"Bookstore","pluralName":"Bookstores","shortName":"Bookstore","icon":{"prefix":"https:\/\/foursquare.com\/img\/categories_v2\/shops\/bookstore_","suffix":".png"},"primary":true}],"verified":false,"stats":{"checkinsCount":51,"usersCount":20,"tipCount":0},"likes":{"count":0,"groups":[]},"specials":{"count":0,"items":[]},"hereNow":{"count":0,"groups":[]}},{"id":"4d176485401db60cdd9beba4","name":"ビジネスホテル宇治","contact":{"phone":"+81774215255","formattedPhone":"+81 774-21-5255"},"location":{"address":"小倉町西山16-4","lat":34.890603,"lng":135.782615,"postalCode":"611-0042","city":"宇治市","state":"京都府","country":"Japan"},"categories":[],"verified":false,"stats":{"checkinsCount":3,"usersCount":3,"tipCount":1},"url":"http:\/\/www.pension-uji.com\/","likes":{"count":0,"groups":[]},"specials":{"count":0,"items":[]},"hereNow":{"count":0,"groups":[]}},{"id":"4c3895583849c9286cafbfb1","name":"むーんらいと","contact":{},"location":{"address":"日本","lat":34.89106128,"lng":135.78285705,"city":"宇治市","state":"京都府","country":"Japan"},"categories":[],"verified":false,"stats":{"checkinsCount":1,"usersCount":1,"tipCount":0},"likes":{"count":0,"groups":[]},"specials":{"count":0,"items":[]},"hereNow":{"count":0,"groups":[]}},{"id":"4b7e2679f964a5208fe42fe3","name":"TSUTAYA 小倉店","contact":{"phone":"+81774255167","formattedPhone":"+81 774-25-5167"},"location":{"address":"小倉老ノ木町29","lat":34.89425605881673,"lng":135.78348398208618,"postalCode":"611-0042","city":"宇治市","state":"京都府","country":"Japan"},"categories":[{"id":"4bf58dd8d48988d126951735","name":"Video Store","pluralName":"Video Stores","shortName":"Video Store","icon":{"prefix":"https:\/\/foursquare.com\/img\/categories_v2\/shops\/video_","suffix":".png"},"primary":true}],"verified":false,"stats":{"checkinsCount":214,"usersCount":51,"tipCount":0},"likes":{"count":0,"groups":[]},"specials":{"count":0,"items":[]},"hereNow":{"count":0,"groups":[]}},{"id":"4dce7e0fe4cd130e166796fc","name":"ローソン 宇治小倉駅前店","contact":{"phone":"+81774211080","formattedPhone":"+81 774-21-1080","twitter":"akiko_lawson"},"location":{"address":"小倉町神楽田23-4","lat":34.89286786438342,"lng":135.78290194272995,"city":"宇治市","state":"京都府","country":"Japan"},"categories":[{"id":"4d954b0ea243a5684a65b473","name":"Convenience Store","pluralName":"Convenience Stores","shortName":"Convenience Stores","icon":{"prefix":"https:\/\/foursquare.com\/img\/categories_v2\/shops\/conveniencestore_","suffix":".png"},"primary":true}],"verified":true,"stats":{"checkinsCount":28,"usersCount":12,"tipCount":0},"likes":{"count":0,"groups":[]},"specials":{"count":0,"items":[]},"hereNow":{"count":0,"groups":[]}},{"id":"4c4a61a446240f470b56baf1","name":"かっぱ寿司 宇治店","contact":{},"location":{"lat":34.893939,"lng":135.78334713,"country":"Japan"},"categories":[{"id":"4bf58dd8d48988d1d2941735","name":"Sushi Restaurant","pluralName":"Sushi Restaurants","shortName":"Sushi","icon":{"prefix":"https:\/\/foursquare.com\/img\/categories_v2\/food\/sushi_","suffix":".png"},"primary":true}],"verified":false,"stats":{"checkinsCount":29,"usersCount":24,"tipCount":0},"likes":{"count":0,"groups":[]},"specials":{"count":0,"items":[]},"hereNow":{"count":0,"groups":[]}},{"id":"4c63d195de1b2d7f9f9ce570","name":"にぎり 長次郎 小倉店","contact":{},"location":{"lat":34.89431701297727,"lng":135.7831373468129,"country":"Japan"},"categories":[{"id":"4bf58dd8d48988d111941735","name":"Japanese Restaurant","pluralName":"Japanese Restaurants","shortName":"Japanese","icon":{"prefix":"https:\/\/foursquare.com\/img\/categories_v2\/food\/japanese_","suffix":".png"},"primary":true}],"verified":false,"stats":{"checkinsCount":17,"usersCount":14,"tipCount":0},"likes":{"count":0,"groups":[]},"specials":{"count":0,"items":[]},"hereNow":{"count":0,"groups":[]}},{"id":"4b5cd825f964a520ed4629e3","name":"小倉駅 (Ogura Sta.)","contact":{},"location":{"address":"小倉町神楽田35-4","crossStreet":"近鉄京都線","lat":34.893244065192,"lng":135.78193366527557,"city":"宇治市","state":"京都府","country":"Japan"},"categories":[{"id":"4bf58dd8d48988d129951735","name":"Train Station","pluralName":"Train Stations","shortName":"Train Station","icon":{"prefix":"https:\/\/foursquare.com\/img\/categories_v2\/travel\/trainstation_","suffix":".png"},"primary":true}],"verified":false,"stats":{"checkinsCount":646,"usersCount":166,"tipCount":0},"likes":{"count":0,"groups":[]},"specials":{"count":0,"items":[]},"hereNow":{"count":0,"groups":[]}},{"id":"4e3f824f7d8b0e961084be03","name":"カラオケ ガッチャ","contact":{},"location":{"lat":34.89284554962069,"lng":135.78255652450025,"country":"Japan"},"categories":[{"id":"4bf58dd8d48988d120941735","name":"Karaoke Bar","pluralName":"Karaoke Bars","shortName":"Karaoke","icon":{"prefix":"https:\/\/foursquare.com\/img\/categories_v2\/nightlife\/karaoke_","suffix":".png"},"primary":true}],"verified":false,"stats":{"checkinsCount":17,"usersCount":10,"tipCount":0},"likes":{"count":0,"groups":[]},"specials":{"count":0,"items":[]},"hereNow":{"count":0,"groups":[]}},{"id":"4e17d16314957dc705d1c84d","name":"レインボー小倉","contact":{"phone":"+81774240334","formattedPhone":"+81 774-24-0334"},"location":{"address":"小倉町神楽田25","lat":34.89251366204758,"lng":135.78253984451294,"city":"宇治市","state":"京都府","country":"Japan"},"categories":[{"id":"4bf58dd8d48988d1fd941735","name":"Mall","pluralName":"Malls","shortName":"Mall","icon":{"prefix":"https:\/\/foursquare.com\/img\/categories_v2\/shops\/mall_","suffix":".png"},"primary":true}],"verified":false,"stats":{"checkinsCount":16,"usersCount":8,"tipCount":0},"likes":{"count":0,"groups":[]},"specials":{"count":0,"items":[]},"hereNow":{"count":0,"groups":[]}},{"id":"4d90979634f2cbffad75c7e3","name":"近商ストア 小倉店","contact":{},"location":{"address":"小倉町神楽田25","lat":34.89243446131638,"lng":135.7825881242752,"city":"宇治市","state":"京都府","country":"Japan"},"categories":[{"id":"4bf58dd8d48988d118951735","name":"Grocery Store","pluralName":"Grocery Stores","shortName":"Grocery Store","icon":{"prefix":"https:\/\/foursquare.com\/img\/categories_v2\/shops\/food_grocery_","suffix":".png"},"primary":true}],"verified":false,"stats":{"checkinsCount":11,"usersCount":5,"tipCount":0},"likes":{"count":0,"groups":[]},"specials":{"count":0,"items":[]},"hereNow":{"count":0,"groups":[]}},{"id":"4db814811e7206c23cffec2c","name":"FRESCO宇治店","contact":{"phone":"+81774250081","formattedPhone":"+81 774-25-0081"},"location":{"address":"小倉町老ノ木38-2","lat":34.893797,"lng":135.78323936,"postalCode":"611-0042","city":"宇治市","state":"京都府","country":"Japan"},"categories":[{"id":"4bf58dd8d48988d1f9941735","name":"Food & Drink Shop","pluralName":"Food & Drink Shops","shortName":"Food & Drink","icon":{"prefix":"https:\/\/foursquare.com\/img\/categories_v2\/shops\/foodanddrink_","suffix":".png"},"primary":true}],"verified":false,"stats":{"checkinsCount":64,"usersCount":17,"tipCount":0},"likes":{"count":0,"groups":[]},"specials":{"count":0,"items":[]},"hereNow":{"count":0,"groups":[]}},{"id":"4d63b0e995b28cfa7d1d4ffa","name":"明光義塾 小倉教室","contact":{"phone":"+81774215921","formattedPhone":"+81 774-21-5921"},"location":{"address":"小倉町老ノ木39","crossStreet":"ヴェルジェ 2F","lat":34.89357846446446,"lng":135.78338742256165,"postalCode":"611-0042","city":"宇治市","state":"京都府","country":"Japan"},"categories":[{"id":"4bf58dd8d48988d1ab941735","name":"Student Center","pluralName":"Student Centers","shortName":"Student Center","icon":{"prefix":"https:\/\/foursquare.com\/img\/categories_v2\/education\/studentcenter_","suffix":".png"},"primary":true}],"verified":false,"stats":{"checkinsCount":17,"usersCount":3,"tipCount":0},"likes":{"count":0,"groups":[]},"specials":{"count":0,"items":[]},"hereNow":{"count":0,"groups":[]}},{"id":"4df2b52cb61cbd3ec018b446","name":"カットコムズ 小倉店","contact":{},"location":{"address":"小倉町神楽田２５","lat":34.89279966405238,"lng":135.78263103961945,"postalCode":"507-0051","city":"Uji","state":"Kyoto Prefecture","country":"Japan"},"categories":[{"id":"4bf58dd8d48988d110951735","name":"Salon \/ Barbershop","pluralName":"Salons \/ Barbershops","shortName":"Salon \/ Barbershop","icon":{"prefix":"https:\/\/foursquare.com\/img\/categories_v2\/shops\/salon_barber_","suffix":".png"},"primary":true}],"verified":false,"stats":{"checkinsCount":5,"usersCount":3,"tipCount":0},"likes":{"count":0,"groups":[]},"specials":{"count":0,"items":[]},"hereNow":{"count":0,"groups":[]}},{"id":"4dbcbf2a43a1d8504b9566a3","name":"小倉レインボープラザ","contact":{},"location":{"address":"小倉町神楽田25","lat":34.89254886234806,"lng":135.78258275985718,"city":"宇治市","state":"京都府","country":"Japan"},"categories":[{"id":"4bf58dd8d48988d1f6941735","name":"Department Store","pluralName":"Department Stores","shortName":"Department Store","icon":{"prefix":"https:\/\/foursquare.com\/img\/categories_v2\/shops\/departmentstore_","suffix":".png"},"primary":true}],"verified":false,"stats":{"checkinsCount":7,"usersCount":5,"tipCount":0},"likes":{"count":0,"groups":[]},"specials":{"count":0,"items":[]},"hereNow":{"count":0,"groups":[]}},{"id":"4def9576227170314ba6bb0d","name":"くれしま小倉店","contact":{},"location":{"lat":34.894204,"lng":135.783223,"country":"Japan"},"categories":[],"verified":false,"stats":{"checkinsCount":2,"usersCount":2,"tipCount":0},"likes":{"count":0,"groups":[]},"specials":{"count":0,"items":[]},"hereNow":{"count":0,"groups":[]}},{"id":"4d6dd46c2427224bcd0dc54d","name":"花キャベツ","contact":{},"location":{"address":"日本","lat":34.89250114,"lng":135.78164758,"city":"宇治市","state":"京都府","country":"Japan"},"categories":[],"verified":false,"stats":{"checkinsCount":0,"usersCount":0,"tipCount":0},"likes":{"count":0,"groups":[]},"specials":{"count":0,"items":[]},"hereNow":{"count":0,"groups":[]}},{"id":"4e17c42418a8166f73856623","name":"HOMIC","contact":{},"location":{"address":"小倉町老ノ木25","crossStreet":"木下ビル1階","lat":34.89453765482564,"lng":135.78295826911926,"postalCode":"611-0042","city":"宇治市","state":"京都府","country":"Japan"},"categories":[{"id":"4bf58dd8d48988d1ff941735","name":"Miscellaneous Shop","pluralName":"Miscellaneous Shops","shortName":"Other - Shop","icon":{"prefix":"https:\/\/foursquare.com\/img\/categories_v2\/shops\/default_","suffix":".png"},"primary":true}],"verified":false,"stats":{"checkinsCount":1,"usersCount":1,"tipCount":0},"url":"http:\/\/www.homic.co.jp\/","likes":{"count":0,"groups":[]},"specials":{"count":0,"items":[]},"hereNow":{"count":0,"groups":[]}},{"id":"4d4f789bc305b60c89857c1e","name":"インド料理 ニューデリー 小倉店","contact":{},"location":{"lat":34.892023,"lng":135.780697,"country":"Japan"},"categories":[{"id":"4bf58dd8d48988d10f941735","name":"Indian Restaurant","pluralName":"Indian Restaurants","shortName":"Indian","icon":{"prefix":"https:\/\/foursquare.com\/img\/categories_v2\/food\/default_","suffix":".png"},"primary":true}],"verified":false,"stats":{"checkinsCount":2,"usersCount":1,"tipCount":0},"likes":{"count":0,"groups":[]},"specials":{"count":0,"items":[]},"hereNow":{"count":0,"groups":[]}},{"id":"4c47a51696abd13a02b37101","name":"キョーイチボウル宇治","contact":{},"location":{"address":"小倉町神楽田55番地1","lat":34.8920164561923,"lng":135.78333377838135,"city":"宇治市","state":"京都府","country":"Japan"},"categories":[{"id":"4bf58dd8d48988d1e4931735","name":"Bowling Alley","pluralName":"Bowling Alleys","shortName":"Bowling Alley","icon":{"prefix":"https:\/\/foursquare.com\/img\/categories_v2\/arts_entertainment\/bowling_","suffix":".png"},"primary":true}],"verified":false,"stats":{"checkinsCount":50,"usersCount":19,"tipCount":0},"likes":{"count":0,"groups":[]},"specials":{"count":0,"items":[]},"hereNow":{"count":0,"groups":[]}},{"id":"4c49186bb5eec9b69d4248a4","name":"天下一品 宇治小倉店","contact":{"phone":"+81774247281","formattedPhone":"+81 774-24-7281"},"location":{"address":"小倉町西山10-2","lat":34.89151264719005,"lng":135.7835617661476,"city":"宇治市","state":"京都府","country":"Japan"},"categories":[{"id":"4bf58dd8d48988d1d1941735","name":"Ramen \/  Noodle House","pluralName":"Ramen \/  Noodle House","shortName":"Ramen \/ Noodles","icon":{"prefix":"https:\/\/foursquare.com\/img\/categories_v2\/food\/ramen_","suffix":".png"},"primary":true}],"verified":false,"stats":{"checkinsCount":61,"usersCount":38,"tipCount":0},"likes":{"count":0,"groups":[]},"specials":{"count":0,"items":[]},"hereNow":{"count":0,"groups":[]}},{"id":"4e08093dd1640223a4a0be30","name":"CoCo壱番屋 宇治小倉店","contact":{"phone":"+81774205149","formattedPhone":"+81 774-20-5149"},"location":{"address":"小倉町老ノ木43-6","lat":34.89323086519277,"lng":135.78421957790852,"city":"宇治市","state":"京都府","country":"Japan"},"categories":[{"id":"4bf58dd8d48988d10f941735","name":"Indian Restaurant","pluralName":"Indian Restaurants","shortName":"Indian","icon":{"prefix":"https:\/\/foursquare.com\/img\/categories_v2\/food\/default_","suffix":".png"},"primary":true}],"verified":false,"stats":{"checkinsCount":18,"usersCount":14,"tipCount":0},"likes":{"count":0,"groups":[]},"specials":{"count":0,"items":[]},"hereNow":{"count":0,"groups":[]}},{"id":"4ca962a4b7106dcbbf457ca5","name":"任天堂 宇治小倉工場","contact":{"phone":"+81774237838","formattedPhone":"+81 774-23-7838"},"location":{"address":"神楽田56","lat":34.89275830385089,"lng":135.78410410867946,"postalCode":"611-0042","city":"宇治市","state":"京都府","country":"Japan"},"categories":[{"id":"4eb1bea83b7b6f98df247e06","name":"Factory","pluralName":"Factories","shortName":"Factory","icon":{"prefix":"https:\/\/foursquare.com\/img\/categories_v2\/building\/factory_","suffix":".png"},"primary":true}],"verified":false,"stats":{"checkinsCount":16,"usersCount":9,"tipCount":0},"url":"http:\/\/www.nintendo.co.jp","likes":{"count":0,"groups":[]},"specials":{"count":0,"items":[]},"hereNow":{"count":0,"groups":[]}},{"id":"4cd039991ac7a1cd1f3a1892","name":"KSD self","contact":{},"location":{"address":"日本","lat":34.89128508,"lng":135.7829248,"country":"Japan"},"categories":[{"id":"4bf58dd8d48988d113951735","name":"Gas Station \/ Garage","pluralName":"Gas Stations \/ Garages","shortName":"Gas Station \/ Garage","icon":{"prefix":"https:\/\/foursquare.com\/img\/categories_v2\/shops\/gas_","suffix":".png"},"primary":true}],"verified":false,"stats":{"checkinsCount":17,"usersCount":5,"tipCount":0},"likes":{"count":0,"groups":[]},"specials":{"count":0,"items":[]},"hereNow":{"count":0,"groups":[]}},{"id":"4e17c685d4c062b044e214c0","name":"エイブル 宇治小倉店","contact":{"phone":"+81774248211","formattedPhone":"+81 774-24-8211"},"location":{"address":"小倉町神楽田21-1","crossStreet":"グランドビルフナトラ1階","lat":34.89322646519258,"lng":135.78333377838135,"postalCode":"611-0042","city":"宇治市","state":"京都府","country":"Japan"},"categories":[{"id":"4bf58dd8d48988d1ff941735","name":"Miscellaneous Shop","pluralName":"Miscellaneous Shops","shortName":"Other - Shop","icon":{"prefix":"https:\/\/foursquare.com\/img\/categories_v2\/shops\/default_","suffix":".png"},"primary":true}],"verified":false,"stats":{"checkinsCount":4,"usersCount":1,"tipCount":0},"url":"http:\/\/shop.able.co.jp\/000000712\/","likes":{"count":0,"groups":[]},"specials":{"count":0,"items":[]},"hereNow":{"count":0,"groups":[]}},{"id":"4e20f24d7d8b71715ba68f9a","name":"すぎむら 小倉店","contact":{"phone":"+81774242468","formattedPhone":"+81 774-24-2468"},"location":{"address":"小倉町神楽田21-1","lat":34.89321766519145,"lng":135.78384339809418,"city":"宇治市","state":"京都府","country":"Japan"},"categories":[{"id":"4bf58dd8d48988d16d941735","name":"Café","pluralName":"Cafés","shortName":"Café","icon":{"prefix":"https:\/\/foursquare.com\/img\/categories_v2\/food\/cafe_","suffix":".png"},"primary":true}],"verified":false,"stats":{"checkinsCount":2,"usersCount":1,"tipCount":0},"likes":{"count":0,"groups":[]},"specials":{"count":0,"items":[]},"hereNow":{"count":0,"groups":[]}},{"id":"4cbc127ec7228cfab16c21ce","name":"お好み焼き このみ亭","contact":{"phone":"+81774215337","formattedPhone":"+81 774-21-5337"},"location":{"address":"老ノ木KGビル1F","crossStreet":"小倉町","lat":34.893083,"lng":135.783818,"city":"宇治市","country":"Japan"},"categories":[{"id":"4bf58dd8d48988d111941735","name":"Japanese Restaurant","pluralName":"Japanese Restaurants","shortName":"Japanese","icon":{"prefix":"https:\/\/foursquare.com\/img\/categories_v2\/food\/japanese_","suffix":".png"},"primary":true}],"verified":false,"stats":{"checkinsCount":3,"usersCount":2,"tipCount":1},"likes":{"count":0,"groups":[]},"specials":{"count":0,"items":[]},"hereNow":{"count":0,"groups":[]}},{"id":"4e17a095636529dcc13a712f","name":"京都ライフ 小倉店","contact":{"phone":"+81774256500","formattedPhone":"+81 774-25-6500"},"location":{"address":"小倉町老ノ木45-2","crossStreet":"ＫＧビル1F","lat":34.89319126518242,"lng":135.78391313552856,"postalCode":"611-0042","city":"宇治市","state":"京都府","country":"Japan"},"categories":[{"id":"4bf58dd8d48988d1ff941735","name":"Miscellaneous Shop","pluralName":"Miscellaneous Shops","shortName":"Other - Shop","icon":{"prefix":"https:\/\/foursquare.com\/img\/categories_v2\/shops\/default_","suffix":".png"},"primary":true}],"verified":false,"stats":{"checkinsCount":1,"usersCount":1,"tipCount":0},"likes":{"count":0,"groups":[]},"specials":{"count":0,"items":[]},"hereNow":{"count":0,"groups":[]}},{"id":"4d8bf4175ca68cfac887169d","name":"GLITTER TUNE","contact":{},"location":{"lat":34.893657,"lng":135.78391,"country":"Japan"},"categories":[],"verified":false,"stats":{"checkinsCount":1,"usersCount":1,"tipCount":0},"likes":{"count":0,"groups":[]},"specials":{"count":0,"items":[]},"hereNow":{"count":0,"groups":[]}},{"id":"4cc170ce43646dcb404e458c","name":"board shop CLASS-B","contact":{},"location":{"address":"京都府\u200e 宇治市 小倉町西山９","lat":34.891203,"lng":135.783118,"country":"Japan"},"categories":[{"id":"4bf58dd8d48988d1f2941735","name":"Sporting Goods Shop","pluralName":"Sporting Goods Shops","shortName":"Sporting Goods","icon":{"prefix":"https:\/\/foursquare.com\/img\/categories_v2\/shops\/sports_outdoors_","suffix":".png"},"primary":true}],"verified":false,"stats":{"checkinsCount":1,"usersCount":1,"tipCount":0},"likes":{"count":0,"groups":[]},"specials":{"count":0,"items":[]},"hereNow":{"count":0,"groups":[]}},{"id":"4dd7bf031f6ee14683298ae4","name":"ローソンストア100 近鉄小倉駅前店","contact":{"phone":"+81774285599","formattedPhone":"+81 774-28-5599"},"location":{"address":"小倉町神楽田10-3","lat":34.893506,"lng":135.781719,"postalCode":"611-0042","city":"宇治市","state":"京都府","country":"Japan"},"categories":[{"id":"4d954b0ea243a5684a65b473","name":"Convenience Store","pluralName":"Convenience Stores","shortName":"Convenience Stores","icon":{"prefix":"https:\/\/foursquare.com\/img\/categories_v2\/shops\/conveniencestore_","suffix":".png"},"primary":true}],"verified":false,"stats":{"checkinsCount":41,"usersCount":10,"tipCount":0},"likes":{"count":0,"groups":[]},"specials":{"count":0,"items":[]},"hereNow":{"count":0,"groups":[]}},{"id":"4c47ae0119fde21e143a0976","name":"マクドナルド 小倉レインボープラザ店","contact":{"phone":"+81774282816","formattedPhone":"+81 774-28-2816"},"location":{"address":"小倉町神楽田25","crossStreet":"レインボー宇治","lat":34.89318893,"lng":135.782346,"postalCode":"611-0042","city":"宇治市","state":"京都府","country":"Japan"},"categories":[{"id":"4bf58dd8d48988d16c941735","name":"Burger Joint","pluralName":"Burger Joints","shortName":"Burgers","icon":{"prefix":"https:\/\/foursquare.com\/img\/categories_v2\/food\/burger_","suffix":".png"},"primary":true}],"verified":false,"stats":{"checkinsCount":27,"usersCount":13,"tipCount":0},"likes":{"count":0,"groups":[]},"specials":{"count":0,"items":[]},"hereNow":{"count":0,"groups":[]}},{"id":"4d4d2245a7f86ea82d4b33de","name":"セブンイレブン 宇治近鉄小倉駅西店","contact":{"phone":"+81774217257","formattedPhone":"+81 774-21-7257"},"location":{"address":"小倉町西浦７６−２","lat":34.89369352244221,"lng":135.78141951129024,"postalCode":"611-0042","city":"宇治市","state":"京都府","country":"Japan"},"categories":[{"id":"4bf58dd8d48988d1ff941735","name":"Miscellaneous Shop","pluralName":"Miscellaneous Shops","shortName":"Other - Shop","icon":{"prefix":"https:\/\/foursquare.com\/img\/categories_v2\/shops\/default_","suffix":".png"},"primary":true}],"verified":false,"stats":{"checkinsCount":7,"usersCount":2,"tipCount":0},"likes":{"count":0,"groups":[]},"specials":{"count":0,"items":[]},"hereNow":{"count":0,"groups":[]}},{"id":"4f5efa2ae4b03142f5638a0f","name":"整体空間 楽～ん","contact":{},"location":{"lat":34.893961,"lng":135.781506,"country":"Japan"},"categories":[{"id":"4bf58dd8d48988d1ed941735","name":"Spa or Massage","pluralName":"Spas or Massages","shortName":"Spas \/ Massage","icon":{"prefix":"https:\/\/foursquare.com\/img\/categories_v2\/shops\/spa_","suffix":".png"},"primary":true}],"verified":false,"stats":{"checkinsCount":1,"usersCount":1,"tipCount":0},"likes":{"count":0,"groups":[]},"specials":{"count":0,"items":[]},"hereNow":{"count":0,"groups":[]}},{"id":"4f8a4038e4b047d84ae98374","name":"アルゴ","contact":{"phone":"+81774215572","formattedPhone":"+81 774-21-5572"},"location":{"address":"小倉町西浦78-3-1","lat":34.89341884748617,"lng":135.7814148810894,"postalCode":"611-0042","city":"宇治市","state":"京都府","country":"Japan"},"categories":[{"id":"4bf58dd8d48988d1f3941735","name":"Toy \/ Game Store","pluralName":"Toy \/ Game Stores","shortName":"Toys & Games","icon":{"prefix":"https:\/\/foursquare.com\/img\/categories_v2\/shops\/toys_","suffix":".png"},"primary":true}],"verified":false,"stats":{"checkinsCount":2,"usersCount":1,"tipCount":0},"likes":{"count":0,"groups":[]},"specials":{"count":0,"items":[]},"hereNow":{"count":0,"groups":[]}},{"id":"4e4a453ac65bab12516abf45","name":"サンクス 宇治小倉店","contact":{"phone":"+81774286321","formattedPhone":"+81 774-28-6321"},"location":{"address":"小倉町西浦76番1","lat":34.89425275885779,"lng":135.78127518296242,"postalCode":"611-0042","city":"宇治市","state":"京都府","country":"Japan"},"categories":[{"id":"4d954b0ea243a5684a65b473","name":"Convenience Store","pluralName":"Convenience Stores","shortName":"Convenience Stores","icon":{"prefix":"https:\/\/foursquare.com\/img\/categories_v2\/shops\/conveniencestore_","suffix":".png"},"primary":true}],"verified":false,"stats":{"checkinsCount":3,"usersCount":2,"tipCount":0},"likes":{"count":0,"groups":[]},"specials":{"count":0,"items":[]},"hereNow":{"count":0,"groups":[]}},{"id":"4dfae83c628460789531d8ce","name":"平和堂 小倉店","contact":{"phone":"+81774202020","formattedPhone":"+81 774-20-2020"},"location":{"address":"小倉町神楽田33番地の7","lat":34.89306146501468,"lng":135.78148037195206,"postalCode":"611-0042","city":"宇治市","state":"京都府","country":"Japan"},"categories":[{"id":"4bf58dd8d48988d118951735","name":"Grocery Store","pluralName":"Grocery Stores","shortName":"Grocery Store","icon":{"prefix":"https:\/\/foursquare.com\/img\/categories_v2\/shops\/food_grocery_","suffix":".png"},"primary":true}],"verified":false,"stats":{"checkinsCount":6,"usersCount":3,"tipCount":0},"likes":{"count":0,"groups":[]},"specials":{"count":0,"items":[]},"hereNow":{"count":0,"groups":[]}},{"id":"4e8544202c5b8b7034f4a6cf","name":"京都銀行 小倉支店","contact":{"phone":"+81774226565","formattedPhone":"+81 774-22-6565"},"location":{"address":"小倉町神楽田6-3","lat":34.894305558185096,"lng":135.7819316536188,"postalCode":"611-0042","city":"宇治市","state":"京都府","country":"Japan"},"categories":[{"id":"4bf58dd8d48988d10a951735","name":"Bank","pluralName":"Banks","shortName":"Bank \/ Financial","icon":{"prefix":"https:\/\/foursquare.com\/img\/categories_v2\/shops\/financial_","suffix":".png"},"primary":true}],"verified":false,"stats":{"checkinsCount":3,"usersCount":2,"tipCount":0},"likes":{"count":0,"groups":[]},"specials":{"count":0,"items":[]},"hereNow":{"count":0,"groups":[]}},{"id":"4d5611efcff7721e9596b1f5","name":"大力餅","contact":{},"location":{"lat":34.8944302,"lng":135.78252322,"country":"Japan"},"categories":[],"verified":false,"stats":{"checkinsCount":2,"usersCount":1,"tipCount":0},"likes":{"count":0,"groups":[]},"specials":{"count":0,"items":[]},"hereNow":{"count":0,"groups":[]}},{"id":"4f72a1e4e4b019c940f6d31e","name":"まつした食堂","contact":{},"location":{"lat":34.893196,"lng":135.781243,"country":"Japan"},"categories":[],"verified":false,"stats":{"checkinsCount":0,"usersCount":0,"tipCount":0},"likes":{"count":0,"groups":[]},"specials":{"count":0,"items":[]},"hereNow":{"count":0,"groups":[]}},{"id":"4f72a29ee4b059045aa65f0d","name":"まつした食堂","contact":{},"location":{"lat":34.893129,"lng":135.780887,"country":"Japan"},"categories":[],"verified":false,"stats":{"checkinsCount":0,"usersCount":0,"tipCount":0},"likes":{"count":0,"groups":[]},"specials":{"count":0,"items":[]},"hereNow":{"count":0,"groups":[]}},{"id":"4f9d2e51e4b07e720e397a6b","name":"海雲亭 本店","contact":{},"location":{"lat":34.894847,"lng":135.782176,"country":"Japan"},"categories":[{"id":"4bf58dd8d48988d1df931735","name":"BBQ Joint","pluralName":"BBQ Joints","shortName":"BBQ","icon":{"prefix":"https:\/\/foursquare.com\/img\/categories_v2\/food\/bbq_","suffix":".png"},"primary":true}],"verified":false,"stats":{"checkinsCount":1,"usersCount":1,"tipCount":0},"likes":{"count":0,"groups":[]},"specials":{"count":0,"items":[]},"hereNow":{"count":0,"groups":[]}},{"id":"4c25e62bc11dc9b6d1f22724","name":"串道楽","contact":{},"location":{"lat":34.892975664791194,"lng":135.78085005283356,"country":"Japan"},"categories":[{"id":"4bf58dd8d48988d113941735","name":"Korean Restaurant","pluralName":"Korean Restaurants","shortName":"Korean","icon":{"prefix":"https:\/\/foursquare.com\/img\/categories_v2\/food\/default_","suffix":".png"},"primary":true}],"verified":false,"stats":{"checkinsCount":7,"usersCount":6,"tipCount":1},"likes":{"count":0,"groups":[]},"specials":{"count":0,"items":[]},"hereNow":{"count":0,"groups":[]}},{"id":"4dce1f37c65bdac71359eab5","name":"HOS OGURA","contact":{},"location":{"lat":34.894546,"lng":135.781555,"city":"Uji","state":"Kyoto Prefecture","country":"Japan"},"categories":[{"id":"4bf58dd8d48988d176941735","name":"Gym","pluralName":"Gyms","shortName":"Gym","icon":{"prefix":"https:\/\/foursquare.com\/img\/categories_v2\/building\/gym_","suffix":".png"},"primary":true}],"verified":false,"stats":{"checkinsCount":3,"usersCount":1,"tipCount":0},"likes":{"count":0,"groups":[]},"specials":{"count":0,"items":[]},"hereNow":{"count":0,"groups":[]}}]}}
