{"meta":{"code":200},"response":{"venues":[{"id":"4efc204dc2ee80dc2e572ae1","name":"伏見であい橋","contact":{},"location":{"address":"三栖半町","lat":34.93016165994659,"lng":135.7562468200922,"city":"京都市伏見区","state":"京都府","country":"Japan"},"categories":[{"id":"4bf58dd8d48988d1df941735","name":"Bridge","pluralName":"Bridges","shortName":"Bridge","icon":{"prefix":"https:\/\/foursquare.com\/img\/categories_v2\/parks_outdoors\/bridge_","suffix":".png"},"primary":true}],"verified":false,"stats":{"checkinsCount":24,"usersCount":5,"tipCount":0},"likes":{"count":0,"groups":[]},"specials":{"count":0,"items":[]},"hereNow":{"count":0,"groups":[]}},{"id":"4dbe5efd5da3ff58ec789ced","name":"角倉了以翁銅像","contact":{},"location":{"lat":34.93017682813534,"lng":135.75573807277956,"city":"Kyoto","state":"Kyoto Prefecture","country":"Japan"},"categories":[],"verified":false,"stats":{"checkinsCount":24,"usersCount":4,"tipCount":0},"likes":{"count":0,"groups":[]},"specials":{"count":0,"items":[]},"hereNow":{"count":0,"groups":[]}},{"id":"4f55aa2ee4b02285fda67962","name":"株式会社モリタ製作所","contact":{},"location":{"address":"伏見区東浜南町680","lat":34.92857517578432,"lng":135.75708938251947,"postalCode":"612-8533","city":"京都市","state":"京都府","country":"Japan"},"categories":[{"id":"4eb1bea83b7b6f98df247e06","name":"Factory","pluralName":"Factories","shortName":"Factory","icon":{"prefix":"https:\/\/foursquare.com\/img\/categories_v2\/building\/factory_","suffix":".png"},"primary":true}],"verified":false,"stats":{"checkinsCount":2,"usersCount":2,"tipCount":0},"likes":{"count":0,"groups":[]},"specials":{"count":0,"items":[]},"hereNow":{"count":0,"groups":[]}},{"id":"4f06d0c3e4b000dd73acd425","name":"重家","contact":{},"location":{"lat":34.929822974325326,"lng":135.75627488986845,"country":"Japan"},"categories":[{"id":"4bf58dd8d48988d10c941735","name":"French Restaurant","pluralName":"French Restaurants","shortName":"French","icon":{"prefix":"https:\/\/foursquare.com\/img\/categories_v2\/food\/french_","suffix":".png"},"primary":true}],"verified":false,"stats":{"checkinsCount":2,"usersCount":2,"tipCount":0},"likes":{"count":0,"groups":[]},"specials":{"count":0,"items":[]},"hereNow":{"count":0,"groups":[]}},{"id":"4f714e29e4b007de8fae158a","name":"角倉橋","contact":{},"location":{"address":"伏見区","lat":34.930582,"lng":135.755567,"city":"京都市","country":"Japan"},"categories":[{"id":"4bf58dd8d48988d1f9931735","name":"Road","pluralName":"Roads","shortName":"Road","icon":{"prefix":"https:\/\/foursquare.com\/img\/categories_v2\/travel\/highway_","suffix":".png"},"primary":true}],"verified":false,"stats":{"checkinsCount":9,"usersCount":2,"tipCount":0},"likes":{"count":0,"groups":[]},"specials":{"count":0,"items":[]},"hereNow":{"count":0,"groups":[]}}]}}
