{"meta":{"code":200},"response":{"venues":[{"id":"4c0d71e1c700c9b6dc6ba2dd","name":"六地蔵総合病院","contact":{},"location":{"lat":34.93509171665568,"lng":135.79638203656435,"country":"Japan"},"categories":[],"verified":false,"stats":{"checkinsCount":22,"usersCount":8,"tipCount":0},"likes":{"count":0,"groups":[]},"specials":{"count":0,"items":[]},"hereNow":{"count":0,"groups":[]}},{"id":"4e61cbf2d22d509a3958fd0d","name":"河内眼科","contact":{},"location":{"address":"伏見区桃山町山ノ下32","crossStreet":"近鉄百貨店桃山店(MOMO)2F","lat":34.937593,"lng":135.795939,"postalCode":"612-8550","city":"京都市","state":"京都府","country":"Japan"},"categories":[{"id":"4bf58dd8d48988d177941735","name":"Doctor's Office","pluralName":"Doctor's Offices","shortName":"Doctor's Office","icon":{"prefix":"https:\/\/foursquare.com\/img\/categories_v2\/building\/medical_","suffix":".png"},"primary":true}],"verified":false,"stats":{"checkinsCount":1,"usersCount":1,"tipCount":1},"likes":{"count":0,"groups":[]},"specials":{"count":0,"items":[]},"hereNow":{"count":0,"groups":[]}},{"id":"4cd0e5ebf6378cfa6956b8d6","name":"ジョーシン 六地蔵店","contact":{},"location":{"address":"六地蔵奈良町18-1","lat":34.935697,"lng":135.797931,"city":"宇治市","state":"京都府","country":"Japan"},"categories":[{"id":"4bf58dd8d48988d122951735","name":"Electronics Store","pluralName":"Electronics Stores","shortName":"Electronics","icon":{"prefix":"https:\/\/foursquare.com\/img\/categories_v2\/shops\/technology_","suffix":".png"},"primary":true}],"verified":false,"stats":{"checkinsCount":77,"usersCount":32,"tipCount":0},"likes":{"count":0,"groups":[]},"specials":{"count":0,"items":[]},"hereNow":{"count":0,"groups":[]}},{"id":"4c2afc0d8abca593df7eff1f","name":"天下一品 六地蔵店","contact":{"phone":"+81774381881","formattedPhone":"+81 774-38-1881"},"location":{"address":"六地蔵奈良町21-3","lat":34.935503982235886,"lng":135.79794108867645,"city":"宇治市","state":"京都府","country":"Japan"},"categories":[{"id":"4bf58dd8d48988d1d1941735","name":"Ramen \/  Noodle House","pluralName":"Ramen \/  Noodle House","shortName":"Ramen \/ Noodles","icon":{"prefix":"https:\/\/foursquare.com\/img\/categories_v2\/food\/ramen_","suffix":".png"},"primary":true}],"verified":false,"stats":{"checkinsCount":54,"usersCount":33,"tipCount":1},"likes":{"count":0,"groups":[]},"specials":{"count":0,"items":[]},"hereNow":{"count":0,"groups":[]}},{"id":"4ddc9876887775ea9c450814","name":"くまざわ書店 近鉄ｍｏｍｏ店","contact":{},"location":{"lat":34.937829440083185,"lng":135.79571508319313,"city":"Kyoto","state":"Kyoto Prefecture","country":"Japan"},"categories":[{"id":"4bf58dd8d48988d114951735","name":"Bookstore","pluralName":"Bookstores","shortName":"Bookstore","icon":{"prefix":"https:\/\/foursquare.com\/img\/categories_v2\/shops\/bookstore_","suffix":".png"},"primary":true}],"verified":false,"stats":{"checkinsCount":7,"usersCount":5,"tipCount":0},"likes":{"count":0,"groups":[]},"specials":{"count":0,"items":[]},"hereNow":{"count":0,"groups":[]}},{"id":"4e62f5172271573ad7dbf1d4","name":"ダイソー 近商ストア桃山店","contact":{"phone":"+81756052444","formattedPhone":"+81 75-605-2444"},"location":{"address":"伏見区桃山町山ノ下32","crossStreet":"近鉄百貨店桃山店2階","lat":34.93763640955417,"lng":135.7956317146769,"city":"京都市","state":"京都府","country":"Japan"},"categories":[{"id":"4bf58dd8d48988d1ff941735","name":"Miscellaneous Shop","pluralName":"Miscellaneous Shops","shortName":"Other - Shop","icon":{"prefix":"https:\/\/foursquare.com\/img\/categories_v2\/shops\/default_","suffix":".png"},"primary":true}],"verified":false,"stats":{"checkinsCount":6,"usersCount":5,"tipCount":0},"likes":{"count":0,"groups":[]},"specials":{"count":0,"items":[]},"hereNow":{"count":0,"groups":[]}}]}}
