{"meta":{"code":200},"response":{"venues":[{"id":"4c9815fab6ee236a399ca5a7","name":"光照寺","contact":{},"location":{"lat":34.93436,"lng":135.755473,"city":"京都市伏見区","state":"京都府","country":"Japan"},"categories":[],"verified":false,"stats":{"checkinsCount":1,"usersCount":1,"tipCount":0},"likes":{"count":0,"groups":[]},"specials":{"count":0,"items":[]},"hereNow":{"count":0,"groups":[]}},{"id":"4f3f49117b0c93cd69a21971","name":"三栖大黒町 バス停","contact":{},"location":{"address":"伏見区横大路三栖大黒町","crossStreet":"市バス19・20・22・南3・南8系統\/京阪バス","lat":34.93288508936585,"lng":135.7540963590145,"city":"京都市","state":"京都府","country":"Japan"},"categories":[{"id":"4bf58dd8d48988d1fe931735","name":"Bus Station","pluralName":"Bus Stations","shortName":"Bus Station","icon":{"prefix":"https:\/\/foursquare.com\/img\/categories_v2\/travel\/busstation_","suffix":".png"},"primary":true}],"verified":false,"stats":{"checkinsCount":0,"usersCount":0,"tipCount":0},"likes":{"count":0,"groups":[]},"specials":{"count":0,"items":[]},"hereNow":{"count":0,"groups":[]}},{"id":"4efc1c06c2ee80dc2e56aedf","name":"新大手橋","contact":{},"location":{"address":"下鳥羽六反長町","lat":34.93286090104873,"lng":135.7534646987915,"city":"京都市伏見区","state":"京都府","country":"Japan"},"categories":[{"id":"4bf58dd8d48988d1df941735","name":"Bridge","pluralName":"Bridges","shortName":"Bridge","icon":{"prefix":"https:\/\/foursquare.com\/img\/categories_v2\/parks_outdoors\/bridge_","suffix":".png"},"primary":true}],"verified":false,"stats":{"checkinsCount":81,"usersCount":8,"tipCount":0},"likes":{"count":0,"groups":[]},"specials":{"count":0,"items":[]},"hereNow":{"count":0,"groups":[]}},{"id":"4d3a6903979ea143306d90fc","name":"松本酒造","contact":{},"location":{"address":"日本","lat":34.93300488548131,"lng":135.7538962808162,"country":"Japan"},"categories":[],"verified":false,"stats":{"checkinsCount":33,"usersCount":19,"tipCount":0},"likes":{"count":0,"groups":[]},"specials":{"count":0,"items":[]},"hereNow":{"count":0,"groups":[]}}]}}
