{"meta":{"code":200},"response":{"venues":[{"id":"4c86081e74d7b60c9e47a0d8","name":"コーナン 六地蔵店","contact":{"phone":"+81756057157","formattedPhone":"+81 75-605-7157"},"location":{"address":"桃山町山ノ下19-6","lat":34.93980925159146,"lng":135.79668045043945,"city":"京都市伏見区","state":"京都府","country":"Japan"},"categories":[{"id":"4bf58dd8d48988d1f8941735","name":"Furniture \/ Home Store","pluralName":"Furniture \/ Home Stores","shortName":"Furniture \/ Home","icon":{"prefix":"https:\/\/foursquare.com\/img\/categories_v2\/shops\/furniture_","suffix":".png"},"primary":true}],"verified":false,"stats":{"checkinsCount":161,"usersCount":63,"tipCount":1},"likes":{"count":0,"groups":[]},"specials":{"count":0,"items":[]},"hereNow":{"count":0,"groups":[]}},{"id":"4d840d35f9f3a1cdcf47ae64","name":"弓削眼科医院","contact":{},"location":{"lat":34.93532490967631,"lng":135.79463593532088,"country":"Japan"},"categories":[],"verified":false,"stats":{"checkinsCount":7,"usersCount":2,"tipCount":0},"likes":{"count":0,"groups":[]},"specials":{"count":0,"items":[]},"hereNow":{"count":0,"groups":[]}},{"id":"4cd0e5ebf6378cfa6956b8d6","name":"ジョーシン 六地蔵店","contact":{},"location":{"address":"六地蔵奈良町18-1","lat":34.935697,"lng":135.797931,"city":"宇治市","state":"京都府","country":"Japan"},"categories":[{"id":"4bf58dd8d48988d122951735","name":"Electronics Store","pluralName":"Electronics Stores","shortName":"Electronics","icon":{"prefix":"https:\/\/foursquare.com\/img\/categories_v2\/shops\/technology_","suffix":".png"},"primary":true}],"verified":false,"stats":{"checkinsCount":77,"usersCount":32,"tipCount":0},"likes":{"count":0,"groups":[]},"specials":{"count":0,"items":[]},"hereNow":{"count":0,"groups":[]}},{"id":"4dbe7b29cda109aa6cca6c29","name":"コートダジュール 六地蔵店","contact":{},"location":{"lat":34.93481456666667,"lng":135.79522183333333,"country":"Japan"},"categories":[{"id":"4bf58dd8d48988d120941735","name":"Karaoke Bar","pluralName":"Karaoke Bars","shortName":"Karaoke","icon":{"prefix":"https:\/\/foursquare.com\/img\/categories_v2\/nightlife\/karaoke_","suffix":".png"},"primary":true}],"verified":false,"stats":{"checkinsCount":9,"usersCount":8,"tipCount":0},"likes":{"count":0,"groups":[]},"specials":{"count":0,"items":[]},"hereNow":{"count":0,"groups":[]}},{"id":"4c0d71e1c700c9b6dc6ba2dd","name":"六地蔵総合病院","contact":{},"location":{"lat":34.93509171665568,"lng":135.79638203656435,"country":"Japan"},"categories":[],"verified":false,"stats":{"checkinsCount":22,"usersCount":8,"tipCount":0},"likes":{"count":0,"groups":[]},"specials":{"count":0,"items":[]},"hereNow":{"count":0,"groups":[]}},{"id":"4ce90e12e888f04d6efd456b","name":"串八 六地蔵店","contact":{"phone":"+81774338330","formattedPhone":"+81 774-33-8330"},"location":{"address":"六地蔵奈良町21-2","lat":34.93500263893855,"lng":135.79784989356995,"city":"宇治市","state":"京都府","country":"Japan"},"categories":[{"id":"4bf58dd8d48988d111941735","name":"Japanese Restaurant","pluralName":"Japanese Restaurants","shortName":"Japanese","icon":{"prefix":"https:\/\/foursquare.com\/img\/categories_v2\/food\/japanese_","suffix":".png"},"primary":true}],"verified":false,"stats":{"checkinsCount":19,"usersCount":12,"tipCount":0},"likes":{"count":0,"groups":[]},"specials":{"count":0,"items":[]},"hereNow":{"count":0,"groups":[]}},{"id":"4c83820147cc224bb6b18f9f","name":"とんかつ いなば和幸 momo店","contact":{},"location":{"lat":34.936105,"lng":135.794985,"city":"京都市","state":"京都府","country":"Japan"},"categories":[{"id":"4bf58dd8d48988d111941735","name":"Japanese Restaurant","pluralName":"Japanese Restaurants","shortName":"Japanese","icon":{"prefix":"https:\/\/foursquare.com\/img\/categories_v2\/food\/japanese_","suffix":".png"},"primary":true}],"verified":false,"stats":{"checkinsCount":4,"usersCount":4,"tipCount":0},"likes":{"count":0,"groups":[]},"specials":{"count":0,"items":[]},"hereNow":{"count":0,"groups":[]}},{"id":"4c2afc0d8abca593df7eff1f","name":"天下一品 六地蔵店","contact":{"phone":"+81774381881","formattedPhone":"+81 774-38-1881"},"location":{"address":"六地蔵奈良町21-3","lat":34.935503982235886,"lng":135.79794108867645,"city":"宇治市","state":"京都府","country":"Japan"},"categories":[{"id":"4bf58dd8d48988d1d1941735","name":"Ramen \/  Noodle House","pluralName":"Ramen \/  Noodle House","shortName":"Ramen \/ Noodles","icon":{"prefix":"https:\/\/foursquare.com\/img\/categories_v2\/food\/ramen_","suffix":".png"},"primary":true}],"verified":false,"stats":{"checkinsCount":54,"usersCount":33,"tipCount":1},"likes":{"count":0,"groups":[]},"specials":{"count":0,"items":[]},"hereNow":{"count":0,"groups":[]}},{"id":"4d982e96c19fb60c2615a965","name":"ペットン 京都桃山店","contact":{"phone":"+81756029674","formattedPhone":"+81 75-602-9674"},"location":{"address":"桃山町山ノ下32","lat":34.93613944,"lng":135.7939271,"city":"京都市伏見区","state":"京都府","country":"Japan"},"categories":[{"id":"4bf58dd8d48988d100951735","name":"Pet Store","pluralName":"Pet Stores","shortName":"Pet Store","icon":{"prefix":"https:\/\/foursquare.com\/img\/categories_v2\/shops\/pet_store_","suffix":".png"},"primary":true}],"verified":false,"stats":{"checkinsCount":16,"usersCount":5,"tipCount":0},"likes":{"count":0,"groups":[]},"specials":{"count":0,"items":[]},"hereNow":{"count":0,"groups":[]}},{"id":"4e22d23faeb70263953d80cf","name":"来来亭 六地蔵店","contact":{"phone":"+81756014009","formattedPhone":"+81 75-601-4009"},"location":{"address":"伏見区桃山町山ノ下19-13","lat":34.93965094129684,"lng":135.79545199871063,"postalCode":"612-8002","city":"京都市","state":"京都府","country":"Japan"},"categories":[{"id":"4bf58dd8d48988d1d1941735","name":"Ramen \/  Noodle House","pluralName":"Ramen \/  Noodle House","shortName":"Ramen \/ Noodles","icon":{"prefix":"https:\/\/foursquare.com\/img\/categories_v2\/food\/ramen_","suffix":".png"},"primary":true}],"verified":false,"stats":{"checkinsCount":13,"usersCount":13,"tipCount":0},"likes":{"count":0,"groups":[]},"specials":{"count":0,"items":[]},"hereNow":{"count":0,"groups":[]}},{"id":"4e3fe379b0fb875af8811443","name":"ブックオフ 京都六地蔵店","contact":{},"location":{"address":"桃山町西尾10-1","lat":34.93511258290641,"lng":135.79362273216248,"city":"京都市伏見区","state":"京都府","country":"Japan"},"categories":[{"id":"4bf58dd8d48988d114951735","name":"Bookstore","pluralName":"Bookstores","shortName":"Bookstore","icon":{"prefix":"https:\/\/foursquare.com\/img\/categories_v2\/shops\/bookstore_","suffix":".png"},"primary":true}],"verified":false,"stats":{"checkinsCount":20,"usersCount":15,"tipCount":0},"likes":{"count":0,"groups":[]},"specials":{"count":0,"items":[]},"hereNow":{"count":0,"groups":[]}},{"id":"4d59386cc88da1cd09a43768","name":"サークルK 新小栗栖街道店","contact":{"phone":"+81756125310","formattedPhone":"+81 75-612-5310"},"location":{"address":"伏見区桃山町山ノ下19-25","lat":34.94014565995288,"lng":135.7956638932228,"postalCode":"612-8002","city":"京都市","state":"京都府","country":"Japan"},"categories":[{"id":"4d954b0ea243a5684a65b473","name":"Convenience Store","pluralName":"Convenience Stores","shortName":"Convenience Stores","icon":{"prefix":"https:\/\/foursquare.com\/img\/categories_v2\/shops\/conveniencestore_","suffix":".png"},"primary":true}],"verified":false,"stats":{"checkinsCount":16,"usersCount":7,"tipCount":0},"likes":{"count":0,"groups":[]},"specials":{"count":0,"items":[]},"hereNow":{"count":0,"groups":[]}},{"id":"4dc35eaa45dd2645523ceaed","name":"菜たねや","contact":{"phone":"+81756123824","formattedPhone":"+81 75-612-3824"},"location":{"address":"京都市伏見区桃山町山ノ下55-8","lat":34.939110045484405,"lng":135.7950496673584,"city":"Kyoto","state":"Kyoto Prefecture","country":"Japan"},"categories":[{"id":"4bf58dd8d48988d111941735","name":"Japanese Restaurant","pluralName":"Japanese Restaurants","shortName":"Japanese","icon":{"prefix":"https:\/\/foursquare.com\/img\/categories_v2\/food\/japanese_","suffix":".png"},"primary":true}],"verified":false,"stats":{"checkinsCount":1,"usersCount":1,"tipCount":0},"likes":{"count":0,"groups":[]},"specials":{"count":0,"items":[]},"hereNow":{"count":0,"groups":[]}},{"id":"4f9f691ce4b0f948540d7cc5","name":"ニュータージマハールエベレスト","contact":{},"location":{"lat":34.939446,"lng":135.795386,"country":"Japan"},"categories":[{"id":"4bf58dd8d48988d10f941735","name":"Indian Restaurant","pluralName":"Indian Restaurants","shortName":"Indian","icon":{"prefix":"https:\/\/foursquare.com\/img\/categories_v2\/food\/default_","suffix":".png"},"primary":true}],"verified":false,"stats":{"checkinsCount":1,"usersCount":1,"tipCount":1},"likes":{"count":0,"groups":[]},"specials":{"count":0,"items":[]},"hereNow":{"count":0,"groups":[]}},{"id":"4f7db839121d69d078d101d5","name":"ゆうちょ銀行 大阪支店 MOMO(近鉄百貨店桃山店)内出張所","contact":{},"location":{"address":"伏見区桃山町山ノ下32","crossStreet":"近鉄百貨店桃山店1階ATMコーナー","lat":34.936431899026196,"lng":135.79451322555542,"postalCode":"612-8002","city":"京都市","state":"京都府","country":"Japan"},"categories":[{"id":"4bf58dd8d48988d10a951735","name":"Bank","pluralName":"Banks","shortName":"Bank \/ Financial","icon":{"prefix":"https:\/\/foursquare.com\/img\/categories_v2\/shops\/financial_","suffix":".png"},"primary":true}],"verified":false,"stats":{"checkinsCount":0,"usersCount":0,"tipCount":0},"likes":{"count":0,"groups":[]},"specials":{"count":0,"items":[]},"hereNow":{"count":0,"groups":[]}},{"id":"4ca44962b0ff8cfa9178be5e","name":"マクドナルド 六地蔵イズミヤ店","contact":{"phone":"+81756043133","formattedPhone":"+81 75-604-3133"},"location":{"address":"桃山町西尾12-1","lat":34.93525331097026,"lng":135.792818069458,"city":"京都市伏見区","state":"京都府","country":"Japan"},"categories":[{"id":"4bf58dd8d48988d16e941735","name":"Fast Food Restaurant","pluralName":"Fast Food Restaurants","shortName":"Fast Food","icon":{"prefix":"https:\/\/foursquare.com\/img\/categories_v2\/food\/fastfood_","suffix":".png"},"primary":true}],"verified":false,"stats":{"checkinsCount":173,"usersCount":9,"tipCount":1},"likes":{"count":0,"groups":[]},"specials":{"count":0,"items":[]},"hereNow":{"count":0,"groups":[]}},{"id":"4c8b79292e3337040a1dcd41","name":"餃子の王将 伏見桃山店","contact":{},"location":{"address":"桃山町西尾23-1","lat":34.93568050414935,"lng":135.7929269484705,"city":"京都市伏見区","state":"京都府","country":"Japan"},"categories":[{"id":"4bf58dd8d48988d145941735","name":"Chinese Restaurant","pluralName":"Chinese Restaurants","shortName":"Chinese","icon":{"prefix":"https:\/\/foursquare.com\/img\/categories_v2\/food\/chinese_","suffix":".png"},"primary":true}],"verified":false,"stats":{"checkinsCount":135,"usersCount":35,"tipCount":0},"likes":{"count":0,"groups":[]},"specials":{"count":0,"items":[]},"hereNow":{"count":0,"groups":[]}},{"id":"4e33ccfaae60795fcfd9fe5f","name":"スポーツクラブ コ・ス・パ 桃山六地蔵","contact":{"phone":"+81756055735","formattedPhone":"+81 75-605-5735"},"location":{"address":"桃山町山ノ下24-8","lat":34.93860872422895,"lng":135.79539835453033,"postalCode":"6128002","city":"京都市伏見区","state":"京都府","country":"Japan"},"categories":[{"id":"4bf58dd8d48988d175941735","name":"Gym \/ Fitness Center","pluralName":"Gyms or Fitness Centers","shortName":"Gym \/ Fitness","icon":{"prefix":"https:\/\/foursquare.com\/img\/categories_v2\/building\/gym_","suffix":".png"},"primary":true}],"verified":false,"stats":{"checkinsCount":131,"usersCount":2,"tipCount":0},"likes":{"count":0,"groups":[]},"specials":{"count":0,"items":[]},"hereNow":{"count":0,"groups":[]}},{"id":"4c97030ef7cfa1cd7a13cb15","name":"イズミヤ 六地蔵店","contact":{},"location":{"address":"伏見区桃山町西尾12の1","lat":34.935414913121456,"lng":135.79321872238197,"postalCode":"6128003","city":"京都市","state":"京都府","country":"Japan"},"categories":[{"id":"4bf58dd8d48988d1ff941735","name":"Miscellaneous Shop","pluralName":"Miscellaneous Shops","shortName":"Other - Shop","icon":{"prefix":"https:\/\/foursquare.com\/img\/categories_v2\/shops\/default_","suffix":".png"},"primary":true}],"verified":false,"stats":{"checkinsCount":219,"usersCount":33,"tipCount":1},"likes":{"count":0,"groups":[]},"specials":{"count":0,"items":[]},"hereNow":{"count":0,"groups":[]}},{"id":"4be65f7f2468c928ef5f0143","name":"近鉄 momo","contact":{"phone":"+81756051111","formattedPhone":"+81 75-605-1111"},"location":{"address":"桃山町山ノ下32","lat":34.93671917182695,"lng":135.7943024696676,"postalCode":"612-8550","city":"京都市伏見区","state":"京都府","country":"Japan"},"categories":[{"id":"4bf58dd8d48988d1f6941735","name":"Department Store","pluralName":"Department Stores","shortName":"Department Store","icon":{"prefix":"https:\/\/foursquare.com\/img\/categories_v2\/shops\/departmentstore_","suffix":".png"},"primary":true}],"verified":false,"stats":{"checkinsCount":491,"usersCount":199,"tipCount":0},"likes":{"count":0,"groups":[]},"specials":{"count":0,"items":[]},"hereNow":{"count":0,"groups":[]}},{"id":"4e62e740c65b2dc89fd8d527","name":"カプリチョーザ  伏見桃山店","contact":{"phone":"+81756052693","formattedPhone":"+81 75-605-2693"},"location":{"address":"伏見区桃山町山ノ下32","crossStreet":"近鉄momo","lat":34.93854796,"lng":135.7957115,"city":"京都市","state":"京都府","country":"Japan"},"categories":[{"id":"4bf58dd8d48988d110941735","name":"Italian Restaurant","pluralName":"Italian Restaurants","shortName":"Italian","icon":{"prefix":"https:\/\/foursquare.com\/img\/categories_v2\/food\/italian_","suffix":".png"},"primary":true}],"verified":false,"stats":{"checkinsCount":35,"usersCount":13,"tipCount":0},"likes":{"count":0,"groups":[]},"specials":{"count":0,"items":[]},"hereNow":{"count":0,"groups":[]}},{"id":"4dbfa399a86e2f4250af8f5e","name":"ユニクロ 近鉄桃山店","contact":{"phone":"+81756052101","formattedPhone":"+81 75-605-2101"},"location":{"address":"伏見区桃山町山ノ下32","crossStreet":"MOMO近鉄 2F","lat":34.93697721015726,"lng":135.79503893852234,"city":"京都市","state":"京都府","country":"Japan"},"categories":[{"id":"4bf58dd8d48988d103951735","name":"Clothing Store","pluralName":"Clothing Stores","shortName":"Apparel","icon":{"prefix":"https:\/\/foursquare.com\/img\/categories_v2\/shops\/apparel_","suffix":".png"},"primary":true}],"verified":false,"stats":{"checkinsCount":28,"usersCount":21,"tipCount":0},"likes":{"count":0,"groups":[]},"specials":{"count":0,"items":[]},"hereNow":{"count":0,"groups":[]}},{"id":"4cc40c7a3d7fa1cdf18aa95f","name":"ソフトバンク 六地蔵","contact":{"phone":"+81756042033","formattedPhone":"+81 75-604-2033","twitter":"SB_Rokujizou"},"location":{"address":"伏見区桃山町山ノ下32","crossStreet":"近鉄momo1F","lat":34.93704757261978,"lng":135.79500675201416,"postalCode":"612-8002","city":"京都市","state":"京都府","country":"Japan"},"categories":[{"id":"4f04afc02fb6e1c99f3db0bc","name":"Mobile Phone Shop","pluralName":"Mobile Phone Shops","shortName":"Mobile Phone","icon":{"prefix":"https:\/\/foursquare.com\/img\/categories_v2\/shops\/mobilephoneshop_","suffix":".png"},"primary":true}],"verified":false,"stats":{"checkinsCount":4,"usersCount":4,"tipCount":0},"likes":{"count":0,"groups":[]},"specials":{"count":0,"items":[]},"hereNow":{"count":0,"groups":[]}},{"id":"4d2c4a4155a8b60c0d92eec0","name":"松屋 六地蔵店","contact":{},"location":{"lat":34.93551911778975,"lng":135.7933530316073,"country":"Japan"},"categories":[{"id":"4bf58dd8d48988d16e941735","name":"Fast Food Restaurant","pluralName":"Fast Food Restaurants","shortName":"Fast Food","icon":{"prefix":"https:\/\/foursquare.com\/img\/categories_v2\/food\/fastfood_","suffix":".png"},"primary":true}],"verified":false,"stats":{"checkinsCount":16,"usersCount":8,"tipCount":0},"likes":{"count":0,"groups":[]},"specials":{"count":0,"items":[]},"hereNow":{"count":0,"groups":[]}},{"id":"4d9d2a21a1ec8cfa7dc6fd49","name":"きなさ 京都momo店","contact":{"phone":"+81756052831","formattedPhone":"+81 75-605-2831"},"location":{"address":"伏見区桃山町山ノ下32","crossStreet":"MOMOショッピングセンター1F","lat":34.9371304,"lng":135.7950317,"city":"京都市","state":"京都府","country":"Japan"},"categories":[{"id":"4bf58dd8d48988d111941735","name":"Japanese Restaurant","pluralName":"Japanese Restaurants","shortName":"Japanese","icon":{"prefix":"https:\/\/foursquare.com\/img\/categories_v2\/food\/japanese_","suffix":".png"},"primary":true}],"verified":false,"stats":{"checkinsCount":2,"usersCount":2,"tipCount":0},"likes":{"count":0,"groups":[]},"specials":{"count":0,"items":[]},"hereNow":{"count":0,"groups":[]}},{"id":"4eb39f5b02d5f33e91c58740","name":"無印良品 近鉄桃山店","contact":{"phone":"+81756234311","formattedPhone":"+81 75-623-4311","twitter":"muji_net"},"location":{"address":"桃山町山ノ下32","crossStreet":"近鉄百貨店桃山店 2F","lat":34.9367773894594,"lng":135.79496940330364,"postalCode":"612-8002","city":"京都市伏見区","state":"京都府","country":"Japan"},"categories":[{"id":"4bf58dd8d48988d1ff941735","name":"Miscellaneous Shop","pluralName":"Miscellaneous Shops","shortName":"Other - Shop","icon":{"prefix":"https:\/\/foursquare.com\/img\/categories_v2\/shops\/default_","suffix":".png"},"primary":true}],"verified":false,"stats":{"checkinsCount":15,"usersCount":5,"tipCount":0},"likes":{"count":0,"groups":[]},"specials":{"count":0,"items":[]},"hereNow":{"count":0,"groups":[]}},{"id":"4ddc9876887775ea9c450814","name":"くまざわ書店 近鉄ｍｏｍｏ店","contact":{},"location":{"lat":34.937829440083185,"lng":135.79571508319313,"city":"Kyoto","state":"Kyoto Prefecture","country":"Japan"},"categories":[{"id":"4bf58dd8d48988d114951735","name":"Bookstore","pluralName":"Bookstores","shortName":"Bookstore","icon":{"prefix":"https:\/\/foursquare.com\/img\/categories_v2\/shops\/bookstore_","suffix":".png"},"primary":true}],"verified":false,"stats":{"checkinsCount":7,"usersCount":5,"tipCount":0},"likes":{"count":0,"groups":[]},"specials":{"count":0,"items":[]},"hereNow":{"count":0,"groups":[]}},{"id":"4e62f5172271573ad7dbf1d4","name":"ダイソー 近商ストア桃山店","contact":{"phone":"+81756052444","formattedPhone":"+81 75-605-2444"},"location":{"address":"伏見区桃山町山ノ下32","crossStreet":"近鉄百貨店桃山店2階","lat":34.93763640955417,"lng":135.7956317146769,"city":"京都市","state":"京都府","country":"Japan"},"categories":[{"id":"4bf58dd8d48988d1ff941735","name":"Miscellaneous Shop","pluralName":"Miscellaneous Shops","shortName":"Other - Shop","icon":{"prefix":"https:\/\/foursquare.com\/img\/categories_v2\/shops\/default_","suffix":".png"},"primary":true}],"verified":false,"stats":{"checkinsCount":6,"usersCount":5,"tipCount":0},"likes":{"count":0,"groups":[]},"specials":{"count":0,"items":[]},"hereNow":{"count":0,"groups":[]}},{"id":"4e61cbf2d22d509a3958fd0d","name":"河内眼科","contact":{},"location":{"address":"伏見区桃山町山ノ下32","crossStreet":"近鉄百貨店桃山店(MOMO)2F","lat":34.937593,"lng":135.795939,"postalCode":"612-8550","city":"京都市","state":"京都府","country":"Japan"},"categories":[{"id":"4bf58dd8d48988d177941735","name":"Doctor's Office","pluralName":"Doctor's Offices","shortName":"Doctor's Office","icon":{"prefix":"https:\/\/foursquare.com\/img\/categories_v2\/building\/medical_","suffix":".png"},"primary":true}],"verified":false,"stats":{"checkinsCount":1,"usersCount":1,"tipCount":1},"likes":{"count":0,"groups":[]},"specials":{"count":0,"items":[]},"hereNow":{"count":0,"groups":[]}},{"id":"4f7be1e7e4b0dc29a6257450","name":"joy spot","contact":{},"location":{"lat":34.935339,"lng":135.793043,"country":"Japan"},"categories":[{"id":"4bf58dd8d48988d1f7941735","name":"Flea Market","pluralName":"Flea Markets","shortName":"Flea Market","icon":{"prefix":"https:\/\/foursquare.com\/img\/categories_v2\/shops\/fleamarket_","suffix":".png"},"primary":true}],"verified":false,"stats":{"checkinsCount":3,"usersCount":1,"tipCount":0},"likes":{"count":0,"groups":[]},"specials":{"count":0,"items":[]},"hereNow":{"count":0,"groups":[]}},{"id":"4f58473ee4b005517156e6de","name":"巨椋大橋","contact":{},"location":{"lat":34.9358313113398,"lng":135.79357533736243,"country":"Japan"},"categories":[{"id":"4bf58dd8d48988d1df941735","name":"Bridge","pluralName":"Bridges","shortName":"Bridge","icon":{"prefix":"https:\/\/foursquare.com\/img\/categories_v2\/parks_outdoors\/bridge_","suffix":".png"},"primary":true}],"verified":false,"stats":{"checkinsCount":3,"usersCount":3,"tipCount":0},"likes":{"count":0,"groups":[]},"specials":{"count":0,"items":[]},"hereNow":{"count":0,"groups":[]}},{"id":"4dd0b5d4b0fb25f6e37afa68","name":"ドコモショップ六地蔵店","contact":{},"location":{"lat":34.935268442833866,"lng":135.79338545113208,"city":"京都市","state":"京都府","country":"Japan"},"categories":[],"verified":false,"stats":{"checkinsCount":7,"usersCount":7,"tipCount":0},"likes":{"count":0,"groups":[]},"specials":{"count":0,"items":[]},"hereNow":{"count":0,"groups":[]}},{"id":"4c97044b533aa09339aad645","name":"ブーランジェリー１０５ 六地蔵店","contact":{},"location":{"lat":34.9353758,"lng":135.793008,"country":"Japan"},"categories":[{"id":"4bf58dd8d48988d16a941735","name":"Bakery","pluralName":"Bakeries","shortName":"Bakery","icon":{"prefix":"https:\/\/foursquare.com\/img\/categories_v2\/food\/bakery_","suffix":".png"},"primary":true}],"verified":false,"stats":{"checkinsCount":7,"usersCount":3,"tipCount":0},"likes":{"count":0,"groups":[]},"specials":{"count":0,"items":[]},"hereNow":{"count":0,"groups":[]}},{"id":"4f7db97877161da045e94557","name":"ゆうちょ銀行 大阪支店 イズミヤ六地蔵店内出張所","contact":{},"location":{"address":"伏見区桃山町西尾12-1","crossStreet":"イズミヤ六地蔵店1階ATMコーナー","lat":34.93507740085273,"lng":135.79294681549072,"postalCode":"612-8003","city":"京都市","state":"京都府","country":"Japan"},"categories":[{"id":"4bf58dd8d48988d10a951735","name":"Bank","pluralName":"Banks","shortName":"Bank \/ Financial","icon":{"prefix":"https:\/\/foursquare.com\/img\/categories_v2\/shops\/financial_","suffix":".png"},"primary":true}],"verified":false,"stats":{"checkinsCount":0,"usersCount":0,"tipCount":0},"likes":{"count":0,"groups":[]},"specials":{"count":0,"items":[]},"hereNow":{"count":0,"groups":[]}},{"id":"4fc02f35e4b05b8502a62a21","name":"桃山西尾交差点","contact":{},"location":{"address":"京都府京都市伏見区桃山町西尾31","lat":34.935673,"lng":135.792425,"country":"Japan"},"categories":[{"id":"4bf58dd8d48988d1f9931735","name":"Road","pluralName":"Roads","shortName":"Road","icon":{"prefix":"https:\/\/foursquare.com\/img\/categories_v2\/travel\/highway_","suffix":".png"},"primary":true}],"verified":false,"stats":{"checkinsCount":8,"usersCount":2,"tipCount":0},"likes":{"count":0,"groups":[]},"specials":{"count":0,"items":[]},"hereNow":{"count":0,"groups":[]}},{"id":"4b5bda29f964a520dc1929e3","name":"ミスタードーナツ 桃山ショップ","contact":{"phone":"+81756052745","formattedPhone":"+81 75-605-2745"},"location":{"address":"桃山町山ノ下32","crossStreet":"MOMO近鉄 1F","lat":34.938047731764364,"lng":135.79444604487165,"city":"京都市伏見区","state":"京都府","country":"Japan"},"categories":[{"id":"4bf58dd8d48988d148941735","name":"Donut Shop","pluralName":"Donut Shops","shortName":"Donuts","icon":{"prefix":"https:\/\/foursquare.com\/img\/categories_v2\/food\/donuts_","suffix":".png"},"primary":true}],"verified":false,"stats":{"checkinsCount":70,"usersCount":19,"tipCount":0},"likes":{"count":0,"groups":[]},"specials":{"count":0,"items":[]},"hereNow":{"count":0,"groups":[]}},{"id":"4d25437119ff3704f38a0c70","name":"ヒグチ薬局桃山店","contact":{},"location":{"lat":34.936957650666486,"lng":135.79472393359006,"country":"Japan"},"categories":[],"verified":false,"stats":{"checkinsCount":8,"usersCount":1,"tipCount":0},"likes":{"count":0,"groups":[]},"specials":{"count":0,"items":[]},"hereNow":{"count":0,"groups":[]}},{"id":"4ef57b5ce5fa4f2869c6c30b","name":"オリンピア","contact":{"phone":"+81756445458","formattedPhone":"+81 75-644-5458"},"location":{"address":"伏見区桃山町山ノ下３２","lat":34.93674262857621,"lng":135.79419131496746,"city":"京都市","state":"京都府","country":"Japan"},"categories":[{"id":"4bf58dd8d48988d1ff941735","name":"Miscellaneous Shop","pluralName":"Miscellaneous Shops","shortName":"Other - Shop","icon":{"prefix":"https:\/\/foursquare.com\/img\/categories_v2\/shops\/default_","suffix":".png"},"primary":true}],"verified":false,"stats":{"checkinsCount":1,"usersCount":1,"tipCount":0},"likes":{"count":0,"groups":[]},"specials":{"count":0,"items":[]},"hereNow":{"count":0,"groups":[]}},{"id":"4d69f05967a8f04d986414be","name":"古本市場 桃山店","contact":{"phone":"+81756128623","formattedPhone":"+81 75-612-8623"},"location":{"address":"桃山町山ノ下48-27","lat":34.93738494,"lng":135.793898,"city":"京都市伏見区","state":"京都府","country":"Japan"},"categories":[{"id":"4bf58dd8d48988d114951735","name":"Bookstore","pluralName":"Bookstores","shortName":"Bookstore","icon":{"prefix":"https:\/\/foursquare.com\/img\/categories_v2\/shops\/bookstore_","suffix":".png"},"primary":true}],"verified":false,"stats":{"checkinsCount":22,"usersCount":10,"tipCount":0},"likes":{"count":0,"groups":[]},"specials":{"count":0,"items":[]},"hereNow":{"count":0,"groups":[]}},{"id":"4f6595a2e4b0cded5d85d81b","name":"ヤマダ電機 テックランド桃山","contact":{},"location":{"lat":34.937774658203125,"lng":135.79469299316406,"country":"Japan"},"categories":[{"id":"4bf58dd8d48988d122951735","name":"Electronics Store","pluralName":"Electronics Stores","shortName":"Electronics","icon":{"prefix":"https:\/\/foursquare.com\/img\/categories_v2\/shops\/technology_","suffix":".png"},"primary":true}],"verified":false,"stats":{"checkinsCount":3,"usersCount":2,"tipCount":0},"likes":{"count":0,"groups":[]},"specials":{"count":0,"items":[]},"hereNow":{"count":0,"groups":[]}},{"id":"4fbcb2b4e4b005e6f2a040b1","name":"いづみ茶屋","contact":{},"location":{"lat":34.936080983772754,"lng":135.79306588820592,"country":"Japan"},"categories":[{"id":"4bf58dd8d48988d111941735","name":"Japanese Restaurant","pluralName":"Japanese Restaurants","shortName":"Japanese","icon":{"prefix":"https:\/\/foursquare.com\/img\/categories_v2\/food\/japanese_","suffix":".png"},"primary":true}],"verified":false,"stats":{"checkinsCount":3,"usersCount":1,"tipCount":0},"likes":{"count":0,"groups":[]},"specials":{"count":0,"items":[]},"hereNow":{"count":0,"groups":[]}},{"id":"4eaa184ef7905c39411fdf45","name":"Bウェイ momo店","contact":{},"location":{"lat":34.93806,"lng":135.794428,"country":"Japan"},"categories":[{"id":"4bf58dd8d48988d1f2941735","name":"Sporting Goods Shop","pluralName":"Sporting Goods Shops","shortName":"Sporting Goods","icon":{"prefix":"https:\/\/foursquare.com\/img\/categories_v2\/shops\/sports_outdoors_","suffix":".png"},"primary":true}],"verified":false,"stats":{"checkinsCount":1,"usersCount":1,"tipCount":0},"likes":{"count":0,"groups":[]},"specials":{"count":0,"items":[]},"hereNow":{"count":0,"groups":[]}},{"id":"4e62ff19b993678bb6bd900c","name":"セガワールド 六地蔵店","contact":{},"location":{"address":"伏見区桃山町山ノ下","lat":34.936612,"lng":135.794004,"city":"京都市","state":"京都府","country":"Japan"},"categories":[{"id":"4bf58dd8d48988d1e1931735","name":"Arcade","pluralName":"Arcades","shortName":"Arcade","icon":{"prefix":"https:\/\/foursquare.com\/img\/categories_v2\/arts_entertainment\/arcade_","suffix":".png"},"primary":true}],"verified":false,"stats":{"checkinsCount":11,"usersCount":8,"tipCount":0},"likes":{"count":0,"groups":[]},"specials":{"count":0,"items":[]},"hereNow":{"count":0,"groups":[]}},{"id":"4bfa039c5317a5932f32027f","name":"ファンタジーキッズリゾート伏見桃山","contact":{},"location":{"address":"桃山町山ノ下32","crossStreet":"MOMOアミューズメント棟1F","lat":34.936784,"lng":135.794185,"postalCode":"612-8002","city":"京都市伏見区","state":"京都府","country":"Japan"},"categories":[{"id":"4bf58dd8d48988d182941735","name":"Theme Park","pluralName":"Theme Parks","shortName":"Theme Park","icon":{"prefix":"https:\/\/foursquare.com\/img\/categories_v2\/arts_entertainment\/themepark_","suffix":".png"},"primary":true}],"verified":false,"stats":{"checkinsCount":37,"usersCount":28,"tipCount":0},"likes":{"count":0,"groups":[]},"specials":{"count":0,"items":[]},"hereNow":{"count":0,"groups":[]}},{"id":"4e07efa6b0fbba5eee1f7f23","name":"サンマルクカフェ 京都近鉄MOMO店","contact":{"phone":"+81756055155","formattedPhone":"+81 75-605-5155"},"location":{"address":"桃山町山ノ下32","crossStreet":"MOMO1F","lat":34.93755769866769,"lng":135.7947278022766,"postalCode":"612-8002","city":"京都市伏見区","state":"京都府","country":"Japan"},"categories":[{"id":"4bf58dd8d48988d16d941735","name":"Café","pluralName":"Cafés","shortName":"Café","icon":{"prefix":"https:\/\/foursquare.com\/img\/categories_v2\/food\/cafe_","suffix":".png"},"primary":true}],"verified":false,"stats":{"checkinsCount":33,"usersCount":10,"tipCount":0},"likes":{"count":0,"groups":[]},"specials":{"count":0,"items":[]},"hereNow":{"count":0,"groups":[]}},{"id":"4e62e48dc65b2dc89fd7a5ee","name":"手芸センタードリーム 京都桃山店","contact":{"phone":"+81756053220","formattedPhone":"+81 75-605-3220"},"location":{"address":"伏見区","lat":34.93674185803606,"lng":135.7944275190146,"city":"京都市","state":"京都府","country":"Japan"},"categories":[{"id":"4bf58dd8d48988d127951735","name":"Arts & Crafts Store","pluralName":"Arts & Crafts Stores","shortName":"Arts & Crafts","icon":{"prefix":"https:\/\/foursquare.com\/img\/categories_v2\/shops\/artstore_","suffix":".png"},"primary":true}],"verified":false,"stats":{"checkinsCount":6,"usersCount":2,"tipCount":0},"likes":{"count":0,"groups":[]},"specials":{"count":0,"items":[]},"hereNow":{"count":0,"groups":[]}},{"id":"4f83dbc9e4b002559c37274c","name":"BODY BALANCE","contact":{},"location":{"lat":34.937608,"lng":135.794413,"country":"Japan"},"categories":[{"id":"4bf58dd8d48988d1ed941735","name":"Spa or Massage","pluralName":"Spas or Massages","shortName":"Spas \/ Massage","icon":{"prefix":"https:\/\/foursquare.com\/img\/categories_v2\/shops\/spa_","suffix":".png"},"primary":true}],"verified":false,"stats":{"checkinsCount":1,"usersCount":1,"tipCount":0},"likes":{"count":0,"groups":[]},"specials":{"count":0,"items":[]},"hereNow":{"count":0,"groups":[]}},{"id":"4fd99863e4b00800dd1a4f3a","name":"ろびぃ","contact":{},"location":{"lat":34.936689,"lng":135.794169,"country":"Japan"},"categories":[{"id":"4bf58dd8d48988d1dc931735","name":"Tea Room","pluralName":"Tea Rooms","shortName":"Tea Room","icon":{"prefix":"https:\/\/foursquare.com\/img\/categories_v2\/food\/tearoom_","suffix":".png"},"primary":true}],"verified":false,"stats":{"checkinsCount":1,"usersCount":1,"tipCount":0},"likes":{"count":0,"groups":[]},"specials":{"count":0,"items":[]},"hereNow":{"count":0,"groups":[]}},{"id":"4f89303ce4b047d849dff5c8","name":"タイヤガーデン桃山","contact":{"phone":"+81756012200","formattedPhone":"+81 75-601-2200"},"location":{"address":"桃山町山ノ下４２−１","lat":34.93602,"lng":135.79313,"postalCode":"6128002","city":"京都市伏見区","state":"京都府","country":"Japan"},"categories":[{"id":"4bf58dd8d48988d1ff941735","name":"Miscellaneous Shop","pluralName":"Miscellaneous Shops","shortName":"Other - Shop","icon":{"prefix":"https:\/\/foursquare.com\/img\/categories_v2\/shops\/default_","suffix":".png"},"primary":true}],"verified":false,"stats":{"checkinsCount":1,"usersCount":1,"tipCount":0},"likes":{"count":0,"groups":[]},"specials":{"count":0,"items":[]},"hereNow":{"count":0,"groups":[]}}]}}
