{"meta":{"code":200},"response":{"venues":[{"id":"4d3909b61a57a143deca8af3","name":"陸上自衛隊 大久保駐屯地","contact":{},"location":{"address":"広野町風呂垣外1-1","lat":34.878397125998326,"lng":135.77505111694336,"postalCode":"611-0031","city":"宇治市","state":"京都府","country":"Japan"},"categories":[{"id":"4e52adeebd41615f56317744","name":"Military Base","pluralName":"Military Bases","shortName":"Military Base","icon":{"prefix":"https:\/\/foursquare.com\/img\/categories_v2\/building\/militarybase_","suffix":".png"},"primary":true}],"verified":false,"stats":{"checkinsCount":68,"usersCount":30,"tipCount":0},"likes":{"count":0,"groups":[]},"specials":{"count":0,"items":[]},"hereNow":{"count":0,"groups":[]}},{"id":"4bfa513f508c0f4736f03f31","name":"グルメリア 但馬","contact":{},"location":{"lat":34.87795391101085,"lng":135.7776969748883,"country":"Japan"},"categories":[{"id":"4bf58dd8d48988d142941735","name":"Asian Restaurant","pluralName":"Asian Restaurants","shortName":"Asian","icon":{"prefix":"https:\/\/foursquare.com\/img\/categories_v2\/food\/asian_","suffix":".png"},"primary":true}],"verified":false,"stats":{"checkinsCount":3,"usersCount":3,"tipCount":0},"likes":{"count":0,"groups":[]},"specials":{"count":0,"items":[]},"hereNow":{"count":0,"groups":[]}},{"id":"4e03039fd22d034599eda6b4","name":"ベイブ","contact":{},"location":{"lat":34.8806905,"lng":135.7785911,"city":"宇治市","state":"京都府","country":"Japan"},"categories":[{"id":"4bf58dd8d48988d110951735","name":"Salon \/ Barbershop","pluralName":"Salons \/ Barbershops","shortName":"Salon \/ Barbershop","icon":{"prefix":"https:\/\/foursquare.com\/img\/categories_v2\/shops\/salon_barber_","suffix":".png"},"primary":true}],"verified":false,"stats":{"checkinsCount":0,"usersCount":0,"tipCount":0},"likes":{"count":0,"groups":[]},"specials":{"count":0,"items":[]},"hereNow":{"count":0,"groups":[]}},{"id":"4b5cd752f964a520bc4629e3","name":"大久保駅 (Okubo Sta.)","contact":{},"location":{"address":"広野町西裏81-2","lat":34.874618578192,"lng":135.77700713375657,"city":"宇治市","state":"京都府","country":"Japan"},"categories":[{"id":"4bf58dd8d48988d129951735","name":"Train Station","pluralName":"Train Stations","shortName":"Train Station","icon":{"prefix":"https:\/\/foursquare.com\/img\/categories_v2\/travel\/trainstation_","suffix":".png"},"primary":true}],"verified":false,"stats":{"checkinsCount":2584,"usersCount":470,"tipCount":4},"likes":{"count":0,"groups":[]},"specials":{"count":0,"items":[]},"hereNow":{"count":1,"groups":[{"type":"others","name":"Other people here","count":1,"items":[]}]}},{"id":"4d4245cafe6ab60c259b4a39","name":"セブンイレブン 宇治広野町店","contact":{"phone":"+81774443560","formattedPhone":"+81 774-44-3560"},"location":{"address":"広野町東裏61-5","lat":34.875652084642475,"lng":135.78107669949532,"postalCode":"611-0031","city":"宇治市","state":"京都府","country":"Japan"},"categories":[{"id":"4d954b0ea243a5684a65b473","name":"Convenience Store","pluralName":"Convenience Stores","shortName":"Convenience Stores","icon":{"prefix":"https:\/\/foursquare.com\/img\/categories_v2\/shops\/conveniencestore_","suffix":".png"},"primary":true}],"verified":false,"stats":{"checkinsCount":40,"usersCount":20,"tipCount":0},"likes":{"count":0,"groups":[]},"specials":{"count":0,"items":[]},"hereNow":{"count":0,"groups":[]}},{"id":"4d537256bbbf3704d2283578","name":"エーシック 省エネ館","contact":{"phone":"+81774413700","formattedPhone":"+81 774-41-3700","twitter":"shoenekan"},"location":{"address":"広野町西裏10-5","lat":34.87848074104986,"lng":135.77825903892517,"postalCode":"611-0031","city":"宇治市","state":"京都府","country":"Japan"},"categories":[{"id":"4bf58dd8d48988d122951735","name":"Electronics Store","pluralName":"Electronics Stores","shortName":"Electronics","icon":{"prefix":"https:\/\/foursquare.com\/img\/categories_v2\/shops\/technology_","suffix":".png"},"primary":true}],"verified":false,"stats":{"checkinsCount":1,"usersCount":1,"tipCount":0},"likes":{"count":0,"groups":[]},"specials":{"count":0,"items":[]},"hereNow":{"count":0,"groups":[]}},{"id":"4ef5934c2c5b0445ff4ea187","name":"宇治バプテスト\u2022キリスト教会","contact":{"phone":"+81774417511","formattedPhone":"+81 774-41-7511"},"location":{"crossStreet":"開町8-2","lat":34.88005,"lng":135.78033,"city":"宇治市","country":"Japan"},"categories":[{"id":"4bf58dd8d48988d132941735","name":"Church","pluralName":"Churches","shortName":"Church","icon":{"prefix":"https:\/\/foursquare.com\/img\/categories_v2\/building\/religious_church_","suffix":".png"},"primary":true}],"verified":false,"stats":{"checkinsCount":3,"usersCount":1,"tipCount":0},"likes":{"count":0,"groups":[]},"specials":{"count":0,"items":[]},"hereNow":{"count":0,"groups":[]}},{"id":"4bbaf86553649c74678f49fb","name":"サンクス 宇治大久保店","contact":{"phone":"+81774445810","formattedPhone":"+81 774-44-5810"},"location":{"address":"広野町西裏49-1","lat":34.87611088150165,"lng":135.77850714325905,"postalCode":"611-0031","city":"宇治市","state":"京都府","country":"Japan"},"categories":[{"id":"4d954b0ea243a5684a65b473","name":"Convenience Store","pluralName":"Convenience Stores","shortName":"Convenience Stores","icon":{"prefix":"https:\/\/foursquare.com\/img\/categories_v2\/shops\/conveniencestore_","suffix":".png"},"primary":true}],"verified":false,"stats":{"checkinsCount":127,"usersCount":37,"tipCount":0},"likes":{"count":0,"groups":[]},"specials":{"count":0,"items":[]},"hereNow":{"count":0,"groups":[]}},{"id":"4f20f0c5e4b053b17867f816","name":"カメラのキタムラ 宇治・大久保店","contact":{"phone":"+81774452563","formattedPhone":"+81 774-45-2563"},"location":{"address":"広野町西裏50-9","lat":34.87585952740209,"lng":135.77825255889235,"city":"宇治市","state":"京都府","country":"Japan"},"categories":[{"id":"4eb1bdf03b7b55596b4a7491","name":"Camera Store","pluralName":"Camera Stores","shortName":"Camera Store","icon":{"prefix":"https:\/\/foursquare.com\/img\/categories_v2\/shops\/camerastore_","suffix":".png"},"primary":true}],"verified":false,"stats":{"checkinsCount":47,"usersCount":12,"tipCount":0},"likes":{"count":0,"groups":[]},"specials":{"count":0,"items":[]},"hereNow":{"count":0,"groups":[]}},{"id":"4c96b62c94a0236a407da112","name":"平和堂 100BAN店","contact":{"phone":"+81774444555","formattedPhone":"+81 774-44-4555"},"location":{"address":"広野町西裏100番地","lat":34.87384657861217,"lng":135.77889740467072,"postalCode":"611-0031","city":"宇治市","state":"京都府","country":"Japan"},"categories":[{"id":"4bf58dd8d48988d118951735","name":"Grocery Store","pluralName":"Grocery Stores","shortName":"Grocery Store","icon":{"prefix":"https:\/\/foursquare.com\/img\/categories_v2\/shops\/food_grocery_","suffix":".png"},"primary":true}],"verified":false,"stats":{"checkinsCount":56,"usersCount":14,"tipCount":0},"likes":{"count":0,"groups":[]},"specials":{"count":0,"items":[]},"hereNow":{"count":0,"groups":[]}},{"id":"4d677dc4cba6a35d5023cdc1","name":"南都銀行 宇治大久保支店","contact":{},"location":{"address":"日本","lat":34.87594811679726,"lng":135.77830348774984,"country":"Japan"},"categories":[{"id":"4bf58dd8d48988d10a951735","name":"Bank","pluralName":"Banks","shortName":"Bank \/ Financial","icon":{"prefix":"https:\/\/foursquare.com\/img\/categories_v2\/shops\/financial_","suffix":".png"},"primary":true}],"verified":false,"stats":{"checkinsCount":20,"usersCount":10,"tipCount":0},"likes":{"count":0,"groups":[]},"specials":{"count":0,"items":[]},"hereNow":{"count":0,"groups":[]}},{"id":"4e57bc291f6e2a1922da791d","name":"MK宇治城陽営業所","contact":{},"location":{"lat":34.874446868896484,"lng":135.7782440185547,"country":"Japan"},"categories":[{"id":"4bf58dd8d48988d130951735","name":"Taxi","pluralName":"Taxis","shortName":"Taxi","icon":{"prefix":"https:\/\/foursquare.com\/img\/categories_v2\/travel\/taxi_","suffix":".png"},"primary":true}],"verified":false,"stats":{"checkinsCount":2,"usersCount":2,"tipCount":0},"likes":{"count":0,"groups":[]},"specials":{"count":0,"items":[]},"hereNow":{"count":0,"groups":[]}},{"id":"4fa10ccce4b00c2d65b342fb","name":"肉のすずき","contact":{},"location":{"address":"宇治市広野町西浦100","lat":34.873954,"lng":135.778532,"country":"Japan"},"categories":[{"id":"4bf58dd8d48988d11d951735","name":"Butcher","pluralName":"Butchers","shortName":"Butcher","icon":{"prefix":"https:\/\/foursquare.com\/img\/categories_v2\/shops\/food_butcher_","suffix":".png"},"primary":true}],"verified":false,"stats":{"checkinsCount":1,"usersCount":1,"tipCount":0},"likes":{"count":0,"groups":[]},"specials":{"count":0,"items":[]},"hereNow":{"count":0,"groups":[]}},{"id":"4d3aba60beb7b1f75341ec71","name":"立飲み処  こやま","contact":{},"location":{"lat":34.873798,"lng":135.778311,"city":"宇治市","state":"京都府","country":"Japan"},"categories":[],"verified":false,"stats":{"checkinsCount":6,"usersCount":3,"tipCount":0},"likes":{"count":0,"groups":[]},"specials":{"count":0,"items":[]},"hereNow":{"count":0,"groups":[]}},{"id":"4d3536cf5c2db60c98a8da6c","name":"ソフトバンク 宇治大久保","contact":{"phone":"+81774464440","formattedPhone":"+81 774-46-4440","twitter":"sbujiokubo"},"location":{"address":"広野町西裏31-3","lat":34.87740254044148,"lng":135.77816247940063,"postalCode":"611-0031","city":"宇治市","state":"京都府","country":"Japan"},"categories":[{"id":"4f04afc02fb6e1c99f3db0bc","name":"Mobile Phone Shop","pluralName":"Mobile Phone Shops","shortName":"Mobile Phone","icon":{"prefix":"https:\/\/foursquare.com\/img\/categories_v2\/shops\/mobilephoneshop_","suffix":".png"},"primary":true}],"verified":false,"stats":{"checkinsCount":28,"usersCount":10,"tipCount":0},"likes":{"count":0,"groups":[]},"specials":{"count":0,"items":[]},"hereNow":{"count":0,"groups":[]}},{"id":"4ee57f702c5b5fc6cd6457c6","name":"居酒屋 呑亭","contact":{},"location":{"address":"広野町西裏","lat":34.875222231217464,"lng":135.77698861466908,"state":"京都府","country":"Japan"},"categories":[{"id":"4bf58dd8d48988d1d4941735","name":"Speakeasy","pluralName":"Speakeasies","shortName":"Speakeasy \/ Secret Spot","icon":{"prefix":"https:\/\/foursquare.com\/img\/categories_v2\/nightlife\/secretbar_","suffix":".png"},"primary":true}],"verified":false,"stats":{"checkinsCount":8,"usersCount":3,"tipCount":0},"likes":{"count":0,"groups":[]},"specials":{"count":0,"items":[]},"hereNow":{"count":0,"groups":[]}},{"id":"4eb07ffe6da152b3a8ead9f6","name":"El Galan","contact":{"phone":"+81774465777","formattedPhone":"+81 774-46-5777"},"location":{"address":"広野町西裏1-16","crossStreet":"近鉄大久保駅高架下 サンマルシェ大久保","lat":34.87552704531004,"lng":135.7772849209318,"city":"宇治市","state":"京都府","country":"Japan"},"categories":[{"id":"4bf58dd8d48988d116941735","name":"Bar","pluralName":"Bars","shortName":"Bar","icon":{"prefix":"https:\/\/foursquare.com\/img\/categories_v2\/nightlife\/bar_","suffix":".png"},"primary":true}],"verified":false,"stats":{"checkinsCount":9,"usersCount":1,"tipCount":0},"likes":{"count":0,"groups":[]},"specials":{"count":0,"items":[]},"hereNow":{"count":0,"groups":[]}},{"id":"4df2e3a51f6e818dadff1779","name":"ミスタードーナツ 近鉄大久保ショップ","contact":{"phone":"+81774465886","formattedPhone":"+81 774-46-5886"},"location":{"address":"広野町字西裏1-16","crossStreet":"サンマルシェ大久保","lat":34.87459919571488,"lng":135.7769932444403,"city":"宇治市","state":"京都府","country":"Japan"},"categories":[{"id":"4bf58dd8d48988d148941735","name":"Donut Shop","pluralName":"Donut Shops","shortName":"Donuts","icon":{"prefix":"https:\/\/foursquare.com\/img\/categories_v2\/food\/donuts_","suffix":".png"},"primary":true}],"verified":false,"stats":{"checkinsCount":243,"usersCount":22,"tipCount":0},"likes":{"count":0,"groups":[]},"specials":{"count":0,"items":[]},"hereNow":{"count":0,"groups":[]}},{"id":"4bb8b08eb35776b0a21bc901","name":"mE・DI・A 大久保店","contact":{"phone":"+81774465801","formattedPhone":"+81 774-46-5801"},"location":{"address":"広野町字西裏1-16","crossStreet":"サンマルシェ大久保内","lat":34.874710586952425,"lng":135.77704417195312,"postalCode":"611-0031","city":"宇治市","state":"京都府","country":"Japan"},"categories":[],"verified":false,"stats":{"checkinsCount":153,"usersCount":10,"tipCount":0},"likes":{"count":0,"groups":[]},"specials":{"count":0,"items":[]},"hereNow":{"count":0,"groups":[]}},{"id":"4fa10e87e4b0ac13ae77f71b","name":"シャモチン","contact":{},"location":{"lat":34.87602025899783,"lng":135.77780346132107,"country":"Japan"},"categories":[{"id":"4bf58dd8d48988d11c941735","name":"Sake Bar","pluralName":"Sake Bars","shortName":"Sake Bar","icon":{"prefix":"https:\/\/foursquare.com\/img\/categories_v2\/nightlife\/sake_","suffix":".png"},"primary":true}],"verified":false,"stats":{"checkinsCount":2,"usersCount":2,"tipCount":0},"likes":{"count":0,"groups":[]},"specials":{"count":0,"items":[]},"hereNow":{"count":0,"groups":[]}},{"id":"4fcd68f4e4b0f39fffa89203","name":"京都中央信用金庫 大久保支店","contact":{},"location":{"lat":34.875752,"lng":135.777971,"country":"Japan"},"categories":[{"id":"4bf58dd8d48988d10a951735","name":"Bank","pluralName":"Banks","shortName":"Bank \/ Financial","icon":{"prefix":"https:\/\/foursquare.com\/img\/categories_v2\/shops\/financial_","suffix":".png"},"primary":true}],"verified":false,"stats":{"checkinsCount":1,"usersCount":1,"tipCount":0},"likes":{"count":0,"groups":[]},"specials":{"count":0,"items":[]},"hereNow":{"count":0,"groups":[]}},{"id":"4f810961e4b0e533acef4ea0","name":"ヤマザキデイリーストアー 大久保駐屯地店","contact":{},"location":{"lat":34.87593078613281,"lng":135.77688598632812,"country":"Japan"},"categories":[{"id":"4d954b0ea243a5684a65b473","name":"Convenience Store","pluralName":"Convenience Stores","shortName":"Convenience Stores","icon":{"prefix":"https:\/\/foursquare.com\/img\/categories_v2\/shops\/conveniencestore_","suffix":".png"},"primary":true}],"verified":false,"stats":{"checkinsCount":1,"usersCount":1,"tipCount":0},"likes":{"count":0,"groups":[]},"specials":{"count":0,"items":[]},"hereNow":{"count":0,"groups":[]}},{"id":"4d721455f7c38cfa0d83a03d","name":"ハーベス 大久保店","contact":{},"location":{"address":"広野町西裏1-46","lat":34.87447657,"lng":135.77703852,"city":"宇治市","state":"京都府","country":"Japan"},"categories":[{"id":"4bf58dd8d48988d118951735","name":"Grocery Store","pluralName":"Grocery Stores","shortName":"Grocery Store","icon":{"prefix":"https:\/\/foursquare.com\/img\/categories_v2\/shops\/food_grocery_","suffix":".png"},"primary":true}],"verified":false,"stats":{"checkinsCount":77,"usersCount":15,"tipCount":0},"likes":{"count":0,"groups":[]},"specials":{"count":0,"items":[]},"hereNow":{"count":1,"groups":[{"type":"others","name":"Other people here","count":1,"items":[]}]}},{"id":"4df859a962847bdf4fec0b19","name":"TSUTAYA メディア大久保店","contact":{},"location":{"address":"広野町西裏1-16","lat":34.87454736,"lng":135.77713,"city":"宇治市","state":"京都府","country":"Japan"},"categories":[{"id":"4bf58dd8d48988d126951735","name":"Video Store","pluralName":"Video Stores","shortName":"Video Store","icon":{"prefix":"https:\/\/foursquare.com\/img\/categories_v2\/shops\/video_","suffix":".png"},"primary":true}],"verified":false,"stats":{"checkinsCount":104,"usersCount":12,"tipCount":0},"likes":{"count":0,"groups":[]},"specials":{"count":0,"items":[]},"hereNow":{"count":0,"groups":[]}},{"id":"4ec09319b8f7963bce11fdf5","name":"エムズ 大久保店","contact":{},"location":{"address":"広野町茶屋裏46-2","lat":34.8743440649738,"lng":135.7770349124013,"city":"宇治市","state":"京都府","country":"Japan"},"categories":[{"id":"4bf58dd8d48988d17c941735","name":"Casino","pluralName":"Casinos","shortName":"Casino","icon":{"prefix":"https:\/\/foursquare.com\/img\/categories_v2\/arts_entertainment\/casino_","suffix":".png"},"primary":true}],"verified":false,"stats":{"checkinsCount":28,"usersCount":8,"tipCount":0},"likes":{"count":0,"groups":[]},"specials":{"count":0,"items":[]},"hereNow":{"count":0,"groups":[]}},{"id":"4e2fe78a1f6ed9df90242eed","name":"やきとり花","contact":{},"location":{"lat":34.87467,"lng":135.777061,"country":"Japan"},"categories":[{"id":"4bf58dd8d48988d11a941735","name":"Other Nightlife","pluralName":"Other Nightlife","shortName":"Other - Nightlife","icon":{"prefix":"https:\/\/foursquare.com\/img\/categories_v2\/nightlife\/default_","suffix":".png"},"primary":true}],"verified":false,"stats":{"checkinsCount":9,"usersCount":5,"tipCount":0},"likes":{"count":0,"groups":[]},"specials":{"count":0,"items":[]},"hereNow":{"count":0,"groups":[]}},{"id":"4eb290ac8b815ab741e17ee5","name":"京城苑","contact":{"phone":"+81774430025","formattedPhone":"+81 774-43-0025"},"location":{"address":"京都府宇治市広野町西裏66-1","lat":34.87525352764153,"lng":135.7773960362549,"country":"Japan"},"categories":[{"id":"4bf58dd8d48988d113941735","name":"Korean Restaurant","pluralName":"Korean Restaurants","shortName":"Korean","icon":{"prefix":"https:\/\/foursquare.com\/img\/categories_v2\/food\/default_","suffix":".png"},"primary":true}],"verified":false,"stats":{"checkinsCount":9,"usersCount":3,"tipCount":0},"likes":{"count":0,"groups":[]},"specials":{"count":0,"items":[]},"hereNow":{"count":0,"groups":[]}},{"id":"4e5343a0d4c05e0079f0360c","name":"久御山町立図書館","contact":{},"location":{"address":"佐古外屋敷235","lat":34.87451666,"lng":135.77714595,"city":"久世郡久御山町","state":"京都府","country":"Japan"},"categories":[{"id":"4bf58dd8d48988d12f941735","name":"Library","pluralName":"Libraries","shortName":"Library","icon":{"prefix":"https:\/\/foursquare.com\/img\/categories_v2\/building\/library_","suffix":".png"},"primary":true}],"verified":false,"stats":{"checkinsCount":4,"usersCount":3,"tipCount":0},"likes":{"count":0,"groups":[]},"specials":{"count":0,"items":[]},"hereNow":{"count":0,"groups":[]}},{"id":"4f7d2532e4b08ccdc5bd6298","name":"コンセプト 広野２パーキング","contact":{},"location":{"lat":34.875518,"lng":135.778048,"country":"Japan"},"categories":[{"id":"4bf58dd8d48988d1ff941735","name":"Miscellaneous Shop","pluralName":"Miscellaneous Shops","shortName":"Other - Shop","icon":{"prefix":"https:\/\/foursquare.com\/img\/categories_v2\/shops\/default_","suffix":".png"},"primary":true}],"verified":false,"stats":{"checkinsCount":0,"usersCount":0,"tipCount":0},"likes":{"count":0,"groups":[]},"specials":{"count":0,"items":[]},"hereNow":{"count":0,"groups":[]}},{"id":"4cef8584b80da09318c02c00","name":"Da Vinci","contact":{},"location":{"lat":34.875134,"lng":135.777206,"country":"Japan"},"categories":[],"verified":false,"stats":{"checkinsCount":1,"usersCount":1,"tipCount":0},"likes":{"count":0,"groups":[]},"specials":{"count":0,"items":[]},"hereNow":{"count":0,"groups":[]}}]}}
