{"meta":{"code":200},"response":{"venues":[{"id":"4dfd3995d22d879302f83be7","name":"北川洋品店","contact":{"phone":"+81774522025","formattedPhone":"+81 774-52-2025"},"location":{"address":"寺田北東西86-1","lat":34.854705,"lng":135.775573,"postalCode":"6100121","city":"城陽市","state":"京都府","country":"Japan"},"categories":[{"id":"4bf58dd8d48988d103951735","name":"Clothing Store","pluralName":"Clothing Stores","shortName":"Apparel","icon":{"prefix":"https:\/\/foursquare.com\/img\/categories_v2\/shops\/apparel_","suffix":".png"},"primary":true}],"verified":false,"stats":{"checkinsCount":14,"usersCount":2,"tipCount":0},"likes":{"count":0,"groups":[]},"specials":{"count":0,"items":[]},"hereNow":{"count":0,"groups":[]}},{"id":"4e682b20fa768a5e3cc0739b","name":"南都銀行 城陽支店","contact":{"phone":"+81774522821","formattedPhone":"+81 774-52-2821"},"location":{"address":"寺田袋尻7-1","lat":34.85329996635473,"lng":135.78048527240753,"postalCode":"6100121","city":"城陽市","state":"京都府","country":"Japan"},"categories":[{"id":"4bf58dd8d48988d10a951735","name":"Bank","pluralName":"Banks","shortName":"Bank \/ Financial","icon":{"prefix":"https:\/\/foursquare.com\/img\/categories_v2\/shops\/financial_","suffix":".png"},"primary":true}],"verified":false,"stats":{"checkinsCount":10,"usersCount":3,"tipCount":0},"likes":{"count":0,"groups":[]},"specials":{"count":0,"items":[]},"hereNow":{"count":0,"groups":[]}},{"id":"4df44128483bdb5e13775fbb","name":"グリル北川","contact":{"phone":"+81774527201","formattedPhone":"+81 774-52-7201"},"location":{"address":"寺田水度坂131","lat":34.85437408093795,"lng":135.78093588352203,"city":"城陽市","state":"京都府","country":"Japan"},"categories":[{"id":"4bf58dd8d48988d1c4941735","name":"Restaurant","pluralName":"Restaurants","shortName":"Other - Food","icon":{"prefix":"https:\/\/foursquare.com\/img\/categories_v2\/food\/default_","suffix":".png"},"primary":true}],"verified":false,"stats":{"checkinsCount":199,"usersCount":1,"tipCount":1},"likes":{"count":0,"groups":[]},"specials":{"count":0,"items":[]},"hereNow":{"count":0,"groups":[]}},{"id":"4d8edcded4ec8cfaa3c07e89","name":"業務スーパー城陽店","contact":{"phone":"+81774580633","formattedPhone":"+81 774-58-0633"},"location":{"address":"寺田北東西5-4","lat":34.855531690210206,"lng":135.77798402581567,"postalCode":"6100121","city":"城陽市","state":"京都府","country":"Japan"},"categories":[{"id":"4bf58dd8d48988d118951735","name":"Grocery Store","pluralName":"Grocery Stores","shortName":"Grocery Store","icon":{"prefix":"https:\/\/foursquare.com\/img\/categories_v2\/shops\/food_grocery_","suffix":".png"},"primary":true}],"verified":false,"stats":{"checkinsCount":57,"usersCount":8,"tipCount":1},"likes":{"count":0,"groups":[]},"specials":{"count":0,"items":[]},"hereNow":{"count":0,"groups":[]}},{"id":"4f9b3ac8e4b0ef2f6ff4645c","name":"わたべ整骨院","contact":{},"location":{"lat":34.853837,"lng":135.775736,"country":"Japan"},"categories":[{"id":"4bf58dd8d48988d177941735","name":"Doctor's Office","pluralName":"Doctor's Offices","shortName":"Doctor's Office","icon":{"prefix":"https:\/\/foursquare.com\/img\/categories_v2\/building\/medical_","suffix":".png"},"primary":true}],"verified":false,"stats":{"checkinsCount":7,"usersCount":1,"tipCount":0},"likes":{"count":0,"groups":[]},"specials":{"count":0,"items":[]},"hereNow":{"count":0,"groups":[]}},{"id":"4c9af0e5b8e9224bb763523d","name":"cafe le MISUGI","contact":{},"location":{"address":"日本","lat":34.85203654313911,"lng":135.78041285276413,"city":"城陽市","state":"京都府","country":"Japan"},"categories":[{"id":"4bf58dd8d48988d16d941735","name":"Café","pluralName":"Cafés","shortName":"Café","icon":{"prefix":"https:\/\/foursquare.com\/img\/categories_v2\/food\/cafe_","suffix":".png"},"primary":true}],"verified":false,"stats":{"checkinsCount":1,"usersCount":1,"tipCount":0},"likes":{"count":0,"groups":[]},"specials":{"count":0,"items":[]},"hereNow":{"count":0,"groups":[]}},{"id":"4cb83fc343ec6dcb35969331","name":"ゴールデンスター","contact":{},"location":{"lat":34.854353,"lng":135.780768,"country":"Japan"},"categories":[],"verified":false,"stats":{"checkinsCount":1,"usersCount":1,"tipCount":0},"likes":{"count":0,"groups":[]},"specials":{"count":0,"items":[]},"hereNow":{"count":0,"groups":[]}},{"id":"4e731b5f2271391c702f15a1","name":"だいや","contact":{"phone":"+81774521720","formattedPhone":"+81 774-52-1720"},"location":{"address":"寺田中大小108","lat":34.85375,"lng":135.774893,"postalCode":"6100121","city":"城陽市","state":"京都府","country":"Japan"},"categories":[{"id":"4bf58dd8d48988d111941735","name":"Japanese Restaurant","pluralName":"Japanese Restaurants","shortName":"Japanese","icon":{"prefix":"https:\/\/foursquare.com\/img\/categories_v2\/food\/japanese_","suffix":".png"},"primary":true}],"verified":false,"stats":{"checkinsCount":4,"usersCount":2,"tipCount":1},"likes":{"count":0,"groups":[]},"specials":{"count":0,"items":[]},"hereNow":{"count":0,"groups":[]}},{"id":"4bee0ccb2c082d7f4dfb2f42","name":"イエローハット","contact":{},"location":{"lat":34.856055658393004,"lng":135.77816247940063,"country":"Japan"},"categories":[{"id":"4bf58dd8d48988d1ff941735","name":"Miscellaneous Shop","pluralName":"Miscellaneous Shops","shortName":"Other - Shop","icon":{"prefix":"https:\/\/foursquare.com\/img\/categories_v2\/shops\/default_","suffix":".png"},"primary":true}],"verified":false,"stats":{"checkinsCount":1,"usersCount":1,"tipCount":0},"likes":{"count":0,"groups":[]},"specials":{"count":0,"items":[]},"hereNow":{"count":0,"groups":[]}},{"id":"4c628b78e1621b8d6c9d2353","name":"温庵","contact":{},"location":{"lat":34.8502580329836,"lng":135.78045308589935,"country":"Japan"},"categories":[{"id":"4bf58dd8d48988d111941735","name":"Japanese Restaurant","pluralName":"Japanese Restaurants","shortName":"Japanese","icon":{"prefix":"https:\/\/foursquare.com\/img\/categories_v2\/food\/japanese_","suffix":".png"},"primary":true}],"verified":false,"stats":{"checkinsCount":5,"usersCount":2,"tipCount":0},"likes":{"count":0,"groups":[]},"specials":{"count":0,"items":[]},"hereNow":{"count":0,"groups":[]}},{"id":"4d53bf765b3f6dcb23d8d6cc","name":"城陽飯店","contact":{"phone":"+81774524835","formattedPhone":"+81 774-52-4835"},"location":{"address":"寺田袋尻17-13","lat":34.85272108321289,"lng":135.78093856573105,"city":"城陽市","state":"京都府","country":"Japan"},"categories":[{"id":"4bf58dd8d48988d145941735","name":"Chinese Restaurant","pluralName":"Chinese Restaurants","shortName":"Chinese","icon":{"prefix":"https:\/\/foursquare.com\/img\/categories_v2\/food\/chinese_","suffix":".png"},"primary":true}],"verified":false,"stats":{"checkinsCount":57,"usersCount":7,"tipCount":0},"likes":{"count":0,"groups":[]},"specials":{"count":0,"items":[]},"hereNow":{"count":0,"groups":[]}},{"id":"4f4dbf57e4b051dc48bb7633","name":"協和産業（株）昭和シェル 城陽SS","contact":{},"location":{"address":"寺田袋尻１９ー４","lat":34.85265,"lng":135.781008333,"city":"城陽市","state":"京都府","country":"Japan"},"categories":[{"id":"4bf58dd8d48988d113951735","name":"Gas Station \/ Garage","pluralName":"Gas Stations \/ Garages","shortName":"Gas Station \/ Garage","icon":{"prefix":"https:\/\/foursquare.com\/img\/categories_v2\/shops\/gas_","suffix":".png"},"primary":true}],"verified":false,"stats":{"checkinsCount":0,"usersCount":0,"tipCount":0},"likes":{"count":0,"groups":[]},"specials":{"count":0,"items":[]},"hereNow":{"count":0,"groups":[]}},{"id":"4ea0125230f854cd9c271115","name":"ほっかほっか亭 城陽店","contact":{"phone":"+81774533743","formattedPhone":"+81 774-53-3743"},"location":{"address":"寺田袋尻17-15","lat":34.85251,"lng":135.78116,"city":"城陽市","state":"京都府","country":"Japan"},"categories":[{"id":"4bf58dd8d48988d146941735","name":"Deli\/Bodega","pluralName":"Delis\/Bodegas","shortName":"Deli \/ Bodega","icon":{"prefix":"https:\/\/foursquare.com\/img\/categories_v2\/food\/deli_","suffix":".png"},"primary":true}],"verified":false,"stats":{"checkinsCount":0,"usersCount":0,"tipCount":0},"likes":{"count":0,"groups":[]},"specials":{"count":0,"items":[]},"hereNow":{"count":0,"groups":[]}},{"id":"4bddc19dffdec9289c49e6a1","name":"サンクス 京都城陽郵便局前店","contact":{"phone":"+81774572600","formattedPhone":"+81 774-57-2600"},"location":{"address":"寺田袋尻56-1","lat":34.85168821790884,"lng":135.78137911856174,"postalCode":"6100121","city":"城陽市","state":"京都府","country":"Japan"},"categories":[{"id":"4d954b0ea243a5684a65b473","name":"Convenience Store","pluralName":"Convenience Stores","shortName":"Convenience Stores","icon":{"prefix":"https:\/\/foursquare.com\/img\/categories_v2\/shops\/conveniencestore_","suffix":".png"},"primary":true}],"verified":false,"stats":{"checkinsCount":88,"usersCount":19,"tipCount":1},"likes":{"count":0,"groups":[]},"specials":{"count":0,"items":[]},"hereNow":{"count":0,"groups":[]}},{"id":"4d292c7c467d6ea89b7bcd95","name":"京都銀行 城陽支店","contact":{},"location":{"address":"寺田袋尻21-2","lat":34.85201012990317,"lng":135.7812201976776,"postalCode":"6100121","city":"城陽市","state":"京都府","country":"Japan"},"categories":[{"id":"4bf58dd8d48988d10a951735","name":"Bank","pluralName":"Banks","shortName":"Bank \/ Financial","icon":{"prefix":"https:\/\/foursquare.com\/img\/categories_v2\/shops\/financial_","suffix":".png"},"primary":true}],"verified":false,"stats":{"checkinsCount":34,"usersCount":3,"tipCount":0},"likes":{"count":0,"groups":[]},"specials":{"count":0,"items":[]},"hereNow":{"count":0,"groups":[]}},{"id":"4fac51c6e4b0faae2cdf8dbe","name":"cut-A 城陽寺田店","contact":{},"location":{"address":"寺田","lat":34.85109051914488,"lng":135.78192420587584,"city":"城陽市","state":"京都府","country":"Japan"},"categories":[{"id":"4bf58dd8d48988d110951735","name":"Salon \/ Barbershop","pluralName":"Salons \/ Barbershops","shortName":"Salon \/ Barbershop","icon":{"prefix":"https:\/\/foursquare.com\/img\/categories_v2\/shops\/salon_barber_","suffix":".png"},"primary":true}],"verified":false,"stats":{"checkinsCount":2,"usersCount":1,"tipCount":0},"likes":{"count":0,"groups":[]},"specials":{"count":0,"items":[]},"hereNow":{"count":0,"groups":[]}},{"id":"4bcad8af68f976b00f166083","name":"シェル La Cuisine Chinoise shell","contact":{"phone":"+81774542969","formattedPhone":"+81 774-54-2969"},"location":{"address":"寺田袋尻19","lat":34.85232268598492,"lng":135.7812738418579,"postalCode":"6100121","city":"城陽市","state":"京都府","country":"Japan"},"categories":[{"id":"4bf58dd8d48988d145941735","name":"Chinese Restaurant","pluralName":"Chinese Restaurants","shortName":"Chinese","icon":{"prefix":"https:\/\/foursquare.com\/img\/categories_v2\/food\/chinese_","suffix":".png"},"primary":true}],"verified":false,"stats":{"checkinsCount":12,"usersCount":10,"tipCount":0},"likes":{"count":0,"groups":[]},"specials":{"count":0,"items":[]},"hereNow":{"count":0,"groups":[]}},{"id":"4d9694dddaec224be6681b3e","name":"はいからさん","contact":{},"location":{"lat":34.851704,"lng":135.781675,"country":"Japan"},"categories":[],"verified":false,"stats":{"checkinsCount":1,"usersCount":1,"tipCount":0},"likes":{"count":0,"groups":[]},"specials":{"count":0,"items":[]},"hereNow":{"count":0,"groups":[]}},{"id":"4f3d922ce4b02787b33ed453","name":"丸亀製麺 城陽店","contact":{},"location":{"address":"寺田高田35","lat":34.8537165408896,"lng":135.77997491043197,"city":"城陽市","state":"京都府","country":"Japan"},"categories":[{"id":"4bf58dd8d48988d1d1941735","name":"Ramen \/  Noodle House","pluralName":"Ramen \/  Noodle House","shortName":"Ramen \/ Noodles","icon":{"prefix":"https:\/\/foursquare.com\/img\/categories_v2\/food\/ramen_","suffix":".png"},"primary":true}],"verified":false,"stats":{"checkinsCount":76,"usersCount":11,"tipCount":0},"likes":{"count":0,"groups":[]},"specials":{"count":0,"items":[]},"hereNow":{"count":0,"groups":[]}},{"id":"4e088bc8aeb74c399116bb57","name":"サンクス 京都城陽市役所前店","contact":{},"location":{"address":"寺田高田33","lat":34.85362572389842,"lng":135.78021705150604,"city":"城陽市","state":"京都府","country":"Japan"},"categories":[{"id":"4d954b0ea243a5684a65b473","name":"Convenience Store","pluralName":"Convenience Stores","shortName":"Convenience Stores","icon":{"prefix":"https:\/\/foursquare.com\/img\/categories_v2\/shops\/conveniencestore_","suffix":".png"},"primary":true}],"verified":false,"stats":{"checkinsCount":78,"usersCount":17,"tipCount":0},"likes":{"count":0,"groups":[]},"specials":{"count":0,"items":[]},"hereNow":{"count":0,"groups":[]}},{"id":"4dff149ad164f31b7bd00fb9","name":"サンディ 115号 城陽店","contact":{},"location":{"address":"寺田高田４８－４","lat":34.85411435779551,"lng":135.77885448932648,"city":"城陽市","state":"京都府","country":"Japan"},"categories":[{"id":"4bf58dd8d48988d1f5941735","name":"Gourmet Shop","pluralName":"Gourmet Shops","shortName":"Gourmet","icon":{"prefix":"https:\/\/foursquare.com\/img\/categories_v2\/shops\/food_gourmet_","suffix":".png"},"primary":true}],"verified":false,"stats":{"checkinsCount":27,"usersCount":5,"tipCount":0},"likes":{"count":0,"groups":[]},"specials":{"count":0,"items":[]},"hereNow":{"count":0,"groups":[]}},{"id":"4f3e2f89e4b00c683cfe57d4","name":"眼鏡市場 城陽店","contact":{"phone":"+81774571518","formattedPhone":"+81 774-57-1518"},"location":{"address":"寺田高田39","lat":34.85369415305812,"lng":135.77985915905123,"postalCode":"610-0121","city":"城陽市","state":"京都府","country":"Japan"},"categories":[{"id":"4d954afda243a5684865b473","name":"Optical Shop","pluralName":"Optical Shops","shortName":"Optical Shops","icon":{"prefix":"https:\/\/foursquare.com\/img\/categories_v2\/building\/medical_opticalshop_","suffix":".png"},"primary":true}],"verified":false,"stats":{"checkinsCount":4,"usersCount":0,"tipCount":1},"likes":{"count":0,"groups":[]},"specials":{"count":0,"items":[]},"hereNow":{"count":0,"groups":[]}},{"id":"4e61a78452b1260c12cbad12","name":"寺田横断歩道橋","contact":{},"location":{"lat":34.85331990687892,"lng":135.78041013813717,"country":"Japan"},"categories":[{"id":"4bf58dd8d48988d1f9931735","name":"Road","pluralName":"Roads","shortName":"Road","icon":{"prefix":"https:\/\/foursquare.com\/img\/categories_v2\/travel\/highway_","suffix":".png"},"primary":true}],"verified":false,"stats":{"checkinsCount":25,"usersCount":1,"tipCount":0},"likes":{"count":0,"groups":[]},"specials":{"count":0,"items":[]},"hereNow":{"count":0,"groups":[]}},{"id":"4dde1b5b7d8bb03c06abc955","name":"ビッグボーイ京都城陽店","contact":{},"location":{"address":"寺田高田29-2","lat":34.853789,"lng":135.779907,"city":"城陽市","state":"京都府","country":"Japan"},"categories":[{"id":"4bf58dd8d48988d1c4941735","name":"Restaurant","pluralName":"Restaurants","shortName":"Other - Food","icon":{"prefix":"https:\/\/foursquare.com\/img\/categories_v2\/food\/default_","suffix":".png"},"primary":true}],"verified":false,"stats":{"checkinsCount":72,"usersCount":15,"tipCount":0},"likes":{"count":0,"groups":[]},"specials":{"count":0,"items":[]},"hereNow":{"count":0,"groups":[]}},{"id":"4d0b3e50dd5fa1cdeed25789","name":"ilfico","contact":{},"location":{"lat":34.85273,"lng":135.776904,"city":"城陽市","state":"京都府","country":"Japan"},"categories":[{"id":"4bf58dd8d48988d110941735","name":"Italian Restaurant","pluralName":"Italian Restaurants","shortName":"Italian","icon":{"prefix":"https:\/\/foursquare.com\/img\/categories_v2\/food\/italian_","suffix":".png"},"primary":true}],"verified":false,"stats":{"checkinsCount":5,"usersCount":4,"tipCount":0},"likes":{"count":0,"groups":[]},"specials":{"count":0,"items":[]},"hereNow":{"count":0,"groups":[]}},{"id":"4dcf90c61f6eb122709792bc","name":"寺田交番","contact":{"phone":"+81774533323","formattedPhone":"+81 774-53-3323"},"location":{"address":"寺田高田40-6","lat":34.8540285169156,"lng":135.7798147201538,"city":"城陽市","state":"京都府","country":"Japan"},"categories":[{"id":"4bf58dd8d48988d12e941735","name":"Police Station","pluralName":"Police Stations","shortName":"Police Station","icon":{"prefix":"https:\/\/foursquare.com\/img\/categories_v2\/building\/government_policestation_","suffix":".png"},"primary":true}],"verified":false,"stats":{"checkinsCount":75,"usersCount":3,"tipCount":0},"likes":{"count":0,"groups":[]},"specials":{"count":0,"items":[]},"hereNow":{"count":0,"groups":[]}},{"id":"4d9be05cad3bf04da71127a2","name":"京都城陽珈琲店","contact":{"phone":"+81774536122","formattedPhone":"+81 774-53-6122"},"location":{"address":"寺田高田33","lat":34.85377414,"lng":135.78015057,"postalCode":"6100121","city":"城陽市","state":"京都府","country":"Japan"},"categories":[{"id":"4bf58dd8d48988d16d941735","name":"Café","pluralName":"Cafés","shortName":"Café","icon":{"prefix":"https:\/\/foursquare.com\/img\/categories_v2\/food\/cafe_","suffix":".png"},"primary":true}],"verified":false,"stats":{"checkinsCount":50,"usersCount":5,"tipCount":0},"likes":{"count":0,"groups":[]},"specials":{"count":0,"items":[]},"hereNow":{"count":0,"groups":[]}},{"id":"4e7318a952b145ffbf672f41","name":"ユリ写真館","contact":{"phone":"+81774522158","formattedPhone":"+81 774-52-2158"},"location":{"address":"寺田高田23-9","lat":34.85430804970829,"lng":135.7803162932396,"postalCode":"610-0121","city":"城陽市","state":"京都府","country":"Japan"},"categories":[{"id":"4bf58dd8d48988d1f4941735","name":"Design Studio","pluralName":"Design Studios","shortName":"Design","icon":{"prefix":"https:\/\/foursquare.com\/img\/categories_v2\/shops\/design_","suffix":".png"},"primary":true}],"verified":false,"stats":{"checkinsCount":116,"usersCount":4,"tipCount":0},"likes":{"count":0,"groups":[]},"specials":{"count":0,"items":[]},"hereNow":{"count":0,"groups":[]}},{"id":"4f1cb044e4b0e2eeeca90c6b","name":"おくだ歯科医院","contact":{},"location":{"lat":34.85454404357602,"lng":135.7803562070196,"country":"Japan"},"categories":[],"verified":false,"stats":{"checkinsCount":1,"usersCount":1,"tipCount":0},"likes":{"count":0,"groups":[]},"specials":{"count":0,"items":[]},"hereNow":{"count":0,"groups":[]}},{"id":"4dc1127e22713750ba741b9d","name":"ESSO Express ペガサス城陽SS","contact":{"phone":"+81774528966","formattedPhone":"+81 774-52-8966"},"location":{"address":"寺田高田42","lat":34.854243,"lng":135.779476,"city":"城陽市","state":"京都府","country":"Japan"},"categories":[{"id":"4bf58dd8d48988d113951735","name":"Gas Station \/ Garage","pluralName":"Gas Stations \/ Garages","shortName":"Gas Station \/ Garage","icon":{"prefix":"https:\/\/foursquare.com\/img\/categories_v2\/shops\/gas_","suffix":".png"},"primary":true}],"verified":false,"stats":{"checkinsCount":28,"usersCount":4,"tipCount":0},"likes":{"count":0,"groups":[]},"specials":{"count":0,"items":[]},"hereNow":{"count":0,"groups":[]}},{"id":"4b9f801af964a520eb2637e3","name":"ほそかわ城陽店","contact":{},"location":{"lat":34.854485392570496,"lng":135.78027069568634,"country":"Japan"},"categories":[{"id":"4bf58dd8d48988d1d1941735","name":"Ramen \/  Noodle House","pluralName":"Ramen \/  Noodle House","shortName":"Ramen \/ Noodles","icon":{"prefix":"https:\/\/foursquare.com\/img\/categories_v2\/food\/ramen_","suffix":".png"},"primary":true}],"verified":false,"stats":{"checkinsCount":10,"usersCount":7,"tipCount":0},"likes":{"count":0,"groups":[]},"specials":{"count":0,"items":[]},"hereNow":{"count":0,"groups":[]}},{"id":"4c6658049cb82d7fc26e90d2","name":"中国料理 西海 城陽店","contact":{},"location":{"address":"日本","lat":34.85457693,"lng":135.77900965,"country":"Japan"},"categories":[{"id":"4bf58dd8d48988d145941735","name":"Chinese Restaurant","pluralName":"Chinese Restaurants","shortName":"Chinese","icon":{"prefix":"https:\/\/foursquare.com\/img\/categories_v2\/food\/chinese_","suffix":".png"},"primary":true}],"verified":false,"stats":{"checkinsCount":35,"usersCount":15,"tipCount":0},"likes":{"count":0,"groups":[]},"specials":{"count":0,"items":[]},"hereNow":{"count":0,"groups":[]}},{"id":"4e6dd7f914955284ba6cbecf","name":"城陽市福祉センター","contact":{},"location":{"lat":34.85239861111111,"lng":135.77865611111113,"country":"Japan"},"categories":[],"verified":false,"stats":{"checkinsCount":3,"usersCount":1,"tipCount":0},"likes":{"count":0,"groups":[]},"specials":{"count":0,"items":[]},"hereNow":{"count":0,"groups":[]}},{"id":"4dfd37e7227185f38b97c0c1","name":"城陽模型","contact":{"phone":"+81774522415","formattedPhone":"+81 774-52-2415"},"location":{"address":"寺田高田40-9","lat":34.85427283303077,"lng":135.78015804290771,"postalCode":"610-0121","city":"城陽市","state":"京都府","country":"Japan"},"categories":[{"id":"4bf58dd8d48988d1fb941735","name":"Hobby Shop","pluralName":"Hobby Shops","shortName":"Hobbies","icon":{"prefix":"https:\/\/foursquare.com\/img\/categories_v2\/shops\/hobbyshop_","suffix":".png"},"primary":true}],"verified":false,"stats":{"checkinsCount":63,"usersCount":4,"tipCount":0},"url":"http:\/\/www.joyomokei.com","likes":{"count":0,"groups":[]},"specials":{"count":0,"items":[]},"hereNow":{"count":0,"groups":[]}},{"id":"4d19c362302da1cd7f70cc93","name":"創作和食DIVE","contact":{},"location":{"lat":34.854047983870096,"lng":135.77990082951592,"country":"Japan"},"categories":[],"verified":false,"stats":{"checkinsCount":2,"usersCount":2,"tipCount":0},"likes":{"count":0,"groups":[]},"specials":{"count":0,"items":[]},"hereNow":{"count":0,"groups":[]}},{"id":"4e731a01fa76812398b0fb45","name":"コインランドリー ラクーン","contact":{},"location":{"lat":34.85382,"lng":135.777054,"city":"城陽市","state":"京都府","country":"Japan"},"categories":[{"id":"4bf58dd8d48988d1fc941735","name":"Laundry Service","pluralName":"Laundry Services","shortName":"Laundry","icon":{"prefix":"https:\/\/foursquare.com\/img\/categories_v2\/shops\/laundry_","suffix":".png"},"primary":true}],"verified":false,"stats":{"checkinsCount":5,"usersCount":1,"tipCount":0},"likes":{"count":0,"groups":[]},"specials":{"count":0,"items":[]},"hereNow":{"count":0,"groups":[]}},{"id":"4d8d6eab3bfef04d87988186","name":"ilfico","contact":{},"location":{"lat":34.852739,"lng":135.776513,"country":"Japan"},"categories":[{"id":"4bf58dd8d48988d110941735","name":"Italian Restaurant","pluralName":"Italian Restaurants","shortName":"Italian","icon":{"prefix":"https:\/\/foursquare.com\/img\/categories_v2\/food\/italian_","suffix":".png"},"primary":true}],"verified":false,"stats":{"checkinsCount":1,"usersCount":1,"tipCount":0},"likes":{"count":0,"groups":[]},"specials":{"count":0,"items":[]},"hereNow":{"count":0,"groups":[]}},{"id":"4c3ee662ca012d7f121030be","name":"活魚・活ふぐ創作料理 梅川","contact":{},"location":{"lat":34.8523402947429,"lng":135.7796135544777,"country":"Japan"},"categories":[{"id":"4bf58dd8d48988d111941735","name":"Japanese Restaurant","pluralName":"Japanese Restaurants","shortName":"Japanese","icon":{"prefix":"https:\/\/foursquare.com\/img\/categories_v2\/food\/japanese_","suffix":".png"},"primary":true}],"verified":false,"stats":{"checkinsCount":1,"usersCount":1,"tipCount":0},"likes":{"count":0,"groups":[]},"specials":{"count":0,"items":[]},"hereNow":{"count":0,"groups":[]}},{"id":"4e707354d22d2dfc31a6a3ce","name":"梅川商店","contact":{},"location":{"lat":34.85540352552096,"lng":135.77807662325753,"city":"城陽市","state":"京都府","country":"Japan"},"categories":[{"id":"4bf58dd8d48988d186941735","name":"Liquor Store","pluralName":"Liquor Stores","shortName":"Liquor Store","icon":{"prefix":"https:\/\/foursquare.com\/img\/categories_v2\/shops\/food_liquor_","suffix":".png"},"primary":true}],"verified":false,"stats":{"checkinsCount":5,"usersCount":1,"tipCount":0},"likes":{"count":0,"groups":[]},"specials":{"count":0,"items":[]},"hereNow":{"count":0,"groups":[]}},{"id":"4dc112171f6e7441cf4507e3","name":"ペガサス","contact":{},"location":{"lat":34.854243,"lng":135.779476,"country":"Japan"},"categories":[],"verified":false,"stats":{"checkinsCount":0,"usersCount":0,"tipCount":0},"likes":{"count":0,"groups":[]},"specials":{"count":0,"items":[]},"hereNow":{"count":0,"groups":[]}},{"id":"4b7a2f41f964a520ba252fe3","name":"城陽市役所","contact":{},"location":{"address":"寺田東ノ口16","lat":34.85293899027283,"lng":135.78007221221924,"postalCode":"610-0121","city":"城陽市","state":"京都府","country":"Japan"},"categories":[{"id":"4bf58dd8d48988d129941735","name":"City Hall","pluralName":"City Halls","shortName":"City Hall","icon":{"prefix":"https:\/\/foursquare.com\/img\/categories_v2\/building\/cityhall_","suffix":".png"},"primary":true}],"verified":false,"stats":{"checkinsCount":116,"usersCount":12,"tipCount":0},"likes":{"count":0,"groups":[]},"specials":{"count":0,"items":[]},"hereNow":{"count":0,"groups":[]}},{"id":"4bb6b2071344b7134af79d04","name":"小上海 シェル","contact":{},"location":{"lat":34.8539029,"lng":135.7800336,"country":"Japan"},"categories":[],"verified":false,"stats":{"checkinsCount":2,"usersCount":2,"tipCount":0},"likes":{"count":0,"groups":[]},"specials":{"count":0,"items":[]},"hereNow":{"count":0,"groups":[]}},{"id":"4f3c4944e4b0fa28dff8a973","name":"うめかわ内科クリニック","contact":{},"location":{"lat":34.85534419817085,"lng":135.7782155197574,"country":"Japan"},"categories":[{"id":"4bf58dd8d48988d177941735","name":"Doctor's Office","pluralName":"Doctor's Offices","shortName":"Doctor's Office","icon":{"prefix":"https:\/\/foursquare.com\/img\/categories_v2\/building\/medical_","suffix":".png"},"primary":true}],"verified":false,"stats":{"checkinsCount":1,"usersCount":1,"tipCount":0},"likes":{"count":0,"groups":[]},"specials":{"count":0,"items":[]},"hereNow":{"count":0,"groups":[]}},{"id":"4e12c4a01f6e671dd9f37b3a","name":"城陽市立寺田小学校","contact":{},"location":{"address":"寺田北山田2","lat":34.85631097343035,"lng":135.7801902294159,"postalCode":"6100121","city":"城陽市","state":"京都府","country":"Japan"},"categories":[{"id":"4bf58dd8d48988d13b941735","name":"School","pluralName":"Schools","shortName":"School","icon":{"prefix":"https:\/\/foursquare.com\/img\/categories_v2\/building\/school_","suffix":".png"},"primary":true}],"verified":false,"stats":{"checkinsCount":29,"usersCount":4,"tipCount":0},"likes":{"count":0,"groups":[]},"specials":{"count":0,"items":[]},"hereNow":{"count":0,"groups":[]}}]}}
