{"meta":{"code":200},"response":{"venues":[{"id":"4e2fb616e4cdb5a70d6b5074","name":"ＮＴＴ西日本 城陽別館","contact":{},"location":{"lat":34.846782,"lng":135.785291,"city":"城陽市","state":"京都府","country":"Japan"},"categories":[{"id":"4bf58dd8d48988d125941735","name":"Tech Startup","pluralName":"Tech Startups","shortName":"Tech Startup","icon":{"prefix":"https:\/\/foursquare.com\/img\/categories_v2\/shops\/technology_","suffix":".png"},"primary":true}],"verified":false,"stats":{"checkinsCount":53,"usersCount":4,"tipCount":0},"likes":{"count":0,"groups":[]},"hereNow":{"count":0,"groups":[]}},{"id":"4f3e3be0e4b02787b3e2b1b6","name":"Daishin Restaurant","contact":{"phone":"+81774566062","formattedPhone":"+81 774-56-6062"},"location":{"lat":34.85964457947363,"lng":135.776539528999,"city":"Joyo","state":"Kyoto","country":"Japan"},"categories":[{"id":"4bf58dd8d48988d111941735","name":"Japanese Restaurant","pluralName":"Japanese Restaurants","shortName":"Japanese","icon":{"prefix":"https:\/\/foursquare.com\/img\/categories_v2\/food\/japanese_","suffix":".png"},"primary":true}],"verified":false,"stats":{"checkinsCount":3,"usersCount":1,"tipCount":1},"likes":{"count":0,"groups":[]},"specials":{"count":0,"items":[]},"hereNow":{"count":0,"groups":[]}},{"id":"4d3e83b03ec9a35da5fd5a81","name":"キリン堂 城陽店","contact":{"phone":"+81774575533","formattedPhone":"+81 774-57-5533"},"location":{"address":"寺田新池82-1","lat":34.848517130931064,"lng":135.78415140813598,"postalCode":"610-0121","city":"城陽市","state":"京都府","country":"Japan"},"categories":[{"id":"4bf58dd8d48988d10f951735","name":"Drugstore \/ Pharmacy","pluralName":"Drugstores \/ Pharmacies","shortName":"Pharmacy","icon":{"prefix":"https:\/\/foursquare.com\/img\/categories_v2\/shops\/pharmacy_","suffix":".png"},"primary":true}],"verified":false,"stats":{"checkinsCount":99,"usersCount":12,"tipCount":0},"likes":{"count":0,"groups":[]},"specials":{"count":0,"items":[]},"hereNow":{"count":0,"groups":[]}},{"id":"4dd716228877f1150fe1bc5c","name":"ミニストップ 城陽寺田店","contact":{"phone":"+81774551828","formattedPhone":"+81 774-55-1828"},"location":{"address":"寺田新池76-1-2","lat":34.84943479868366,"lng":135.78394532203674,"city":"城陽市","state":"京都府","country":"Japan"},"categories":[{"id":"4d954b0ea243a5684a65b473","name":"Convenience Store","pluralName":"Convenience Stores","shortName":"Convenience Stores","icon":{"prefix":"https:\/\/foursquare.com\/img\/categories_v2\/shops\/conveniencestore_","suffix":".png"},"primary":true}],"verified":false,"stats":{"checkinsCount":152,"usersCount":16,"tipCount":2},"likes":{"count":0,"groups":[]},"specials":{"count":0,"items":[]},"hereNow":{"count":0,"groups":[]}},{"id":"4e1d62edc65b6cd0da9a0518","name":"城陽金物","contact":{},"location":{"address":"寺田新池134-2","lat":34.84979138781402,"lng":135.78322112560272,"city":"城陽市","state":"京都府","country":"Japan"},"categories":[{"id":"4bf58dd8d48988d112951735","name":"Hardware Store","pluralName":"Hardware Stores","shortName":"Hardware","icon":{"prefix":"https:\/\/foursquare.com\/img\/categories_v2\/shops\/hardware_","suffix":".png"},"primary":true}],"verified":false,"stats":{"checkinsCount":50,"usersCount":5,"tipCount":0},"likes":{"count":0,"groups":[]},"specials":{"count":0,"items":[]},"hereNow":{"count":0,"groups":[]}},{"id":"4e06f16ce4cdefcff6d94212","name":"ヤマト運輸 城陽久世センター","contact":{},"location":{"address":"寺田新池86-3","lat":34.84837602802446,"lng":135.78406615552012,"postalCode":"610-0121","city":"城陽市","state":"京都府","country":"Japan"},"categories":[{"id":"4bf58dd8d48988d124941735","name":"Office","pluralName":"Offices","shortName":"Corporate \/ Office","icon":{"prefix":"https:\/\/foursquare.com\/img\/categories_v2\/building\/default_","suffix":".png"},"primary":true}],"verified":false,"stats":{"checkinsCount":58,"usersCount":3,"tipCount":0},"likes":{"count":0,"groups":[]},"hereNow":{"count":0,"groups":[]}},{"id":"4de96836d4c00071b807f8c3","name":"コスモパーク城陽","contact":{},"location":{"lat":34.849474,"lng":135.788289,"country":"Japan"},"categories":[{"id":"4bf58dd8d48988d124951735","name":"Automotive Shop","pluralName":"Automotive Shops","shortName":"Automotive","icon":{"prefix":"https:\/\/foursquare.com\/img\/categories_v2\/shops\/automotive_","suffix":".png"},"primary":true}],"verified":false,"stats":{"checkinsCount":19,"usersCount":1,"tipCount":0},"likes":{"count":0,"groups":[]},"specials":{"count":0,"items":[]},"hereNow":{"count":0,"groups":[]}},{"id":"4c43c1e8dd1f2d7f57067ff9","name":"Honda Cars 京都 城陽店","contact":{},"location":{"lat":34.849401,"lng":135.788268,"country":"Japan"},"categories":[],"verified":false,"stats":{"checkinsCount":10,"usersCount":2,"tipCount":0},"likes":{"count":0,"groups":[]},"specials":{"count":0,"items":[]},"hereNow":{"count":0,"groups":[]}}]}}
