{"meta":{"code":200},"response":{"venues":[{"id":"4b584117f964a520be4f28e3","name":"京阪 中書島駅 (Chushojima Sta.)","contact":{},"location":{"address":"伏見区葭島矢倉町59","lat":34.926861978190324,"lng":135.75998783111572,"postalCode":"612-8224","city":"京都市","state":"京都府","country":"Japan"},"categories":[{"id":"4bf58dd8d48988d129951735","name":"Train Station","pluralName":"Train Stations","shortName":"Train Station","icon":{"prefix":"https:\/\/foursquare.com\/img\/categories_v2\/travel\/trainstation_","suffix":".png"},"primary":true}],"verified":false,"stats":{"checkinsCount":6524,"usersCount":1035,"tipCount":9},"likes":{"count":0,"groups":[]},"specials":{"count":0,"items":[]},"hereNow":{"count":2,"groups":[{"type":"others","name":"Other people here","count":2,"items":[]}]}},{"id":"4e1d80581f6e47e5e797ae02","name":"伏見港公園プール","contact":{"phone":"+81756117081","formattedPhone":"+81 75-611-7081"},"location":{"address":"葭島金井戸町","lat":34.92537383406281,"lng":135.75880171361138,"city":"京都市伏見区","state":"京都府","country":"Japan"},"categories":[{"id":"4bf58dd8d48988d105941735","name":"Gym Pool","pluralName":"Gym Pools","shortName":"Pool","icon":{"prefix":"https:\/\/foursquare.com\/img\/categories_v2\/shops\/gym_pool_","suffix":".png"},"primary":true}],"verified":false,"stats":{"checkinsCount":61,"usersCount":17,"tipCount":0},"likes":{"count":0,"groups":[]},"specials":{"count":0,"items":[]},"hereNow":{"count":0,"groups":[]}},{"id":"4e3aa30ae4cdcd10684309f9","name":"ポポロ広場","contact":{},"location":{"lat":34.926942,"lng":135.759129,"country":"Japan"},"categories":[],"verified":false,"stats":{"checkinsCount":0,"usersCount":0,"tipCount":0},"likes":{"count":0,"groups":[]},"specials":{"count":0,"items":[]},"hereNow":{"count":0,"groups":[]}},{"id":"4ba5e4bdf964a520f32739e3","name":"HAIRCUT SOHO","contact":{},"location":{"lat":34.926888,"lng":135.759048,"city":"京都市","state":"京都府","country":"Japan"},"categories":[{"id":"4bf58dd8d48988d10c951735","name":"Cosmetics Shop","pluralName":"Cosmetics Shops","shortName":"Beauty \/ Cosmetic","icon":{"prefix":"https:\/\/foursquare.com\/img\/categories_v2\/shops\/beauty_cosmetic_","suffix":".png"},"primary":true}],"verified":false,"stats":{"checkinsCount":19,"usersCount":2,"tipCount":0},"likes":{"count":0,"groups":[]},"specials":{"count":0,"items":[]},"hereNow":{"count":0,"groups":[]}},{"id":"4f1c5b156d86a4e1b7ee2214","name":"京阪中書島・伏見港公園 バス停","contact":{},"location":{"address":"伏見区三栖向町","crossStreet":"市バス20・22・81・特81・南3・南8系統","lat":34.925975186710346,"lng":135.75886130332947,"city":"京都市","state":"京都府","country":"Japan"},"categories":[{"id":"4bf58dd8d48988d1fe931735","name":"Bus Station","pluralName":"Bus Stations","shortName":"Bus Station","icon":{"prefix":"https:\/\/foursquare.com\/img\/categories_v2\/travel\/busstation_","suffix":".png"},"primary":true}],"verified":false,"stats":{"checkinsCount":0,"usersCount":0,"tipCount":0},"likes":{"count":0,"groups":[]},"specials":{"count":0,"items":[]},"hereNow":{"count":0,"groups":[]}},{"id":"4d3654cc600a721ebb55b055","name":"ファミリーマート 中書島駅前店","contact":{},"location":{"address":"南新地57-12","lat":34.92725781506267,"lng":135.75968340039253,"city":"京都市伏見区","state":"京都府","country":"Japan"},"categories":[{"id":"4d954b0ea243a5684a65b473","name":"Convenience Store","pluralName":"Convenience Stores","shortName":"Convenience Stores","icon":{"prefix":"https:\/\/foursquare.com\/img\/categories_v2\/shops\/conveniencestore_","suffix":".png"},"primary":true}],"verified":false,"stats":{"checkinsCount":155,"usersCount":21,"tipCount":0},"likes":{"count":0,"groups":[]},"specials":{"count":0,"items":[]},"hereNow":{"count":0,"groups":[]}},{"id":"4b58349ef964a520fc4d28e3","name":"ローソン 伏見中書島店","contact":{"phone":"+81756115881","formattedPhone":"+81 75-611-5881","twitter":"akiko_lawson"},"location":{"address":"東浜南町664-2","crossStreet":"ファミール中本","lat":34.92766794402995,"lng":135.7586306333542,"city":"京都市伏見区","state":"京都府","country":"Japan"},"categories":[{"id":"4d954b0ea243a5684a65b473","name":"Convenience Store","pluralName":"Convenience Stores","shortName":"Convenience Stores","icon":{"prefix":"https:\/\/foursquare.com\/img\/categories_v2\/shops\/conveniencestore_","suffix":".png"},"primary":true}],"verified":true,"stats":{"checkinsCount":69,"usersCount":12,"tipCount":0},"likes":{"count":0,"groups":[]},"specials":{"count":0,"items":[]},"hereNow":{"count":0,"groups":[]}},{"id":"4ddf8efe7d8b04e5025ef85d","name":"沼田カイロプラクティック","contact":{},"location":{"address":"日本","lat":34.926674365997314,"lng":135.76050281524658,"city":"京都市","state":"京都府","country":"Japan"},"categories":[{"id":"4bf58dd8d48988d1ed941735","name":"Spa or Massage","pluralName":"Spas or Massages","shortName":"Spas \/ Massage","icon":{"prefix":"https:\/\/foursquare.com\/img\/categories_v2\/shops\/spa_","suffix":".png"},"primary":true}],"verified":false,"stats":{"checkinsCount":16,"usersCount":5,"tipCount":0},"likes":{"count":0,"groups":[]},"specials":{"count":0,"items":[]},"hereNow":{"count":0,"groups":[]}},{"id":"4fb23643e4b0203ec50f9f51","name":"京都銀行 エキバンク 京阪中書島駅","contact":{},"location":{"address":"伏見区葭島矢倉町59番地","crossStreet":"中書島駅1番のりば","lat":34.92701151678877,"lng":135.76055645942688,"postalCode":"612-8224","city":"京都市","state":"京都府","country":"Japan"},"categories":[{"id":"4bf58dd8d48988d10a951735","name":"Bank","pluralName":"Banks","shortName":"Bank \/ Financial","icon":{"prefix":"https:\/\/foursquare.com\/img\/categories_v2\/shops\/financial_","suffix":".png"},"primary":true}],"verified":false,"stats":{"checkinsCount":1,"usersCount":1,"tipCount":0},"likes":{"count":0,"groups":[]},"specials":{"count":0,"items":[]},"hereNow":{"count":0,"groups":[]}},{"id":"4c4a6102959220a1f2ce060e","name":"麺座 中書島","contact":{"phone":"+81756222850","formattedPhone":"+81 75-622-2850"},"location":{"address":"伏見区葭島矢倉町59","crossStreet":"中書島駅2・3番のりば","lat":34.926826792598156,"lng":135.76073348522186,"postalCode":"612-8224","city":"京都市","state":"京都府","country":"Japan"},"categories":[{"id":"4bf58dd8d48988d1d1941735","name":"Ramen \/  Noodle House","pluralName":"Ramen \/  Noodle House","shortName":"Ramen \/ Noodles","icon":{"prefix":"https:\/\/foursquare.com\/img\/categories_v2\/food\/ramen_","suffix":".png"},"primary":true}],"verified":false,"stats":{"checkinsCount":37,"usersCount":21,"tipCount":0},"likes":{"count":0,"groups":[]},"specials":{"count":0,"items":[]},"hereNow":{"count":0,"groups":[]}},{"id":"4cf0afbf8333224bc1ef058e","name":"中書島 バス停","contact":{},"location":{"address":"伏見区東浜南町655-17","lat":34.92771438,"lng":135.758855,"postalCode":"612-8213","city":"京都市","state":"京都府","country":"Japan"},"categories":[{"id":"4bf58dd8d48988d1fe931735","name":"Bus Station","pluralName":"Bus Stations","shortName":"Bus Station","icon":{"prefix":"https:\/\/foursquare.com\/img\/categories_v2\/travel\/busstation_","suffix":".png"},"primary":true}],"verified":false,"stats":{"checkinsCount":18,"usersCount":13,"tipCount":0},"likes":{"count":0,"groups":[]},"specials":{"count":0,"items":[]},"hereNow":{"count":0,"groups":[]}},{"id":"4e1128c1c65b4a49f30b46b7","name":"喫茶 ニュー雲仙","contact":{},"location":{"address":"京都市伏見区南新地4-1","lat":34.927591,"lng":135.759612,"city":"京都市","state":"京都府","country":"Japan"},"categories":[{"id":"4bf58dd8d48988d16d941735","name":"Café","pluralName":"Cafés","shortName":"Café","icon":{"prefix":"https:\/\/foursquare.com\/img\/categories_v2\/food\/cafe_","suffix":".png"},"primary":true}],"verified":false,"stats":{"checkinsCount":1,"usersCount":1,"tipCount":0},"likes":{"count":0,"groups":[]},"specials":{"count":0,"items":[]},"hereNow":{"count":0,"groups":[]}},{"id":"4db6a9321e7248d135cca6df","name":"なんちゃらや","contact":{"phone":"+81756011001","formattedPhone":"+81 75-601-1001"},"location":{"address":"南新地4-1","lat":34.927509,"lng":135.759751,"city":"京都市伏見区","country":"Japan"},"categories":[{"id":"4bf58dd8d48988d11a941735","name":"Other Nightlife","pluralName":"Other Nightlife","shortName":"Other - Nightlife","icon":{"prefix":"https:\/\/foursquare.com\/img\/categories_v2\/nightlife\/default_","suffix":".png"},"primary":true}],"verified":false,"stats":{"checkinsCount":1,"usersCount":1,"tipCount":0},"likes":{"count":0,"groups":[]},"specials":{"count":0,"items":[]},"hereNow":{"count":0,"groups":[]}},{"id":"4dd50558d22d8e00fcd63ec4","name":"太平一","contact":{},"location":{"lat":34.927620953311745,"lng":135.75893592594622,"city":"京都市伏見区南新地","state":"Kyoto Prefecture","country":"Japan"},"categories":[{"id":"4bf58dd8d48988d11c941735","name":"Sake Bar","pluralName":"Sake Bars","shortName":"Sake Bar","icon":{"prefix":"https:\/\/foursquare.com\/img\/categories_v2\/nightlife\/sake_","suffix":".png"},"primary":true}],"verified":false,"stats":{"checkinsCount":2,"usersCount":2,"tipCount":0},"likes":{"count":0,"groups":[]},"specials":{"count":0,"items":[]},"hereNow":{"count":0,"groups":[]}},{"id":"4ecc8470e5fa85e5ec65fe53","name":"コーヒー＆カレーライス メルヘン","contact":{},"location":{"address":"伏見区南新地","lat":34.9278,"lng":135.759765,"city":"京都市","state":"京都府","country":"Japan"},"categories":[{"id":"4bf58dd8d48988d16d941735","name":"Café","pluralName":"Cafés","shortName":"Café","icon":{"prefix":"https:\/\/foursquare.com\/img\/categories_v2\/food\/cafe_","suffix":".png"},"primary":true}],"verified":false,"stats":{"checkinsCount":1,"usersCount":1,"tipCount":0},"likes":{"count":0,"groups":[]},"specials":{"count":0,"items":[]},"hereNow":{"count":0,"groups":[]}},{"id":"4f77ad17e4b0d69369671f49","name":"伏見十石舟乗船場","contact":{},"location":{"lat":34.92749786376953,"lng":135.75848388671875,"country":"Japan"},"categories":[{"id":"4f4530164b9074f6e4fb00ff","name":"Tourist Information Center","pluralName":"Tourist Information Centers","shortName":"Tourist Information ","icon":{"prefix":"https:\/\/foursquare.com\/img\/categories_v2\/travel\/default_","suffix":".png"},"primary":true}],"verified":false,"stats":{"checkinsCount":1,"usersCount":1,"tipCount":0},"likes":{"count":0,"groups":[]},"specials":{"count":0,"items":[]},"hereNow":{"count":0,"groups":[]}},{"id":"4f3c8416e4b0b4a7cd3cdbc0","name":"京の味 あさだ","contact":{},"location":{"address":"京都府伏見区","lat":34.92687643546305,"lng":135.76068072069998,"country":"Japan"},"categories":[{"id":"4bf58dd8d48988d111941735","name":"Japanese Restaurant","pluralName":"Japanese Restaurants","shortName":"Japanese","icon":{"prefix":"https:\/\/foursquare.com\/img\/categories_v2\/food\/japanese_","suffix":".png"},"primary":true}],"verified":false,"stats":{"checkinsCount":1,"usersCount":1,"tipCount":0},"likes":{"count":0,"groups":[]},"specials":{"count":0,"items":[]},"hereNow":{"count":0,"groups":[]}},{"id":"4ecc735e8b81fbfbaa55e4dd","name":"中書島繁栄会","contact":{},"location":{"address":"伏見区南新地","lat":34.92786163643927,"lng":135.7598985634272,"city":"京都市","state":"京都府","country":"Japan"},"categories":[{"id":"4bf58dd8d48988d1fd941735","name":"Mall","pluralName":"Malls","shortName":"Mall","icon":{"prefix":"https:\/\/foursquare.com\/img\/categories_v2\/shops\/mall_","suffix":".png"},"primary":true}],"verified":false,"stats":{"checkinsCount":6,"usersCount":3,"tipCount":0},"likes":{"count":0,"groups":[]},"specials":{"count":0,"items":[]},"hereNow":{"count":0,"groups":[]}},{"id":"4f6842abe4b0bb1b182fd8a1","name":"新地湯","contact":{},"location":{"address":"京都市伏見区南新地","lat":34.927613,"lng":135.759884,"country":"Japan"},"categories":[{"id":"4bf58dd8d48988d1ed941735","name":"Spa or Massage","pluralName":"Spas or Massages","shortName":"Spas \/ Massage","icon":{"prefix":"https:\/\/foursquare.com\/img\/categories_v2\/shops\/spa_","suffix":".png"},"primary":true}],"verified":false,"stats":{"checkinsCount":3,"usersCount":3,"tipCount":0},"likes":{"count":0,"groups":[]},"specials":{"count":0,"items":[]},"hereNow":{"count":0,"groups":[]}},{"id":"4dbe4457a86e0e98a20df751","name":"メルヘン","contact":{},"location":{"lat":34.927741,"lng":135.760105,"city":"Kyoto","state":"Kyoto Prefecture","country":"Japan"},"categories":[{"id":"4bf58dd8d48988d1e0931735","name":"Coffee Shop","pluralName":"Coffee Shops","shortName":"Coffee Shop","icon":{"prefix":"https:\/\/foursquare.com\/img\/categories_v2\/food\/coffeeshop_","suffix":".png"},"primary":true}],"verified":false,"stats":{"checkinsCount":5,"usersCount":4,"tipCount":0},"likes":{"count":0,"groups":[]},"specials":{"count":0,"items":[]},"hereNow":{"count":0,"groups":[]}},{"id":"4dbfa1750cb6f21c1276d7b5","name":"荒玉商店","contact":{"phone":"+81756112023","formattedPhone":"+81 75-611-2023"},"location":{"address":"伏見区南新地4-1","lat":34.927865,"lng":135.75991,"city":"京都市","state":"京都府","country":"Japan"},"categories":[{"id":"4bf58dd8d48988d11c941735","name":"Sake Bar","pluralName":"Sake Bars","shortName":"Sake Bar","icon":{"prefix":"https:\/\/foursquare.com\/img\/categories_v2\/nightlife\/sake_","suffix":".png"},"primary":true}],"verified":false,"stats":{"checkinsCount":4,"usersCount":2,"tipCount":0},"likes":{"count":0,"groups":[]},"specials":{"count":0,"items":[]},"hereNow":{"count":0,"groups":[]}},{"id":"4f3bc19ce4b0f7c8c722dee6","name":"京阪 中書島駅前 喫煙コーナー","contact":{},"location":{"address":"伏見区葭島矢倉町57-3","lat":34.9268969412393,"lng":135.759903191539,"city":"京都市","state":"京都府","country":"Japan"},"categories":[{"id":"4bf58dd8d48988d129951735","name":"Train Station","pluralName":"Train Stations","shortName":"Train Station","icon":{"prefix":"https:\/\/foursquare.com\/img\/categories_v2\/travel\/trainstation_","suffix":".png"},"primary":true}],"verified":false,"stats":{"checkinsCount":104,"usersCount":9,"tipCount":0},"likes":{"count":0,"groups":[]},"specials":{"count":0,"items":[]},"hereNow":{"count":0,"groups":[]}},{"id":"4bb5b51d941ad13a1b771ee3","name":"アンスリー 中書島店","contact":{"phone":"+81756046401","formattedPhone":"+81 75-604-6401"},"location":{"address":"葭島矢倉町59","lat":34.9268565772922,"lng":135.7602179041949,"city":"京都市伏見区","state":"京都府","country":"Japan"},"categories":[{"id":"4bf58dd8d48988d118951735","name":"Grocery Store","pluralName":"Grocery Stores","shortName":"Grocery Store","icon":{"prefix":"https:\/\/foursquare.com\/img\/categories_v2\/shops\/food_grocery_","suffix":".png"},"primary":true}],"verified":false,"stats":{"checkinsCount":269,"usersCount":42,"tipCount":0},"likes":{"count":0,"groups":[]},"specials":{"count":0,"items":[]},"hereNow":{"count":0,"groups":[]}},{"id":"4ef96b0fb8f72ebeaa067b7a","name":"たこ焼き ぼんちゃん","contact":{},"location":{"address":"京都市伏見区南新地","lat":34.927015,"lng":135.759712,"country":"Japan"},"categories":[{"id":"4bf58dd8d48988d114941735","name":"Food Court","pluralName":"Food Courts","shortName":"Food Court","icon":{"prefix":"https:\/\/foursquare.com\/img\/categories_v2\/food\/foodcourt_","suffix":".png"},"primary":true}],"verified":false,"stats":{"checkinsCount":1,"usersCount":1,"tipCount":0},"likes":{"count":0,"groups":[]},"specials":{"count":0,"items":[]},"hereNow":{"count":0,"groups":[]}},{"id":"4eb277599911d335b0798be5","name":"魚民 中書島店","contact":{},"location":{"lat":34.92674972644801,"lng":135.7602364167688,"country":"Japan"},"categories":[{"id":"4bf58dd8d48988d11c941735","name":"Sake Bar","pluralName":"Sake Bars","shortName":"Sake Bar","icon":{"prefix":"https:\/\/foursquare.com\/img\/categories_v2\/nightlife\/sake_","suffix":".png"},"primary":true}],"verified":false,"stats":{"checkinsCount":14,"usersCount":6,"tipCount":0},"likes":{"count":0,"groups":[]},"specials":{"count":0,"items":[]},"hereNow":{"count":0,"groups":[]}},{"id":"4b88eedbf964a5201f1432e3","name":"時代屋スタンド","contact":{"phone":"+81756222401","formattedPhone":"+81 75-622-2401"},"location":{"address":"南新地57-9","lat":34.926839,"lng":135.760344,"postalCode":"612-8228","city":"京都市伏見区","state":"京都府","country":"Japan"},"categories":[{"id":"4bf58dd8d48988d11c941735","name":"Sake Bar","pluralName":"Sake Bars","shortName":"Sake Bar","icon":{"prefix":"https:\/\/foursquare.com\/img\/categories_v2\/nightlife\/sake_","suffix":".png"},"primary":true}],"verified":false,"stats":{"checkinsCount":38,"usersCount":12,"tipCount":1},"likes":{"count":0,"groups":[]},"specials":{"count":0,"items":[]},"hereNow":{"count":0,"groups":[]}},{"id":"4e562ba9d164a0684c5ac004","name":"MICHI","contact":{},"location":{"lat":34.926832,"lng":135.759734,"country":"Japan"},"categories":[{"id":"4d4b7105d754a06374d81259","name":"Food","pluralName":"Food","shortName":"Food","icon":{"prefix":"https:\/\/foursquare.com\/img\/categories_v2\/food\/default_","suffix":".png"},"primary":true}],"verified":false,"stats":{"checkinsCount":1,"usersCount":1,"tipCount":0},"likes":{"count":0,"groups":[]},"specials":{"count":0,"items":[]},"hereNow":{"count":0,"groups":[]}}]}}
