{"meta":{"code":200},"response":{"venues":[{"id":"4cddec8a41ed224b8eb9d53c","name":"ジョーシン 大久保バイパス店","contact":{"phone":"+81774441211","formattedPhone":"+81 774-44-1211"},"location":{"address":"大久保町旦椋93-11","crossStreet":"ファニチャーエキサイト1F","lat":34.87174285551256,"lng":135.76103925704956,"postalCode":"611-0033","city":"宇治市","state":"京都府","country":"Japan"},"categories":[{"id":"4bf58dd8d48988d1ff941735","name":"Miscellaneous Shop","pluralName":"Miscellaneous Shops","shortName":"Other - Shop","icon":{"prefix":"https:\/\/foursquare.com\/img\/categories_v2\/shops\/default_","suffix":".png"},"primary":true}],"verified":false,"stats":{"checkinsCount":98,"usersCount":41,"tipCount":0},"likes":{"count":0,"groups":[]},"specials":{"count":0,"items":[]},"hereNow":{"count":0,"groups":[]}},{"id":"4dbf284f5da386e218ab4adf","name":"なか卯 大久保バイパス店","contact":{},"location":{"address":"大久保町且椋96-1","lat":34.871079929522104,"lng":135.7615153491497,"city":"宇治市","state":"京都府","country":"Japan"},"categories":[{"id":"4bf58dd8d48988d16e941735","name":"Fast Food Restaurant","pluralName":"Fast Food Restaurants","shortName":"Fast Food","icon":{"prefix":"https:\/\/foursquare.com\/img\/categories_v2\/food\/fastfood_","suffix":".png"},"primary":true}],"verified":false,"stats":{"checkinsCount":24,"usersCount":13,"tipCount":0},"likes":{"count":0,"groups":[]},"specials":{"count":0,"items":[]},"hereNow":{"count":0,"groups":[]}},{"id":"4cddf3e6825e721e5b786745","name":"ファーニチャーエキサイト 大久保バイパス店","contact":{},"location":{"lat":34.8717384543618,"lng":135.76104998588562,"country":"Japan"},"categories":[{"id":"4bf58dd8d48988d1f8941735","name":"Furniture \/ Home Store","pluralName":"Furniture \/ Home Stores","shortName":"Furniture \/ Home","icon":{"prefix":"https:\/\/foursquare.com\/img\/categories_v2\/shops\/furniture_","suffix":".png"},"primary":true}],"verified":false,"stats":{"checkinsCount":16,"usersCount":10,"tipCount":0},"likes":{"count":0,"groups":[]},"specials":{"count":0,"items":[]},"hereNow":{"count":0,"groups":[]}},{"id":"4c0099f0379020a189d7467f","name":"讃岐製麺 宇治店","contact":{"phone":"+81774463281","formattedPhone":"+81 774-46-3281"},"location":{"address":"大久保町旦椋126-1","lat":34.873309650217635,"lng":135.76152205467224,"postalCode":"611-0033","city":"宇治市","state":"京都府","country":"Japan"},"categories":[{"id":"4bf58dd8d48988d1d1941735","name":"Ramen \/  Noodle House","pluralName":"Ramen \/  Noodle House","shortName":"Ramen \/ Noodles","icon":{"prefix":"https:\/\/foursquare.com\/img\/categories_v2\/food\/ramen_","suffix":".png"},"primary":true}],"verified":false,"stats":{"checkinsCount":26,"usersCount":18,"tipCount":0},"likes":{"count":0,"groups":[]},"specials":{"count":0,"items":[]},"hereNow":{"count":0,"groups":[]}},{"id":"4d0b60c46aa05481fc7de9aa","name":"ブックオフ 宇治大久保店","contact":{"phone":"+81774443850","formattedPhone":"+81 774-44-3850"},"location":{"address":"大久保町旦椋126-1","lat":34.87274631173905,"lng":135.761479139328,"city":"宇治市","state":"京都府","country":"Japan"},"categories":[{"id":"4bf58dd8d48988d114951735","name":"Bookstore","pluralName":"Bookstores","shortName":"Bookstore","icon":{"prefix":"https:\/\/foursquare.com\/img\/categories_v2\/shops\/bookstore_","suffix":".png"},"primary":true}],"verified":false,"stats":{"checkinsCount":44,"usersCount":22,"tipCount":0},"likes":{"count":0,"groups":[]},"specials":{"count":0,"items":[]},"hereNow":{"count":0,"groups":[]}}]}}
