{"meta":{"code":200},"response":{"venues":[{"id":"4dd716228877f1150fe1bc5c","name":"ミニストップ 城陽寺田店","contact":{"phone":"+81774551828","formattedPhone":"+81 774-55-1828"},"location":{"address":"寺田新池76-1-2","lat":34.84943479868366,"lng":135.78394532203674,"city":"城陽市","state":"京都府","country":"Japan"},"categories":[{"id":"4d954b0ea243a5684a65b473","name":"Convenience Store","pluralName":"Convenience Stores","shortName":"Convenience Stores","icon":{"prefix":"https:\/\/foursquare.com\/img\/categories_v2\/shops\/conveniencestore_","suffix":".png"},"primary":true}],"verified":false,"stats":{"checkinsCount":152,"usersCount":16,"tipCount":2},"likes":{"count":0,"groups":[]},"specials":{"count":0,"items":[]},"hereNow":{"count":0,"groups":[]}},{"id":"4e1d62edc65b6cd0da9a0518","name":"城陽金物","contact":{},"location":{"address":"寺田新池134-2","lat":34.84979138781402,"lng":135.78322112560272,"city":"城陽市","state":"京都府","country":"Japan"},"categories":[{"id":"4bf58dd8d48988d112951735","name":"Hardware Store","pluralName":"Hardware Stores","shortName":"Hardware","icon":{"prefix":"https:\/\/foursquare.com\/img\/categories_v2\/shops\/hardware_","suffix":".png"},"primary":true}],"verified":false,"stats":{"checkinsCount":50,"usersCount":5,"tipCount":0},"likes":{"count":0,"groups":[]},"specials":{"count":0,"items":[]},"hereNow":{"count":0,"groups":[]}},{"id":"4f82ebd9e4b04cf78b1fe65f","name":"サンクス　城陽郵便局前","contact":{},"location":{"lat":34.84857749701971,"lng":135.78221591252074,"country":"Japan"},"categories":[{"id":"4d954b0ea243a5684a65b473","name":"Convenience Store","pluralName":"Convenience Stores","shortName":"Convenience Stores","icon":{"prefix":"https:\/\/foursquare.com\/img\/categories_v2\/shops\/conveniencestore_","suffix":".png"},"primary":true}],"verified":false,"stats":{"checkinsCount":1,"usersCount":1,"tipCount":0},"likes":{"count":0,"groups":[]},"specials":{"count":0,"items":[]},"hereNow":{"count":0,"groups":[]}},{"id":"4eac9bb40aaf9e9a23ccbbef","name":"城陽市立寺田南小学校","contact":{},"location":{"address":"寺田新池23-1","lat":34.84882287052547,"lng":135.78205168247223,"postalCode":"6100121","city":"城陽市","state":"京都府","country":"Japan"},"categories":[{"id":"4bf58dd8d48988d13b941735","name":"School","pluralName":"Schools","shortName":"School","icon":{"prefix":"https:\/\/foursquare.com\/img\/categories_v2\/building\/school_","suffix":".png"},"primary":true}],"verified":false,"stats":{"checkinsCount":10,"usersCount":3,"tipCount":0},"likes":{"count":0,"groups":[]},"specials":{"count":0,"items":[]},"hereNow":{"count":0,"groups":[]}},{"id":"4fdf0267e4b05dcaec35832a","name":"ヴィレッジ･ヴァンガード　アルプラザ城陽店","contact":{},"location":{"lat":34.84126663208008,"lng":135.78750610351562,"country":"Japan"},"categories":[{"id":"4bf58dd8d48988d114951735","name":"Bookstore","pluralName":"Bookstores","shortName":"Bookstore","icon":{"prefix":"https:\/\/foursquare.com\/img\/categories_v2\/shops\/bookstore_","suffix":".png"},"primary":true}],"verified":false,"stats":{"checkinsCount":0,"usersCount":0,"tipCount":0},"likes":{"count":0,"groups":[]},"specials":{"count":0,"items":[]},"hereNow":{"count":0,"groups":[]}},{"id":"4bf756605efe2d7fddf26834","name":"京南通信工業株式会社","contact":{"phone":"+81774545252","formattedPhone":"+81 774-54-5252"},"location":{"address":"48-1","crossStreet":"長池北清水","lat":34.84128125280079,"lng":135.78758239746094,"postalCode":"610-0112","city":"京都府城陽市","state":"日本","country":"Japan"},"categories":[{"id":"4bf58dd8d48988d124941735","name":"Office","pluralName":"Offices","shortName":"Corporate \/ Office","icon":{"prefix":"https:\/\/foursquare.com\/img\/categories_v2\/building\/default_","suffix":".png"},"primary":true}],"verified":false,"stats":{"checkinsCount":2,"usersCount":1,"tipCount":0},"likes":{"count":0,"groups":[]},"hereNow":{"count":0,"groups":[]}},{"id":"4bf759cb5ec320a125fa86d3","name":"ドコモショップ城陽店","contact":{"phone":"+81120581317","formattedPhone":"+81 120-581-317","twitter":"dsjoyo223"},"location":{"address":"京都府城陽市","crossStreet":"長池北清水48-1","lat":34.84117558599726,"lng":135.78762531280518,"postalCode":"6100112","city":"kyoto","state":"japan","country":"Japan"},"categories":[{"id":"4bf58dd8d48988d1ff941735","name":"Miscellaneous Shop","pluralName":"Miscellaneous Shops","shortName":"Other - Shop","icon":{"prefix":"https:\/\/foursquare.com\/img\/categories_v2\/shops\/default_","suffix":".png"},"primary":true}],"verified":false,"stats":{"checkinsCount":5,"usersCount":1,"tipCount":0},"likes":{"count":0,"groups":[]},"specials":{"count":0,"items":[]},"hereNow":{"count":0,"groups":[]}},{"id":"4def4dc2fa76c1ceac8e65ea","name":"スナック オパール","contact":{},"location":{"lat":34.850444813351494,"lng":135.78285489521372,"country":"Japan"},"categories":[{"id":"4bf58dd8d48988d120941735","name":"Karaoke Bar","pluralName":"Karaoke Bars","shortName":"Karaoke","icon":{"prefix":"https:\/\/foursquare.com\/img\/categories_v2\/nightlife\/karaoke_","suffix":".png"},"primary":true}],"verified":false,"stats":{"checkinsCount":13,"usersCount":1,"tipCount":0},"likes":{"count":0,"groups":[]},"specials":{"count":0,"items":[]},"hereNow":{"count":0,"groups":[]}},{"id":"4c24341af1272d7f7dc782c5","name":"長池駅 (Nagaike Sta.)","contact":{},"location":{"address":"長池北裏72","crossStreet":"JR奈良線","lat":34.842306,"lng":135.7899,"city":"城陽市","state":"京都府","country":"Japan"},"categories":[{"id":"4bf58dd8d48988d129951735","name":"Train Station","pluralName":"Train Stations","shortName":"Train Station","icon":{"prefix":"https:\/\/foursquare.com\/img\/categories_v2\/travel\/trainstation_","suffix":".png"},"primary":true}],"verified":false,"stats":{"checkinsCount":61,"usersCount":39,"tipCount":0},"likes":{"count":0,"groups":[]},"specials":{"count":0,"items":[]},"hereNow":{"count":0,"groups":[]}},{"id":"4b7bf14df964a520ff742fe3","name":"長池","contact":{},"location":{"lat":34.841322,"lng":135.788019,"country":"Japan"},"categories":[{"id":"4bf58dd8d48988d1f9931735","name":"Road","pluralName":"Roads","shortName":"Road","icon":{"prefix":"https:\/\/foursquare.com\/img\/categories_v2\/travel\/highway_","suffix":".png"},"primary":true}],"verified":false,"stats":{"checkinsCount":16,"usersCount":6,"tipCount":0},"likes":{"count":0,"groups":[]},"specials":{"count":0,"items":[]},"hereNow":{"count":0,"groups":[]}},{"id":"4ea80b0229c25150a68010e8","name":"サガミ 城陽店","contact":{"phone":"+81774532254","formattedPhone":"+81 774-53-2254"},"location":{"address":"長池北清水109-1","lat":34.84033464951705,"lng":135.7892882823944,"postalCode":"610-0112","city":"城陽市","state":"京都府","country":"Japan"},"categories":[{"id":"4bf58dd8d48988d111941735","name":"Japanese Restaurant","pluralName":"Japanese Restaurants","shortName":"Japanese","icon":{"prefix":"https:\/\/foursquare.com\/img\/categories_v2\/food\/japanese_","suffix":".png"},"primary":true}],"verified":false,"stats":{"checkinsCount":15,"usersCount":11,"tipCount":0},"likes":{"count":0,"groups":[]},"specials":{"count":0,"items":[]},"hereNow":{"count":0,"groups":[]}},{"id":"4f4cc218e4b063a3e0d00e47","name":"とりこまち","contact":{},"location":{"lat":34.839672338388965,"lng":135.789587885154,"country":"Japan"},"categories":[{"id":"4bf58dd8d48988d111941735","name":"Japanese Restaurant","pluralName":"Japanese Restaurants","shortName":"Japanese","icon":{"prefix":"https:\/\/foursquare.com\/img\/categories_v2\/food\/japanese_","suffix":".png"},"primary":true}],"verified":false,"stats":{"checkinsCount":1,"usersCount":1,"tipCount":0},"likes":{"count":0,"groups":[]},"specials":{"count":0,"items":[]},"hereNow":{"count":0,"groups":[]}},{"id":"4c89ce301797236a8f565c88","name":"御菓子司 松屋","contact":{},"location":{"address":"日本","lat":34.84128565558134,"lng":135.78980594873428,"city":"城陽市","state":"京都府","country":"Japan"},"categories":[{"id":"4bf58dd8d48988d1d0941735","name":"Dessert Shop","pluralName":"Dessert Shops","shortName":"Desserts","icon":{"prefix":"https:\/\/foursquare.com\/img\/categories_v2\/food\/dessert_","suffix":".png"},"primary":true}],"verified":false,"stats":{"checkinsCount":5,"usersCount":2,"tipCount":0},"likes":{"count":0,"groups":[]},"specials":{"count":0,"items":[]},"hereNow":{"count":0,"groups":[]}},{"id":"4eb298d39911d335b0887b44","name":"ココロ焦ガレ","contact":{},"location":{"address":"富野南清水69-7","crossStreet":"青木ビル1F","lat":34.84020311874851,"lng":135.7892505076013,"postalCode":"610-0111","city":"城陽市","state":"京都府","country":"Japan"},"categories":[{"id":"4bf58dd8d48988d1df931735","name":"BBQ Joint","pluralName":"BBQ Joints","shortName":"BBQ","icon":{"prefix":"https:\/\/foursquare.com\/img\/categories_v2\/food\/bbq_","suffix":".png"},"primary":true}],"verified":false,"stats":{"checkinsCount":2,"usersCount":2,"tipCount":0},"likes":{"count":0,"groups":[]},"specials":{"count":0,"items":[]},"hereNow":{"count":0,"groups":[]}},{"id":"4c807633d34ca14321df1980","name":"アル・プラザ城陽","contact":{"phone":"+81774562600","formattedPhone":"+81 774-56-2600"},"location":{"address":"富野荒見田112番地","lat":34.842505216722415,"lng":135.78661143779755,"postalCode":"610-0111","city":"城陽市","state":"京都府","country":"Japan"},"categories":[{"id":"4bf58dd8d48988d118951735","name":"Grocery Store","pluralName":"Grocery Stores","shortName":"Grocery Store","icon":{"prefix":"https:\/\/foursquare.com\/img\/categories_v2\/shops\/food_grocery_","suffix":".png"},"primary":true}],"verified":false,"stats":{"checkinsCount":257,"usersCount":114,"tipCount":4},"likes":{"count":0,"groups":[]},"specials":{"count":0,"items":[]},"hereNow":{"count":0,"groups":[]}},{"id":"4d3e83b03ec9a35da5fd5a81","name":"キリン堂 城陽店","contact":{"phone":"+81774575533","formattedPhone":"+81 774-57-5533"},"location":{"address":"寺田新池82-1","lat":34.848517130931064,"lng":135.78415140813598,"postalCode":"610-0121","city":"城陽市","state":"京都府","country":"Japan"},"categories":[{"id":"4bf58dd8d48988d10f951735","name":"Drugstore \/ Pharmacy","pluralName":"Drugstores \/ Pharmacies","shortName":"Pharmacy","icon":{"prefix":"https:\/\/foursquare.com\/img\/categories_v2\/shops\/pharmacy_","suffix":".png"},"primary":true}],"verified":false,"stats":{"checkinsCount":99,"usersCount":12,"tipCount":0},"likes":{"count":0,"groups":[]},"specials":{"count":0,"items":[]},"hereNow":{"count":0,"groups":[]}},{"id":"4dcf8d04e4cd130e16839c0d","name":"城陽新池交差点","contact":{},"location":{"lat":34.84718,"lng":135.785089,"country":"Japan"},"categories":[{"id":"4bf58dd8d48988d1f9931735","name":"Road","pluralName":"Roads","shortName":"Road","icon":{"prefix":"https:\/\/foursquare.com\/img\/categories_v2\/travel\/highway_","suffix":".png"},"primary":true}],"verified":false,"stats":{"checkinsCount":161,"usersCount":3,"tipCount":0},"likes":{"count":0,"groups":[]},"specials":{"count":0,"items":[]},"hereNow":{"count":0,"groups":[]}},{"id":"4dbd5c3ba86e0e98a1f8cbc2","name":"ドラッグユタカ 城陽店","contact":{"phone":"+81774526225","formattedPhone":"+81 774-52-6225"},"location":{"address":"富野荒見田50","lat":34.845921652796406,"lng":135.78515231609344,"postalCode":"610-0111","city":"城陽市","state":"京都府","country":"Japan"},"categories":[{"id":"4bf58dd8d48988d10f951735","name":"Drugstore \/ Pharmacy","pluralName":"Drugstores \/ Pharmacies","shortName":"Pharmacy","icon":{"prefix":"https:\/\/foursquare.com\/img\/categories_v2\/shops\/pharmacy_","suffix":".png"},"primary":true}],"verified":false,"stats":{"checkinsCount":41,"usersCount":7,"tipCount":0},"likes":{"count":0,"groups":[]},"specials":{"count":0,"items":[]},"hereNow":{"count":0,"groups":[]}},{"id":"4c248b3aa852c928e539e36c","name":"ソフトバンク城陽","contact":{"phone":"+81774570777","formattedPhone":"+81 774-57-0777","twitter":"sbs_jyouyo"},"location":{"address":"長池北裏105-1","lat":34.842271872486876,"lng":135.78777953982353,"city":"城陽市","state":"京都府","country":"Japan"},"categories":[{"id":"4f04afc02fb6e1c99f3db0bc","name":"Mobile Phone Shop","pluralName":"Mobile Phone Shops","shortName":"Mobile Phone","icon":{"prefix":"https:\/\/foursquare.com\/img\/categories_v2\/shops\/mobilephoneshop_","suffix":".png"},"primary":true}],"verified":false,"stats":{"checkinsCount":70,"usersCount":7,"tipCount":0},"likes":{"count":0,"groups":[]},"specials":{"count":0,"items":[]},"hereNow":{"count":0,"groups":[]}},{"id":"4c47f0941ddec9285e019f32","name":"マクドナルド 城陽アルプラザ店","contact":{"phone":"+81774562601","formattedPhone":"+81 774-56-2601"},"location":{"address":"富野荒見田112","lat":34.842386343326595,"lng":135.78697621822357,"postalCode":"610-0111","city":"城陽市","state":"京都府","country":"Japan"},"categories":[{"id":"4bf58dd8d48988d16c941735","name":"Burger Joint","pluralName":"Burger Joints","shortName":"Burgers","icon":{"prefix":"https:\/\/foursquare.com\/img\/categories_v2\/food\/burger_","suffix":".png"},"primary":true}],"verified":false,"stats":{"checkinsCount":53,"usersCount":24,"tipCount":1},"likes":{"count":0,"groups":[]},"specials":{"count":0,"items":[]},"hereNow":{"count":0,"groups":[]}},{"id":"4e2fb616e4cdb5a70d6b5074","name":"ＮＴＴ西日本 城陽別館","contact":{},"location":{"lat":34.846782,"lng":135.785291,"city":"城陽市","state":"京都府","country":"Japan"},"categories":[{"id":"4bf58dd8d48988d125941735","name":"Tech Startup","pluralName":"Tech Startups","shortName":"Tech Startup","icon":{"prefix":"https:\/\/foursquare.com\/img\/categories_v2\/shops\/technology_","suffix":".png"},"primary":true}],"verified":false,"stats":{"checkinsCount":53,"usersCount":4,"tipCount":0},"likes":{"count":0,"groups":[]},"hereNow":{"count":0,"groups":[]}},{"id":"4d2434f33c026ea83ba1894e","name":"TSUTAYA アルプラザ城陽店","contact":{},"location":{"lat":34.842356327415885,"lng":135.78760586097383,"country":"Japan"},"categories":[],"verified":false,"stats":{"checkinsCount":13,"usersCount":8,"tipCount":0},"likes":{"count":0,"groups":[]},"specials":{"count":0,"items":[]},"hereNow":{"count":0,"groups":[]}},{"id":"4f9e642ce4b02aa9c1851706","name":"KALDI COFFEE FARM アルプラザ城陽店","contact":{},"location":{"lat":34.84186434964984,"lng":135.7858600807619,"country":"Japan"},"categories":[{"id":"4bf58dd8d48988d1ff941735","name":"Miscellaneous Shop","pluralName":"Miscellaneous Shops","shortName":"Other - Shop","icon":{"prefix":"https:\/\/foursquare.com\/img\/categories_v2\/shops\/default_","suffix":".png"},"primary":true}],"verified":false,"stats":{"checkinsCount":7,"usersCount":3,"tipCount":0},"likes":{"count":0,"groups":[]},"specials":{"count":0,"items":[]},"hereNow":{"count":0,"groups":[]}},{"id":"4f9e5ccde4b030992ba37f18","name":"スポーツミツハシ アルプラザ城陽店","contact":{},"location":{"lat":34.842538366784275,"lng":135.787490091078,"country":"Japan"},"categories":[{"id":"4bf58dd8d48988d1f2941735","name":"Sporting Goods Shop","pluralName":"Sporting Goods Shops","shortName":"Sporting Goods","icon":{"prefix":"https:\/\/foursquare.com\/img\/categories_v2\/shops\/sports_outdoors_","suffix":".png"},"primary":true}],"verified":false,"stats":{"checkinsCount":5,"usersCount":4,"tipCount":0},"likes":{"count":0,"groups":[]},"specials":{"count":0,"items":[]},"hereNow":{"count":0,"groups":[]}},{"id":"4f9bb706e4b0d2bd626ef8d2","name":"ミドリ電化 アルプラザ城陽店","contact":{"phone":"+81774571610","formattedPhone":"+81 774-57-1610"},"location":{"address":"富野荒見田112","crossStreet":"アルプラザ城陽3F","lat":34.842425967810954,"lng":135.7864236831665,"postalCode":"610-0111","city":"城陽市","state":"京都府","country":"Japan"},"categories":[{"id":"4bf58dd8d48988d122951735","name":"Electronics Store","pluralName":"Electronics Stores","shortName":"Electronics","icon":{"prefix":"https:\/\/foursquare.com\/img\/categories_v2\/shops\/technology_","suffix":".png"},"primary":true}],"verified":false,"stats":{"checkinsCount":12,"usersCount":10,"tipCount":0},"likes":{"count":0,"groups":[]},"specials":{"count":0,"items":[]},"hereNow":{"count":0,"groups":[]}},{"id":"4f9e5ff3e4b0b38d30f7d684","name":"ニトリ アルプラザ城陽店","contact":{},"location":{"lat":34.84253066146809,"lng":135.78741599849204,"country":"Japan"},"categories":[{"id":"4bf58dd8d48988d1f8941735","name":"Furniture \/ Home Store","pluralName":"Furniture \/ Home Stores","shortName":"Furniture \/ Home","icon":{"prefix":"https:\/\/foursquare.com\/img\/categories_v2\/shops\/furniture_","suffix":".png"},"primary":true}],"verified":false,"stats":{"checkinsCount":5,"usersCount":4,"tipCount":0},"likes":{"count":0,"groups":[]},"specials":{"count":0,"items":[]},"hereNow":{"count":0,"groups":[]}},{"id":"4c2dc58be307d13adf4e0eda","name":"本格焼肉 こり庵","contact":{"phone":"+81774557856","formattedPhone":"+81 774-55-7856","twitter":"yakinikukorian"},"location":{"address":"富野荒見田51","lat":34.84663485995923,"lng":135.78513622283936,"postalCode":"610-0111","city":"城陽市","state":"京都府","country":"Japan"},"categories":[{"id":"4bf58dd8d48988d113941735","name":"Korean Restaurant","pluralName":"Korean Restaurants","shortName":"Korean","icon":{"prefix":"https:\/\/foursquare.com\/img\/categories_v2\/food\/default_","suffix":".png"},"primary":true}],"verified":false,"stats":{"checkinsCount":7,"usersCount":2,"tipCount":0},"likes":{"count":0,"groups":[]},"specials":{"count":0,"items":[]},"hereNow":{"count":0,"groups":[]}},{"id":"4f9bdfde0cd6b5e52b13d964","name":"アヤハディオ 城陽店","contact":{"phone":"+81774580300","formattedPhone":"+81 774-58-0300"},"location":{"address":"富野荒見田112","crossStreet":"アルプラザ城陽1F","lat":34.842417162371625,"lng":135.78641295433044,"postalCode":"610-0111","city":"城陽市","state":"京都府","country":"Japan"},"categories":[{"id":"4bf58dd8d48988d1f8941735","name":"Furniture \/ Home Store","pluralName":"Furniture \/ Home Stores","shortName":"Furniture \/ Home","icon":{"prefix":"https:\/\/foursquare.com\/img\/categories_v2\/shops\/furniture_","suffix":".png"},"primary":true}],"verified":false,"stats":{"checkinsCount":8,"usersCount":5,"tipCount":0},"likes":{"count":0,"groups":[]},"specials":{"count":0,"items":[]},"hereNow":{"count":0,"groups":[]}},{"id":"4e67f04ab9939a72b345385a","name":"MINI clip","contact":{},"location":{"lat":34.84398891836637,"lng":135.7867294549942,"country":"Japan"},"categories":[{"id":"4bf58dd8d48988d124951735","name":"Automotive Shop","pluralName":"Automotive Shops","shortName":"Automotive","icon":{"prefix":"https:\/\/foursquare.com\/img\/categories_v2\/shops\/automotive_","suffix":".png"},"primary":true}],"verified":false,"stats":{"checkinsCount":16,"usersCount":1,"tipCount":0},"likes":{"count":0,"groups":[]},"specials":{"count":0,"items":[]},"hereNow":{"count":0,"groups":[]}},{"id":"4fa0b040e4b00c5d71546c03","name":"天下一品 アルプラザ城陽店","contact":{},"location":{"lat":34.842329573027996,"lng":135.78586934202684,"country":"Japan"},"categories":[{"id":"4bf58dd8d48988d145941735","name":"Chinese Restaurant","pluralName":"Chinese Restaurants","shortName":"Chinese","icon":{"prefix":"https:\/\/foursquare.com\/img\/categories_v2\/food\/chinese_","suffix":".png"},"primary":true}],"verified":false,"stats":{"checkinsCount":4,"usersCount":3,"tipCount":0},"likes":{"count":0,"groups":[]},"specials":{"count":0,"items":[]},"hereNow":{"count":0,"groups":[]}},{"id":"4f9bb2d7e4b0b04584561877","name":"g.u. アルプラザ城陽店","contact":{"phone":"+81774573611","formattedPhone":"+81 774-57-3611"},"location":{"address":"富野荒見田112","crossStreet":"アルプラザ城陽3F","lat":34.84239074604804,"lng":135.78648805618286,"postalCode":"610-0111","city":"城陽市","state":"京都府","country":"Japan"},"categories":[{"id":"4bf58dd8d48988d103951735","name":"Clothing Store","pluralName":"Clothing Stores","shortName":"Apparel","icon":{"prefix":"https:\/\/foursquare.com\/img\/categories_v2\/shops\/apparel_","suffix":".png"},"primary":true}],"verified":false,"stats":{"checkinsCount":8,"usersCount":8,"tipCount":0},"likes":{"count":0,"groups":[]},"specials":{"count":0,"items":[]},"hereNow":{"count":0,"groups":[]}},{"id":"4deb195b52b11677f04e47a1","name":"サントリー食品工業株式会社宇治川工場","contact":{},"location":{"lat":34.84411641210027,"lng":135.78654541922455,"country":"Japan"},"categories":[{"id":"4bf58dd8d48988d130941735","name":"Building","pluralName":"Buildings","shortName":"Other - Buildings","icon":{"prefix":"https:\/\/foursquare.com\/img\/categories_v2\/building\/default_","suffix":".png"},"primary":true}],"verified":false,"stats":{"checkinsCount":38,"usersCount":5,"tipCount":0},"likes":{"count":0,"groups":[]},"specials":{"count":0,"items":[]},"hereNow":{"count":0,"groups":[]}},{"id":"4d60c883e4fe54811aa0849e","name":"ESSO Express 長池SS","contact":{},"location":{"address":"長池北裏108","crossStreet":"国道24号線","lat":34.84317002403037,"lng":135.78713715076447,"city":"城陽市","state":"京都府","country":"Japan"},"categories":[{"id":"4bf58dd8d48988d113951735","name":"Gas Station \/ Garage","pluralName":"Gas Stations \/ Garages","shortName":"Gas Station \/ Garage","icon":{"prefix":"https:\/\/foursquare.com\/img\/categories_v2\/shops\/gas_","suffix":".png"},"primary":true}],"verified":false,"stats":{"checkinsCount":40,"usersCount":12,"tipCount":0},"likes":{"count":0,"groups":[]},"specials":{"count":0,"items":[]},"hereNow":{"count":0,"groups":[]}},{"id":"4f9e52bfe4b09fef54ed8d53","name":"ダイソー アルプラザ城陽店","contact":{"phone":"+81774552716","formattedPhone":"+81 774-55-2716"},"location":{"address":"富野荒見田112","crossStreet":"アル・プラザ城陽4階","lat":34.842548,"lng":135.786561,"city":"城陽市","state":"京都府","country":"Japan"},"categories":[{"id":"4bf58dd8d48988d1ff941735","name":"Miscellaneous Shop","pluralName":"Miscellaneous Shops","shortName":"Other - Shop","icon":{"prefix":"https:\/\/foursquare.com\/img\/categories_v2\/shops\/default_","suffix":".png"},"primary":true}],"verified":false,"stats":{"checkinsCount":3,"usersCount":3,"tipCount":0},"likes":{"count":0,"groups":[]},"specials":{"count":0,"items":[]},"hereNow":{"count":0,"groups":[]}},{"id":"4df310edfa76abc3d86bc0e7","name":"鴻池運輸京都城陽配送センター営業所","contact":{},"location":{"lat":34.844558,"lng":135.786392,"city":"Joyo","state":"Kyoto Prefecture","country":"Japan"},"categories":[{"id":"4bf58dd8d48988d130941735","name":"Building","pluralName":"Buildings","shortName":"Other - Buildings","icon":{"prefix":"https:\/\/foursquare.com\/img\/categories_v2\/building\/default_","suffix":".png"},"primary":true}],"verified":false,"stats":{"checkinsCount":18,"usersCount":2,"tipCount":0},"likes":{"count":0,"groups":[]},"specials":{"count":0,"items":[]},"hereNow":{"count":0,"groups":[]}},{"id":"4fb777a2e4b0f4eeca1a2d81","name":"カツと麺の店 太呂 アル・プラザ城陽店","contact":{"phone":"+81774575088","formattedPhone":"+81 774-57-5088"},"location":{"lat":34.8425639189665,"lng":135.78574431510148,"country":"Japan"},"categories":[{"id":"4bf58dd8d48988d111941735","name":"Japanese Restaurant","pluralName":"Japanese Restaurants","shortName":"Japanese","icon":{"prefix":"https:\/\/foursquare.com\/img\/categories_v2\/food\/japanese_","suffix":".png"},"primary":true}],"verified":false,"stats":{"checkinsCount":2,"usersCount":1,"tipCount":0},"likes":{"count":0,"groups":[]},"specials":{"count":0,"items":[]},"hereNow":{"count":0,"groups":[]}},{"id":"4e06f16ce4cdefcff6d94212","name":"ヤマト運輸 城陽久世センター","contact":{},"location":{"address":"寺田新池86-3","lat":34.84837602802446,"lng":135.78406615552012,"postalCode":"610-0121","city":"城陽市","state":"京都府","country":"Japan"},"categories":[{"id":"4bf58dd8d48988d124941735","name":"Office","pluralName":"Offices","shortName":"Corporate \/ Office","icon":{"prefix":"https:\/\/foursquare.com\/img\/categories_v2\/building\/default_","suffix":".png"},"primary":true}],"verified":false,"stats":{"checkinsCount":58,"usersCount":3,"tipCount":0},"likes":{"count":0,"groups":[]},"hereNow":{"count":0,"groups":[]}},{"id":"4e8151af30f86985e3fe2783","name":"星和電機株式会社 本社","contact":{"phone":"+81774558181","formattedPhone":"+81 774-55-8181"},"location":{"address":"寺田新池36","lat":34.84797110025135,"lng":135.78250620973017,"city":"城陽市","state":"京都府","country":"Japan"},"categories":[{"id":"4bf58dd8d48988d124941735","name":"Office","pluralName":"Offices","shortName":"Corporate \/ Office","icon":{"prefix":"https:\/\/foursquare.com\/img\/categories_v2\/building\/default_","suffix":".png"},"primary":true}],"verified":false,"stats":{"checkinsCount":45,"usersCount":6,"tipCount":0},"likes":{"count":0,"groups":[]},"hereNow":{"count":0,"groups":[]}},{"id":"4f9e5926e4b05baf79c8a4d1","name":"サイゼリヤ アルプラザ城陽店","contact":{},"location":{"lat":34.842305,"lng":135.785997,"country":"Japan"},"categories":[{"id":"4bf58dd8d48988d1c4941735","name":"Restaurant","pluralName":"Restaurants","shortName":"Other - Food","icon":{"prefix":"https:\/\/foursquare.com\/img\/categories_v2\/food\/default_","suffix":".png"},"primary":true}],"verified":false,"stats":{"checkinsCount":6,"usersCount":6,"tipCount":0},"likes":{"count":0,"groups":[]},"specials":{"count":0,"items":[]},"hereNow":{"count":0,"groups":[]}},{"id":"4f9be1230cd6b5e52b13ffdf","name":"SUBWAY サブウェイ アルプラザ城陽店","contact":{"phone":"+81774550623","formattedPhone":"+81 774-55-0623"},"location":{"address":"富野荒見田112","crossStreet":"アル・プラザ城陽1F フードコート","lat":34.84237313516092,"lng":135.78665971755981,"postalCode":"610-0111","city":"城陽市","state":"京都府","country":"Japan"},"categories":[{"id":"4bf58dd8d48988d1c5941735","name":"Sandwich Place","pluralName":"Sandwich Places","shortName":"Sandwiches","icon":{"prefix":"https:\/\/foursquare.com\/img\/categories_v2\/food\/sandwiches_","suffix":".png"},"primary":true}],"verified":false,"stats":{"checkinsCount":6,"usersCount":5,"tipCount":0},"likes":{"count":0,"groups":[]},"specials":{"count":0,"items":[]},"hereNow":{"count":0,"groups":[]}},{"id":"4f9e6c30e4b06144945f57a3","name":"口福堂 アルプラザ城陽店","contact":{},"location":{"lat":34.842179,"lng":135.786749,"country":"Japan"},"categories":[{"id":"4bf58dd8d48988d111941735","name":"Japanese Restaurant","pluralName":"Japanese Restaurants","shortName":"Japanese","icon":{"prefix":"https:\/\/foursquare.com\/img\/categories_v2\/food\/japanese_","suffix":".png"},"primary":true}],"verified":false,"stats":{"checkinsCount":1,"usersCount":1,"tipCount":0},"likes":{"count":0,"groups":[]},"specials":{"count":0,"items":[]},"hereNow":{"count":0,"groups":[]}},{"id":"4f9f55fde4b03efa2108dade","name":"ハースブラウン アルプラザ城陽店","contact":{},"location":{"lat":34.841725,"lng":135.786299,"country":"Japan"},"categories":[{"id":"4bf58dd8d48988d16a941735","name":"Bakery","pluralName":"Bakeries","shortName":"Bakery","icon":{"prefix":"https:\/\/foursquare.com\/img\/categories_v2\/food\/bakery_","suffix":".png"},"primary":true}],"verified":false,"stats":{"checkinsCount":1,"usersCount":1,"tipCount":0},"likes":{"count":0,"groups":[]},"specials":{"count":0,"items":[]},"hereNow":{"count":0,"groups":[]}},{"id":"4de96836d4c00071b807f8c3","name":"コスモパーク城陽","contact":{},"location":{"lat":34.849474,"lng":135.788289,"country":"Japan"},"categories":[{"id":"4bf58dd8d48988d124951735","name":"Automotive Shop","pluralName":"Automotive Shops","shortName":"Automotive","icon":{"prefix":"https:\/\/foursquare.com\/img\/categories_v2\/shops\/automotive_","suffix":".png"},"primary":true}],"verified":false,"stats":{"checkinsCount":19,"usersCount":1,"tipCount":0},"likes":{"count":0,"groups":[]},"specials":{"count":0,"items":[]},"hereNow":{"count":0,"groups":[]}},{"id":"4ddb541aae6092c836df7bec","name":"スズキアリーナ城陽","contact":{},"location":{"address":"日本","lat":34.846975207328796,"lng":135.78112363815308,"city":"城陽市","state":"京都府","country":"Japan"},"categories":[{"id":"4bf58dd8d48988d124951735","name":"Automotive Shop","pluralName":"Automotive Shops","shortName":"Automotive","icon":{"prefix":"https:\/\/foursquare.com\/img\/categories_v2\/shops\/automotive_","suffix":".png"},"primary":true}],"verified":false,"stats":{"checkinsCount":1,"usersCount":1,"tipCount":0},"likes":{"count":0,"groups":[]},"specials":{"count":0,"items":[]},"hereNow":{"count":0,"groups":[]}},{"id":"4c43c1e8dd1f2d7f57067ff9","name":"Honda Cars 京都 城陽店","contact":{},"location":{"lat":34.849401,"lng":135.788268,"country":"Japan"},"categories":[],"verified":false,"stats":{"checkinsCount":10,"usersCount":2,"tipCount":0},"likes":{"count":0,"groups":[]},"specials":{"count":0,"items":[]},"hereNow":{"count":0,"groups":[]}},{"id":"4f6d6e87e4b0e20e14b9bfd1","name":"南部コミュニティーセンター","contact":{},"location":{"lat":34.841522,"lng":135.781294,"country":"Japan"},"categories":[{"id":"4bf58dd8d48988d171941735","name":"Event Space","pluralName":"Event Spaces","shortName":"Event Space","icon":{"prefix":"https:\/\/foursquare.com\/img\/categories_v2\/building\/eventspace_","suffix":".png"},"primary":true}],"verified":false,"stats":{"checkinsCount":1,"usersCount":1,"tipCount":0},"likes":{"count":0,"groups":[]},"specials":{"count":0,"items":[]},"hereNow":{"count":0,"groups":[]}}]}}
