{"meta":{"code":200},"response":{"venues":[{"id":"4d4c8f7ee469721eeb86ec8e","name":"大久保自動車教習所","contact":{"phone":"+81774431166","formattedPhone":"+81 774-43-1166"},"location":{"address":"大久保町北ノ山20","lat":34.872816729259974,"lng":135.7724279165268,"postalCode":"611-0033","city":"宇治市","state":"京都府","country":"Japan"},"categories":[{"id":"4bf58dd8d48988d198941735","name":"College Academic Building","pluralName":"College Academic Buildings","shortName":"Academic Building","icon":{"prefix":"https:\/\/foursquare.com\/img\/categories_v2\/education\/academicbuilding_","suffix":".png"},"primary":true}],"verified":false,"stats":{"checkinsCount":41,"usersCount":7,"tipCount":0},"likes":{"count":0,"groups":[]},"specials":{"count":0,"items":[]},"hereNow":{"count":0,"groups":[]}},{"id":"4d1964dc816af04d49515dc2","name":"ラーメン帝王","contact":{},"location":{"lat":34.87377576791002,"lng":135.773761773469,"country":"Japan"},"categories":[],"verified":false,"stats":{"checkinsCount":12,"usersCount":4,"tipCount":0},"likes":{"count":0,"groups":[]},"specials":{"count":0,"items":[]},"hereNow":{"count":0,"groups":[]}},{"id":"4b77c6e3f964a52019aa2ee3","name":"ユニクロ 宇治大久保店","contact":{"phone":"+81774482520","formattedPhone":"+81 774-48-2520"},"location":{"address":"大久保町北ノ山24-1","lat":34.87338006725606,"lng":135.7729160785675,"postalCode":"日本","city":"宇治市","state":"京都府","country":"Japan"},"categories":[{"id":"4bf58dd8d48988d104951735","name":"Boutique","pluralName":"Boutiques","shortName":"Boutique","icon":{"prefix":"https:\/\/foursquare.com\/img\/categories_v2\/shops\/apparel_boutique_","suffix":".png"},"primary":true}],"verified":false,"stats":{"checkinsCount":84,"usersCount":45,"tipCount":0},"likes":{"count":0,"groups":[]},"specials":{"count":0,"items":[]},"hereNow":{"count":0,"groups":[]}},{"id":"4d3909b61a57a143deca8af3","name":"陸上自衛隊 大久保駐屯地","contact":{},"location":{"address":"広野町風呂垣外1-1","lat":34.878397125998326,"lng":135.77505111694336,"postalCode":"611-0031","city":"宇治市","state":"京都府","country":"Japan"},"categories":[{"id":"4e52adeebd41615f56317744","name":"Military Base","pluralName":"Military Bases","shortName":"Military Base","icon":{"prefix":"https:\/\/foursquare.com\/img\/categories_v2\/building\/militarybase_","suffix":".png"},"primary":true}],"verified":false,"stats":{"checkinsCount":68,"usersCount":30,"tipCount":0},"likes":{"count":0,"groups":[]},"specials":{"count":0,"items":[]},"hereNow":{"count":0,"groups":[]}},{"id":"4fdaf09fe4b036cbf8c599b7","name":"HILLTOP山本精工","contact":{},"location":{"lat":34.877334,"lng":135.770487,"country":"Japan"},"categories":[{"id":"4bf58dd8d48988d127941735","name":"Conference Room","pluralName":"Conference Rooms","shortName":"Conference room","icon":{"prefix":"https:\/\/foursquare.com\/img\/categories_v2\/building\/office_conferenceroom_","suffix":".png"},"primary":true}],"verified":false,"stats":{"checkinsCount":1,"usersCount":1,"tipCount":0},"likes":{"count":0,"groups":[]},"hereNow":{"count":0,"groups":[]}},{"id":"4d6f323f7e16a35de1f790f9","name":"宇治税務署","contact":{},"location":{"address":"大久保町井ノ尻56-1","lat":34.87434829541807,"lng":135.77056646347046,"city":"宇治市","state":"京都府","country":"Japan"},"categories":[{"id":"4bf58dd8d48988d126941735","name":"Government Building","pluralName":"Government Buildings","shortName":"Government","icon":{"prefix":"https:\/\/foursquare.com\/img\/categories_v2\/building\/government_","suffix":".png"},"primary":true}],"verified":false,"stats":{"checkinsCount":18,"usersCount":7,"tipCount":0},"likes":{"count":0,"groups":[]},"specials":{"count":0,"items":[]},"hereNow":{"count":0,"groups":[]}},{"id":"4c78e0e397028cfaa934d9fe","name":"中国料理 広東","contact":{},"location":{"lat":34.8737716646716,"lng":135.77520155655478,"country":"Japan"},"categories":[{"id":"4bf58dd8d48988d145941735","name":"Chinese Restaurant","pluralName":"Chinese Restaurants","shortName":"Chinese","icon":{"prefix":"https:\/\/foursquare.com\/img\/categories_v2\/food\/chinese_","suffix":".png"},"primary":true}],"verified":false,"stats":{"checkinsCount":27,"usersCount":5,"tipCount":1},"likes":{"count":0,"groups":[]},"specials":{"count":0,"items":[]},"hereNow":{"count":0,"groups":[]}},{"id":"4f825993e4b0bc1418e2f903","name":"きん太 近鉄大久保","contact":{"phone":"+81774451159","formattedPhone":"+81 774-45-1159"},"location":{"address":"大久保町北ノ山101","lat":34.87373844381217,"lng":135.77508118717185,"postalCode":"611-0033","city":"宇治市","state":"京都府","country":"Japan"},"categories":[{"id":"4bf58dd8d48988d111941735","name":"Japanese Restaurant","pluralName":"Japanese Restaurants","shortName":"Japanese","icon":{"prefix":"https:\/\/foursquare.com\/img\/categories_v2\/food\/japanese_","suffix":".png"},"primary":true}],"verified":false,"stats":{"checkinsCount":6,"usersCount":3,"tipCount":0},"url":"http:\/\/www.kinta.co.jp\/","likes":{"count":0,"groups":[]},"specials":{"count":0,"items":[]},"hereNow":{"count":0,"groups":[]}},{"id":"4c30bbc3ed37a593ea466903","name":"イオン 大久保店","contact":{"phone":"+81774445000","formattedPhone":"+81 774-44-5000"},"location":{"address":"大久保町井ノ尻45-1","lat":34.873981032399435,"lng":135.77005835111547,"postalCode":"611-0033","city":"宇治市","state":"京都府","country":"Japan"},"categories":[{"id":"4bf58dd8d48988d1fd941735","name":"Mall","pluralName":"Malls","shortName":"Mall","icon":{"prefix":"https:\/\/foursquare.com\/img\/categories_v2\/shops\/mall_","suffix":".png"},"primary":true}],"verified":false,"stats":{"checkinsCount":308,"usersCount":72,"tipCount":0},"likes":{"count":0,"groups":[]},"specials":{"count":0,"items":[]},"hereNow":{"count":0,"groups":[]}},{"id":"4c38326f3849c9284b1fbfb1","name":"Muse Club","contact":{},"location":{"lat":34.874109,"lng":135.770645,"country":"Japan"},"categories":[{"id":"4bf58dd8d48988d1f1931735","name":"General Entertainment","pluralName":"General Entertainment","shortName":"Other - Entertainment","icon":{"prefix":"https:\/\/foursquare.com\/img\/categories_v2\/arts_entertainment\/default_","suffix":".png"},"primary":true}],"verified":false,"stats":{"checkinsCount":67,"usersCount":12,"tipCount":0},"likes":{"count":0,"groups":[]},"specials":{"count":0,"items":[]},"hereNow":{"count":0,"groups":[]}},{"id":"4bb32618715eef3b7ef785bb","name":"BABYFACE PLANET'S 宇治大久保店","contact":{"phone":"+81774452739","formattedPhone":"+81 774-45-2739"},"location":{"address":"大久保町井ノ尻56-1","crossStreet":"アスタービル1F","lat":34.87381271307988,"lng":135.77065104483188,"postalCode":"611-0033","city":"宇治市","state":"京都府","country":"Japan"},"categories":[{"id":"4bf58dd8d48988d1c4941735","name":"Restaurant","pluralName":"Restaurants","shortName":"Other - Food","icon":{"prefix":"https:\/\/foursquare.com\/img\/categories_v2\/food\/default_","suffix":".png"},"primary":true}],"verified":false,"stats":{"checkinsCount":71,"usersCount":35,"tipCount":0},"likes":{"count":0,"groups":[]},"specials":{"count":0,"items":[]},"hereNow":{"count":0,"groups":[]}},{"id":"4c37f28c3849c9283bc2beb1","name":"食遊館 鹿六","contact":{},"location":{"address":"大久保町井ノ尻56-1","lat":34.87376295884682,"lng":135.77100098133087,"city":"宇治市","state":"京都府","country":"Japan"},"categories":[{"id":"4bf58dd8d48988d145941735","name":"Chinese Restaurant","pluralName":"Chinese Restaurants","shortName":"Chinese","icon":{"prefix":"https:\/\/foursquare.com\/img\/categories_v2\/food\/chinese_","suffix":".png"},"primary":true}],"verified":false,"stats":{"checkinsCount":12,"usersCount":5,"tipCount":0},"likes":{"count":0,"groups":[]},"specials":{"count":0,"items":[]},"hereNow":{"count":0,"groups":[]}},{"id":"4e4332d518a8bafc6285745f","name":"ミドリ イオン大久保店","contact":{"phone":"+81774412755","formattedPhone":"+81 774-41-2755"},"location":{"address":"大久保町井ノ尻４５ー１","crossStreet":"イオン 大久保店 4F","lat":34.87400556473957,"lng":135.77021111159956,"city":"宇治市","state":"京都府","country":"Japan"},"categories":[{"id":"4bf58dd8d48988d122951735","name":"Electronics Store","pluralName":"Electronics Stores","shortName":"Electronics","icon":{"prefix":"https:\/\/foursquare.com\/img\/categories_v2\/shops\/technology_","suffix":".png"},"primary":true}],"verified":false,"stats":{"checkinsCount":5,"usersCount":5,"tipCount":0},"likes":{"count":0,"groups":[]},"specials":{"count":0,"items":[]},"hereNow":{"count":0,"groups":[]}},{"id":"4c282da1fe6e2d7fe7f2523c","name":"三菱東京UFJ銀行 京都支店 宇治大久保出張所","contact":{"phone":"+81774445311","formattedPhone":"+81 774-44-5311"},"location":{"address":"大久保町井ノ尻45-1","crossStreet":"イオン大久保店","lat":34.87334045767937,"lng":135.76998710632324,"postalCode":"611-0033","city":"宇治市","state":"京都府","country":"Japan"},"categories":[{"id":"4bf58dd8d48988d10a951735","name":"Bank","pluralName":"Banks","shortName":"Bank \/ Financial","icon":{"prefix":"https:\/\/foursquare.com\/img\/categories_v2\/shops\/financial_","suffix":".png"},"primary":true}],"verified":false,"stats":{"checkinsCount":15,"usersCount":7,"tipCount":0},"likes":{"count":0,"groups":[]},"specials":{"count":0,"items":[]},"hereNow":{"count":0,"groups":[]}}]}}
