{"meta":{"code":200},"response":{"venues":[{"id":"4fd810f3a17c090a826c02f1","name":"パンこっこ城陽","contact":{},"location":{"address":"寺田林ノ口11-436","crossStreet":"コープ城陽","lat":34.85540416125874,"lng":135.7826042175293,"postalCode":"610-0121","city":"城陽市","state":"京都府","country":"Japan"},"categories":[{"id":"4bf58dd8d48988d16a941735","name":"Bakery","pluralName":"Bakeries","shortName":"Bakery","icon":{"prefix":"https:\/\/foursquare.com\/img\/categories_v2\/food\/bakery_","suffix":".png"},"primary":true}],"verified":false,"stats":{"checkinsCount":0,"usersCount":0,"tipCount":0},"likes":{"count":0,"groups":[]},"specials":{"count":0,"items":[]},"hereNow":{"count":0,"groups":[]}},{"id":"4df44128483bdb5e13775fbb","name":"グリル北川","contact":{"phone":"+81774527201","formattedPhone":"+81 774-52-7201"},"location":{"address":"寺田水度坂131","lat":34.85437408093795,"lng":135.78093588352203,"city":"城陽市","state":"京都府","country":"Japan"},"categories":[{"id":"4bf58dd8d48988d1c4941735","name":"Restaurant","pluralName":"Restaurants","shortName":"Other - Food","icon":{"prefix":"https:\/\/foursquare.com\/img\/categories_v2\/food\/default_","suffix":".png"},"primary":true}],"verified":false,"stats":{"checkinsCount":199,"usersCount":1,"tipCount":1},"likes":{"count":0,"groups":[]},"specials":{"count":0,"items":[]},"hereNow":{"count":0,"groups":[]}},{"id":"4d53bf765b3f6dcb23d8d6cc","name":"城陽飯店","contact":{"phone":"+81774524835","formattedPhone":"+81 774-52-4835"},"location":{"address":"寺田袋尻17-13","lat":34.85272108321289,"lng":135.78093856573105,"city":"城陽市","state":"京都府","country":"Japan"},"categories":[{"id":"4bf58dd8d48988d145941735","name":"Chinese Restaurant","pluralName":"Chinese Restaurants","shortName":"Chinese","icon":{"prefix":"https:\/\/foursquare.com\/img\/categories_v2\/food\/chinese_","suffix":".png"},"primary":true}],"verified":false,"stats":{"checkinsCount":57,"usersCount":7,"tipCount":0},"likes":{"count":0,"groups":[]},"specials":{"count":0,"items":[]},"hereNow":{"count":0,"groups":[]}},{"id":"4e7317881f6eaf402b93a628","name":"ファッションハウス ソレイユ","contact":{},"location":{"lat":34.85485202978866,"lng":135.78171121484905,"country":"Japan"},"categories":[{"id":"4bf58dd8d48988d104951735","name":"Boutique","pluralName":"Boutiques","shortName":"Boutique","icon":{"prefix":"https:\/\/foursquare.com\/img\/categories_v2\/shops\/apparel_boutique_","suffix":".png"},"primary":true}],"verified":false,"stats":{"checkinsCount":20,"usersCount":1,"tipCount":0},"likes":{"count":0,"groups":[]},"specials":{"count":0,"items":[]},"hereNow":{"count":0,"groups":[]}},{"id":"4df32d88a809141629a19b7c","name":"ピザ リトルパーティー 城陽店","contact":{"phone":"+81774541001","formattedPhone":"+81 774-54-1001"},"location":{"address":"寺田水度坂15-110","crossStreet":"水度マンション1F","lat":34.85475706102495,"lng":135.78239768743515,"postalCode":"610-0121","city":"城陽市","state":"京都府","country":"Japan"},"categories":[{"id":"4bf58dd8d48988d1ca941735","name":"Pizza Place","pluralName":"Pizza Places","shortName":"Pizza","icon":{"prefix":"https:\/\/foursquare.com\/img\/categories_v2\/food\/pizza_","suffix":".png"},"primary":true}],"verified":false,"stats":{"checkinsCount":158,"usersCount":3,"tipCount":0},"likes":{"count":0,"groups":[]},"specials":{"count":0,"items":[]},"hereNow":{"count":0,"groups":[]}},{"id":"4df30e1745dd4e26933f7358","name":"夜叉ばあさんのムクノキ","contact":{},"location":{"lat":34.853757,"lng":135.781178,"city":"Joyo","state":"Kyoto Prefecture","country":"Japan"},"categories":[{"id":"4bf58dd8d48988d15c941735","name":"Cemetery","pluralName":"Cemeteries","shortName":"Cemetery","icon":{"prefix":"https:\/\/foursquare.com\/img\/categories_v2\/parks_outdoors\/cemetery_","suffix":".png"},"primary":true}],"verified":false,"stats":{"checkinsCount":53,"usersCount":7,"tipCount":0},"likes":{"count":0,"groups":[]},"specials":{"count":0,"items":[]},"hereNow":{"count":0,"groups":[]}},{"id":"4e682b20fa768a5e3cc0739b","name":"南都銀行 城陽支店","contact":{"phone":"+81774522821","formattedPhone":"+81 774-52-2821"},"location":{"address":"寺田袋尻7-1","lat":34.85329996635473,"lng":135.78048527240753,"postalCode":"6100121","city":"城陽市","state":"京都府","country":"Japan"},"categories":[{"id":"4bf58dd8d48988d10a951735","name":"Bank","pluralName":"Banks","shortName":"Bank \/ Financial","icon":{"prefix":"https:\/\/foursquare.com\/img\/categories_v2\/shops\/financial_","suffix":".png"},"primary":true}],"verified":false,"stats":{"checkinsCount":10,"usersCount":3,"tipCount":0},"likes":{"count":0,"groups":[]},"specials":{"count":0,"items":[]},"hereNow":{"count":0,"groups":[]}},{"id":"4ea2a31c7ee52a35dcf7ffe7","name":"居酒屋将軍","contact":{},"location":{"lat":34.85438919067383,"lng":135.78201293945312,"country":"Japan"},"categories":[{"id":"4bf58dd8d48988d1f9941735","name":"Food & Drink Shop","pluralName":"Food & Drink Shops","shortName":"Food & Drink","icon":{"prefix":"https:\/\/foursquare.com\/img\/categories_v2\/shops\/foodanddrink_","suffix":".png"},"primary":true}],"verified":false,"stats":{"checkinsCount":1,"usersCount":1,"tipCount":0},"likes":{"count":0,"groups":[]},"specials":{"count":0,"items":[]},"hereNow":{"count":0,"groups":[]}},{"id":"4d143a8b81cea35d2e7ed1ec","name":"宝衣裳","contact":{},"location":{"lat":34.853622,"lng":135.781954,"country":"Japan"},"categories":[{"id":"4bf58dd8d48988d11a951735","name":"Bridal Shop","pluralName":"Bridal Shops","shortName":"Bridal","icon":{"prefix":"https:\/\/foursquare.com\/img\/categories_v2\/shops\/bridal_","suffix":".png"},"primary":true}],"verified":false,"stats":{"checkinsCount":1,"usersCount":1,"tipCount":0},"likes":{"count":0,"groups":[]},"specials":{"count":0,"items":[]},"hereNow":{"count":0,"groups":[]}},{"id":"4c9c3c380e9bb1f7f232d25f","name":"彩 レンタルスペース","contact":{},"location":{"lat":34.85414077035592,"lng":135.78223943710327,"city":"城陽市","state":"京都府","country":"Japan"},"categories":[{"id":"4bf58dd8d48988d1e2931735","name":"Art Gallery","pluralName":"Art Galleries","shortName":"Art Gallery","icon":{"prefix":"https:\/\/foursquare.com\/img\/categories_v2\/arts_entertainment\/artgallery_","suffix":".png"},"primary":true}],"verified":false,"stats":{"checkinsCount":1,"usersCount":1,"tipCount":0},"likes":{"count":0,"groups":[]},"specials":{"count":0,"items":[]},"hereNow":{"count":0,"groups":[]}},{"id":"4cb83fc343ec6dcb35969331","name":"ゴールデンスター","contact":{},"location":{"lat":34.854353,"lng":135.780768,"country":"Japan"},"categories":[],"verified":false,"stats":{"checkinsCount":1,"usersCount":1,"tipCount":0},"likes":{"count":0,"groups":[]},"specials":{"count":0,"items":[]},"hereNow":{"count":0,"groups":[]}},{"id":"4f4dbf57e4b051dc48bb7633","name":"協和産業（株）昭和シェル 城陽SS","contact":{},"location":{"address":"寺田袋尻１９ー４","lat":34.85265,"lng":135.781008333,"city":"城陽市","state":"京都府","country":"Japan"},"categories":[{"id":"4bf58dd8d48988d113951735","name":"Gas Station \/ Garage","pluralName":"Gas Stations \/ Garages","shortName":"Gas Station \/ Garage","icon":{"prefix":"https:\/\/foursquare.com\/img\/categories_v2\/shops\/gas_","suffix":".png"},"primary":true}],"verified":false,"stats":{"checkinsCount":0,"usersCount":0,"tipCount":0},"likes":{"count":0,"groups":[]},"specials":{"count":0,"items":[]},"hereNow":{"count":0,"groups":[]}},{"id":"4ea0125230f854cd9c271115","name":"ほっかほっか亭 城陽店","contact":{"phone":"+81774533743","formattedPhone":"+81 774-53-3743"},"location":{"address":"寺田袋尻17-15","lat":34.85251,"lng":135.78116,"city":"城陽市","state":"京都府","country":"Japan"},"categories":[{"id":"4bf58dd8d48988d146941735","name":"Deli\/Bodega","pluralName":"Delis\/Bodegas","shortName":"Deli \/ Bodega","icon":{"prefix":"https:\/\/foursquare.com\/img\/categories_v2\/food\/deli_","suffix":".png"},"primary":true}],"verified":false,"stats":{"checkinsCount":0,"usersCount":0,"tipCount":0},"likes":{"count":0,"groups":[]},"specials":{"count":0,"items":[]},"hereNow":{"count":0,"groups":[]}}]}}
