{"meta":{"code":200},"response":{"venues":[{"id":"4f3a00faa17c224158e526fd","name":"フラワーバール トゥリパーノ","contact":{"phone":"+81774328971","formattedPhone":"+81 774-32-8971"},"location":{"address":"木幡西浦町51-16","lat":34.92119910276138,"lng":135.79463258385658,"postalCode":"611-0002","city":"宇治市","state":"京都府","country":"Japan"},"categories":[{"id":"4bf58dd8d48988d116941735","name":"Bar","pluralName":"Bars","shortName":"Bar","icon":{"prefix":"https:\/\/foursquare.com\/img\/categories_v2\/nightlife\/bar_","suffix":".png"},"primary":true}],"verified":false,"stats":{"checkinsCount":1,"usersCount":1,"tipCount":0},"likes":{"count":0,"groups":[]},"specials":{"count":0,"items":[]},"hereNow":{"count":0,"groups":[]}},{"id":"4e03099e1495525ce2c66df1","name":"新谷歯科医院","contact":{},"location":{"lat":34.924315,"lng":135.799887,"country":"Japan"},"categories":[{"id":"4bf58dd8d48988d178941735","name":"Dentist's Office","pluralName":"Dentist's Offices","shortName":"Dentist's Office","icon":{"prefix":"https:\/\/foursquare.com\/img\/categories_v2\/building\/medical_dentist_","suffix":".png"},"primary":true}],"verified":false,"stats":{"checkinsCount":2,"usersCount":1,"tipCount":0},"likes":{"count":0,"groups":[]},"specials":{"count":0,"items":[]},"hereNow":{"count":0,"groups":[]}},{"id":"4fd42667e4b03121ce525264","name":"魔窟木幡邸","contact":{},"location":{"isFuzzed":true,"lat":34.92099719313436,"lng":135.79476330128935,"country":"Japan"},"categories":[{"id":"4bf58dd8d48988d103941735","name":"Home (private)","pluralName":"Homes (private)","shortName":"Home","icon":{"prefix":"https:\/\/foursquare.com\/img\/categories_v2\/building\/home_","suffix":".png"},"primary":true}],"verified":false,"stats":{"checkinsCount":1,"usersCount":1,"tipCount":0},"likes":{"count":0,"groups":[]},"hereNow":{"count":0,"groups":[]}},{"id":"4f4d8ed6e4b0657aa575879e","name":"丸生","contact":{},"location":{"lat":34.91997528076172,"lng":135.79669189453125,"country":"Japan"},"categories":[{"id":"4bf58dd8d48988d1df931735","name":"BBQ Joint","pluralName":"BBQ Joints","shortName":"BBQ","icon":{"prefix":"https:\/\/foursquare.com\/img\/categories_v2\/food\/bbq_","suffix":".png"},"primary":true}],"verified":false,"stats":{"checkinsCount":2,"usersCount":2,"tipCount":0},"likes":{"count":0,"groups":[]},"specials":{"count":0,"items":[]},"hereNow":{"count":0,"groups":[]}},{"id":"4bdbff972a3a0f47d241b1b6","name":"マクドナルド木幡店","contact":{"phone":"+81774382540","formattedPhone":"+81 774-38-2540"},"location":{"address":"木幡東中24-38","lat":34.92656729838982,"lng":135.79988837242126,"postalCode":"611-0002","city":"宇治市","state":"京都府","country":"Japan"},"categories":[{"id":"4bf58dd8d48988d16c941735","name":"Burger Joint","pluralName":"Burger Joints","shortName":"Burgers","icon":{"prefix":"https:\/\/foursquare.com\/img\/categories_v2\/food\/burger_","suffix":".png"},"primary":true}],"verified":false,"stats":{"checkinsCount":135,"usersCount":42,"tipCount":1},"likes":{"count":0,"groups":[]},"specials":{"count":0,"items":[]},"hereNow":{"count":0,"groups":[]}},{"id":"4e06c6f0d22d658532a2568a","name":"パナソニック　エレクトロニックデバイス株式会社","contact":{},"location":{"lat":34.926233225050396,"lng":135.79577529387876,"city":"宇治市","state":"京都府","country":"Japan"},"categories":[],"verified":false,"stats":{"checkinsCount":54,"usersCount":11,"tipCount":0},"likes":{"count":0,"groups":[]},"specials":{"count":0,"items":[]},"hereNow":{"count":0,"groups":[]}},{"id":"4f3e259be4b0efcb51aaa276","name":"グリーンパーク京阪木幡駅前","contact":{},"location":{"address":"京都府宇治市","lat":34.92611901552509,"lng":135.7962014024396,"country":"Japan"},"categories":[{"id":"4bf58dd8d48988d113951735","name":"Gas Station \/ Garage","pluralName":"Gas Stations \/ Garages","shortName":"Gas Station \/ Garage","icon":{"prefix":"https:\/\/foursquare.com\/img\/categories_v2\/shops\/gas_","suffix":".png"},"primary":true}],"verified":false,"stats":{"checkinsCount":13,"usersCount":1,"tipCount":0},"likes":{"count":0,"groups":[]},"specials":{"count":0,"items":[]},"hereNow":{"count":0,"groups":[]}},{"id":"4ef5737e29c2683187ceef58","name":"パークノヴァ松ヶ崎","contact":{"twitter":"agriculture301"},"location":{"isFuzzed":true,"lat":35.050070079663634,"lng":135.78527893998063,"city":"京都","state":"京都","country":"Japan"},"categories":[{"id":"4bf58dd8d48988d103941735","name":"Home (private)","pluralName":"Homes (private)","shortName":"Home","icon":{"prefix":"https:\/\/foursquare.com\/img\/categories_v2\/building\/home_","suffix":".png"},"primary":true}],"verified":false,"stats":{"checkinsCount":1,"usersCount":1,"tipCount":0},"likes":{"count":0,"groups":[]},"hereNow":{"count":0,"groups":[]}},{"id":"4d9b3e0c8e3dd7cece7a5cfe","name":"宇治市立木幡幼稚園","contact":{"phone":"+81774399292","formattedPhone":"+81 774-39-9292"},"location":{"address":"木幡檜尾47-1","lat":34.9264954,"lng":135.8002322,"postalCode":"611-0002","city":"宇治市","state":"京都府","country":"Japan"},"categories":[{"id":"4bf58dd8d48988d13b941735","name":"School","pluralName":"Schools","shortName":"School","icon":{"prefix":"https:\/\/foursquare.com\/img\/categories_v2\/building\/school_","suffix":".png"},"primary":true}],"verified":false,"stats":{"checkinsCount":3,"usersCount":1,"tipCount":0},"likes":{"count":0,"groups":[]},"specials":{"count":0,"items":[]},"hereNow":{"count":0,"groups":[]}},{"id":"4b7c8d6ff964a520949a2fe3","name":"セブンイレブン 宇治木幡店","contact":{"phone":"+81774312455","formattedPhone":"+81 774-31-2455"},"location":{"address":"木幡正中46-11","lat":34.928638830974386,"lng":135.7999849319458,"postalCode":"611-0002","city":"宇治市","state":"京都府","country":"Japan"},"categories":[{"id":"4bf58dd8d48988d1ff941735","name":"Miscellaneous Shop","pluralName":"Miscellaneous Shops","shortName":"Other - Shop","icon":{"prefix":"https:\/\/foursquare.com\/img\/categories_v2\/shops\/default_","suffix":".png"},"primary":true}],"verified":false,"stats":{"checkinsCount":113,"usersCount":30,"tipCount":0},"likes":{"count":0,"groups":[]},"specials":{"count":0,"items":[]},"hereNow":{"count":0,"groups":[]}},{"id":"4b70a427f964a52008272de3","name":"ジョリーパスタ 木幡店","contact":{},"location":{"address":"木幡正中46-21","lat":34.92917979583913,"lng":135.79998761415482,"city":"宇治市","state":"京都府","country":"Japan"},"categories":[],"verified":false,"stats":{"checkinsCount":26,"usersCount":15,"tipCount":0},"likes":{"count":0,"groups":[]},"specials":{"count":0,"items":[]},"hereNow":{"count":0,"groups":[]}},{"id":"4b70a45af964a52013272de3","name":"京都三丘園","contact":{},"location":{"lat":34.929376,"lng":135.80003,"country":"Japan"},"categories":[],"verified":false,"stats":{"checkinsCount":5,"usersCount":2,"tipCount":0},"likes":{"count":0,"groups":[]},"specials":{"count":0,"items":[]},"hereNow":{"count":0,"groups":[]}},{"id":"4b7bf620f964a520e9752fe3","name":"JR 木幡駅 (Kowata Sta.)","contact":{},"location":{"address":"木幡大瀬戸","lat":34.924856375354466,"lng":135.79891204833984,"city":"宇治市","state":"京都府","country":"Japan"},"categories":[{"id":"4bf58dd8d48988d12a951735","name":"Train","pluralName":"Trains","shortName":"Train","icon":{"prefix":"https:\/\/foursquare.com\/img\/categories_v2\/travel\/trainstation_","suffix":".png"},"primary":true}],"verified":false,"stats":{"checkinsCount":409,"usersCount":117,"tipCount":0},"likes":{"count":0,"groups":[]},"specials":{"count":0,"items":[]},"hereNow":{"count":0,"groups":[]}},{"id":"4ee216640cd6638ac52ef0be","name":"宇治陵 1号","contact":{},"location":{"address":"木幡","lat":34.92271657178767,"lng":135.799570530653,"city":"宇治市","state":"京都府","country":"Japan"},"categories":[{"id":"4bf58dd8d48988d15c941735","name":"Cemetery","pluralName":"Cemeteries","shortName":"Cemetery","icon":{"prefix":"https:\/\/foursquare.com\/img\/categories_v2\/parks_outdoors\/cemetery_","suffix":".png"},"primary":true}],"verified":false,"stats":{"checkinsCount":0,"usersCount":0,"tipCount":0},"likes":{"count":0,"groups":[]},"specials":{"count":0,"items":[]},"hereNow":{"count":0,"groups":[]}},{"id":"4ee170e99adf48bc19241c29","name":"近藤診療所","contact":{},"location":{"address":"日本","lat":34.92316627347466,"lng":135.7999637775054,"city":"宇治市","state":"京都府","country":"Japan"},"categories":[{"id":"4bf58dd8d48988d177941735","name":"Doctor's Office","pluralName":"Doctor's Offices","shortName":"Doctor's Office","icon":{"prefix":"https:\/\/foursquare.com\/img\/categories_v2\/building\/medical_","suffix":".png"},"primary":true}],"verified":false,"stats":{"checkinsCount":1,"usersCount":1,"tipCount":0},"likes":{"count":0,"groups":[]},"specials":{"count":0,"items":[]},"hereNow":{"count":0,"groups":[]}},{"id":"4ee35cfc7beb6b177aad512a","name":"宇治陵 2号","contact":{},"location":{"address":"木幡","lat":34.922435072406984,"lng":135.80017670989037,"city":"宇治市","state":"京都府","country":"Japan"},"categories":[{"id":"4bf58dd8d48988d15c941735","name":"Cemetery","pluralName":"Cemeteries","shortName":"Cemetery","icon":{"prefix":"https:\/\/foursquare.com\/img\/categories_v2\/parks_outdoors\/cemetery_","suffix":".png"},"primary":true}],"verified":false,"stats":{"checkinsCount":0,"usersCount":0,"tipCount":0},"likes":{"count":0,"groups":[]},"specials":{"count":0,"items":[]},"hereNow":{"count":0,"groups":[]}},{"id":"4ee35d947beb6b177aad66a1","name":"宇治陵 3号","contact":{},"location":{"address":"木幡","lat":34.92226133402605,"lng":135.80038860440254,"city":"宇治市","state":"京都府","country":"Japan"},"categories":[{"id":"4bf58dd8d48988d15c941735","name":"Cemetery","pluralName":"Cemeteries","shortName":"Cemetery","icon":{"prefix":"https:\/\/foursquare.com\/img\/categories_v2\/parks_outdoors\/cemetery_","suffix":".png"},"primary":true}],"verified":false,"stats":{"checkinsCount":0,"usersCount":0,"tipCount":0},"likes":{"count":0,"groups":[]},"specials":{"count":0,"items":[]},"hereNow":{"count":0,"groups":[]}},{"id":"4ee35de37beb6b177aad72e1","name":"宇治陵 4号","contact":{},"location":{"address":"木幡","lat":34.92162135782982,"lng":135.80022230744362,"city":"宇治市","state":"京都府","country":"Japan"},"categories":[{"id":"4bf58dd8d48988d15c941735","name":"Cemetery","pluralName":"Cemeteries","shortName":"Cemetery","icon":{"prefix":"https:\/\/foursquare.com\/img\/categories_v2\/parks_outdoors\/cemetery_","suffix":".png"},"primary":true}],"verified":false,"stats":{"checkinsCount":0,"usersCount":0,"tipCount":0},"likes":{"count":0,"groups":[]},"specials":{"count":0,"items":[]},"hereNow":{"count":0,"groups":[]}},{"id":"4cd5f9287da9a35d4912edb9","name":"真宗大谷派 報恩寺","contact":{},"location":{"lat":34.921828,"lng":135.801183,"country":"Japan"},"categories":[],"verified":false,"stats":{"checkinsCount":1,"usersCount":1,"tipCount":0},"likes":{"count":0,"groups":[]},"specials":{"count":0,"items":[]},"hereNow":{"count":0,"groups":[]}},{"id":"4df471f145dd4e26934438ee","name":"新鮮館コスモ 木幡店","contact":{},"location":{"lat":34.9258457092584,"lng":135.79398290060234,"city":"Uji","state":"Kyoto Prefecture","country":"Japan"},"categories":[],"verified":false,"stats":{"checkinsCount":11,"usersCount":4,"tipCount":0},"likes":{"count":0,"groups":[]},"specials":{"count":0,"items":[]},"hereNow":{"count":0,"groups":[]}},{"id":"4c09d200340720a1458e8593","name":"（株）京都アニメーション 本社","contact":{"phone":"+81774331130","formattedPhone":"+81 774-33-1130"},"location":{"address":"木幡大瀬戸32番地","lat":34.924742019329564,"lng":135.79860091209412,"postalCode":"611-0002","city":"宇治市","state":"京都府","country":"Japan"},"categories":[{"id":"4bf58dd8d48988d124941735","name":"Office","pluralName":"Offices","shortName":"Corporate \/ Office","icon":{"prefix":"https:\/\/foursquare.com\/img\/categories_v2\/building\/default_","suffix":".png"},"primary":true}],"verified":false,"stats":{"checkinsCount":593,"usersCount":236,"tipCount":2},"url":"http:\/\/www.kyotoanimation.co.jp","likes":{"count":0,"groups":[]},"hereNow":{"count":0,"groups":[]}},{"id":"4df2db1918a88611c6ba8fbe","name":"ごんべ","contact":{},"location":{"lat":34.925955,"lng":135.793578,"city":"Uji","state":"Kyoto Prefecture","country":"Japan"},"categories":[{"id":"4d4b7105d754a06374d81259","name":"Food","pluralName":"Food","shortName":"Food","icon":{"prefix":"https:\/\/foursquare.com\/img\/categories_v2\/food\/default_","suffix":".png"},"primary":true}],"verified":false,"stats":{"checkinsCount":5,"usersCount":5,"tipCount":0},"likes":{"count":0,"groups":[]},"specials":{"count":0,"items":[]},"hereNow":{"count":0,"groups":[]}},{"id":"4dd8ce01d1647fcf3e6cbc7e","name":"木幡池","contact":{},"location":{"lat":34.92601751981346,"lng":135.79277515411377,"city":"Uji","state":"Kyoto Prefecture","country":"Japan"},"categories":[{"id":"4bf58dd8d48988d15e941735","name":"Pool","pluralName":"Pools","shortName":"Pool","icon":{"prefix":"https:\/\/foursquare.com\/img\/categories_v2\/parks_outdoors\/pool_","suffix":".png"},"primary":true}],"verified":false,"stats":{"checkinsCount":5,"usersCount":3,"tipCount":0},"likes":{"count":0,"groups":[]},"specials":{"count":0,"items":[]},"hereNow":{"count":0,"groups":[]}},{"id":"4fa20352e4b0b4fd550f88cd","name":"中国料理 遊鈴 (りゅうりん)","contact":{"phone":"+81774333151","formattedPhone":"+81 774-33-3151"},"location":{"address":"木幡西中31-7","crossStreet":"ハイクラスマンション 1F","lat":34.926184652890385,"lng":135.79360127449036,"postalCode":"611-0002","city":"宇治市","state":"京都府","country":"Japan"},"categories":[{"id":"4bf58dd8d48988d145941735","name":"Chinese Restaurant","pluralName":"Chinese Restaurants","shortName":"Chinese","icon":{"prefix":"https:\/\/foursquare.com\/img\/categories_v2\/food\/chinese_","suffix":".png"},"primary":true}],"verified":false,"stats":{"checkinsCount":0,"usersCount":0,"tipCount":1},"likes":{"count":0,"groups":[]},"specials":{"count":0,"items":[]},"hereNow":{"count":0,"groups":[]}},{"id":"4ef6ac0be30093066f8f57c1","name":"コープ東宇治","contact":{},"location":{"address":"五ヶ庄北ノ庄32-1","lat":34.92625380536795,"lng":135.79343176477715,"city":"宇治市","state":"京都府","country":"Japan"},"categories":[{"id":"4bf58dd8d48988d118951735","name":"Grocery Store","pluralName":"Grocery Stores","shortName":"Grocery Store","icon":{"prefix":"https:\/\/foursquare.com\/img\/categories_v2\/shops\/food_grocery_","suffix":".png"},"primary":true}],"verified":false,"stats":{"checkinsCount":2,"usersCount":2,"tipCount":0},"likes":{"count":0,"groups":[]},"specials":{"count":0,"items":[]},"hereNow":{"count":0,"groups":[]}},{"id":"4b70a3fff964a52003272de3","name":"キリン堂 木幡店","contact":{},"location":{"lat":34.926523973818284,"lng":135.792100012136,"country":"Japan"},"categories":[],"verified":false,"stats":{"checkinsCount":9,"usersCount":6,"tipCount":0},"likes":{"count":0,"groups":[]},"specials":{"count":0,"items":[]},"hereNow":{"count":0,"groups":[]}},{"id":"4bdfc388ffdec9288b1deda1","name":"スーパー山田屋 桃山店","contact":{},"location":{"address":"桃山町大島38-2","crossStreet":"ＵＲ都市機構桃山南団地２棟","lat":34.92455020858188,"lng":135.79032884991116,"city":"京都市伏見区","state":"京都府","country":"Japan"},"categories":[{"id":"4bf58dd8d48988d118951735","name":"Grocery Store","pluralName":"Grocery Stores","shortName":"Grocery Store","icon":{"prefix":"https:\/\/foursquare.com\/img\/categories_v2\/shops\/food_grocery_","suffix":".png"},"primary":true}],"verified":false,"stats":{"checkinsCount":9,"usersCount":7,"tipCount":0},"likes":{"count":0,"groups":[]},"specials":{"count":0,"items":[]},"hereNow":{"count":0,"groups":[]}},{"id":"4b58db44f964a5200c6f28e3","name":"京阪 木幡駅 (Kowata Sta.)","contact":{},"location":{"address":"木幡西中23","lat":34.92578387260437,"lng":135.79607963562012,"postalCode":"611-0002","city":"宇治市","state":"京都府","country":"Japan"},"categories":[{"id":"4bf58dd8d48988d129951735","name":"Train Station","pluralName":"Train Stations","shortName":"Train Station","icon":{"prefix":"https:\/\/foursquare.com\/img\/categories_v2\/travel\/trainstation_","suffix":".png"},"primary":true}],"verified":false,"stats":{"checkinsCount":639,"usersCount":173,"tipCount":2},"likes":{"count":0,"groups":[]},"specials":{"count":0,"items":[]},"hereNow":{"count":1,"groups":[{"type":"others","name":"Other people here","count":1,"items":[]}]}},{"id":"4c0f49c3d64c0f47d892295d","name":"京アニショップ","contact":{},"location":{"address":"木幡内畑町34-11 ハイショップビル2F","lat":34.92558649083347,"lng":135.7954627275467,"postalCode":"661-0002","city":"宇治市","state":"京都府","country":"Japan"},"categories":[{"id":"4bf58dd8d48988d1fb941735","name":"Hobby Shop","pluralName":"Hobby Shops","shortName":"Hobbies","icon":{"prefix":"https:\/\/foursquare.com\/img\/categories_v2\/shops\/hobbyshop_","suffix":".png"},"primary":true}],"verified":false,"stats":{"checkinsCount":451,"usersCount":274,"tipCount":3},"likes":{"count":0,"groups":[]},"specials":{"count":0,"items":[]},"hereNow":{"count":0,"groups":[]}},{"id":"4b734b1df964a520d1a62de3","name":"ファミリーマート 宇治木幡店","contact":{"phone":"+81774381708","formattedPhone":"+81 774-38-1708"},"location":{"address":"木幡東中54","lat":34.92612747582344,"lng":135.79937875270844,"city":"宇治市","state":"京都府","country":"Japan"},"categories":[{"id":"4d954b0ea243a5684a65b473","name":"Convenience Store","pluralName":"Convenience Stores","shortName":"Convenience Stores","icon":{"prefix":"https:\/\/foursquare.com\/img\/categories_v2\/shops\/conveniencestore_","suffix":".png"},"primary":true}],"verified":false,"stats":{"checkinsCount":50,"usersCount":17,"tipCount":0},"likes":{"count":0,"groups":[]},"specials":{"count":0,"items":[]},"hereNow":{"count":0,"groups":[]}},{"id":"4ed9956377c8274efc3077f7","name":"木幡郵便局","contact":{},"location":{"lat":34.92487091524697,"lng":135.7972342683202,"country":"Japan"},"categories":[{"id":"4bf58dd8d48988d172941735","name":"Post Office","pluralName":"Post Offices","shortName":"Post Office","icon":{"prefix":"https:\/\/foursquare.com\/img\/categories_v2\/building\/postoffice_","suffix":".png"},"primary":true}],"verified":false,"stats":{"checkinsCount":39,"usersCount":4,"tipCount":0},"likes":{"count":0,"groups":[]},"specials":{"count":0,"items":[]},"hereNow":{"count":0,"groups":[]}},{"id":"4b6e4417f964a52023b52ce3","name":"ドラッグユタカ 宇治木幡店","contact":{},"location":{"lat":34.92582678794861,"lng":135.79607963562012,"country":"Japan"},"categories":[],"verified":false,"stats":{"checkinsCount":31,"usersCount":7,"tipCount":0},"likes":{"count":0,"groups":[]},"specials":{"count":0,"items":[]},"hereNow":{"count":0,"groups":[]}},{"id":"4da78e7443a12d0c263cbaab","name":"コルトバ","contact":{},"location":{"lat":34.925613,"lng":135.796074,"city":"Uji","state":"Kyoto Prefecture","country":"Japan"},"categories":[{"id":"4bf58dd8d48988d16d941735","name":"Café","pluralName":"Cafés","shortName":"Café","icon":{"prefix":"https:\/\/foursquare.com\/img\/categories_v2\/food\/cafe_","suffix":".png"},"primary":true}],"verified":false,"stats":{"checkinsCount":26,"usersCount":8,"tipCount":1},"likes":{"count":0,"groups":[]},"specials":{"count":0,"items":[]},"hereNow":{"count":0,"groups":[]}},{"id":"4f3e25f8e4b02744e45c3aab","name":"京都中央信用金庫 木幡支店","contact":{},"location":{"lat":34.92553849368576,"lng":135.79719721444926,"country":"Japan"},"categories":[{"id":"4bf58dd8d48988d10a951735","name":"Bank","pluralName":"Banks","shortName":"Bank \/ Financial","icon":{"prefix":"https:\/\/foursquare.com\/img\/categories_v2\/shops\/financial_","suffix":".png"},"primary":true}],"verified":false,"stats":{"checkinsCount":8,"usersCount":1,"tipCount":0},"likes":{"count":0,"groups":[]},"specials":{"count":0,"items":[]},"hereNow":{"count":0,"groups":[]}},{"id":"4dd9beb32271c5d36d74117e","name":"京都銀行 木幡支店","contact":{"phone":"+81774327111","formattedPhone":"+81 774-32-7111"},"location":{"address":"木幡内畑3-1","lat":34.9253544819502,"lng":135.79671800136566,"postalCode":"611-0002","city":"宇治市","state":"京都府","country":"Japan"},"categories":[{"id":"4bf58dd8d48988d10a951735","name":"Bank","pluralName":"Banks","shortName":"Bank \/ Financial","icon":{"prefix":"https:\/\/foursquare.com\/img\/categories_v2\/shops\/financial_","suffix":".png"},"primary":true}],"verified":false,"stats":{"checkinsCount":18,"usersCount":5,"tipCount":0},"likes":{"count":0,"groups":[]},"specials":{"count":0,"items":[]},"hereNow":{"count":0,"groups":[]}},{"id":"4ddfab15ae60c015c09b782a","name":"food&bar gigio","contact":{},"location":{"lat":34.925425,"lng":135.7959508895874,"city":"宇治市","state":"京都府","country":"Japan"},"categories":[{"id":"4bf58dd8d48988d147941735","name":"Diner","pluralName":"Diners","shortName":"Diner","icon":{"prefix":"https:\/\/foursquare.com\/img\/categories_v2\/food\/diner_","suffix":".png"},"primary":true}],"verified":false,"stats":{"checkinsCount":32,"usersCount":3,"tipCount":0},"likes":{"count":0,"groups":[]},"specials":{"count":0,"items":[]},"hereNow":{"count":0,"groups":[]}},{"id":"4e6c609ab993061ea8c6ff3c","name":"A rire (ア・リール)","contact":{"phone":"+81774335843","formattedPhone":"+81 774-33-5843"},"location":{"address":"木幡西浦51-51","lat":34.92136404640606,"lng":135.79485587775707,"city":"宇治市","state":"京都府","country":"Japan"},"categories":[{"id":"4bf58dd8d48988d1d0941735","name":"Dessert Shop","pluralName":"Dessert Shops","shortName":"Desserts","icon":{"prefix":"https:\/\/foursquare.com\/img\/categories_v2\/food\/dessert_","suffix":".png"},"primary":true}],"verified":false,"stats":{"checkinsCount":6,"usersCount":3,"tipCount":0},"likes":{"count":0,"groups":[]},"specials":{"count":0,"items":[]},"hereNow":{"count":0,"groups":[]}},{"id":"4d48da3ff53c8cfadd051147","name":"許波多神社","contact":{},"location":{"address":"木幡東中1","lat":34.92679160699087,"lng":135.79889059066772,"city":"宇治市","state":"京都府","country":"Japan"},"categories":[{"id":"4eb1d80a4b900d56c88a45ff","name":"Shrine","pluralName":"Shrines","shortName":"Shrine","icon":{"prefix":"https:\/\/foursquare.com\/img\/categories_v2\/building\/religious_shrine_","suffix":".png"},"primary":true}],"verified":false,"stats":{"checkinsCount":35,"usersCount":27,"tipCount":1},"likes":{"count":0,"groups":[]},"specials":{"count":0,"items":[]},"hereNow":{"count":0,"groups":[]}},{"id":"4e7da44ef79002948141949f","name":"京屋ホルモン","contact":{},"location":{"lat":34.92574368,"lng":135.79577562,"city":"宇治市","state":"京都府","country":"Japan"},"categories":[{"id":"4bf58dd8d48988d113941735","name":"Korean Restaurant","pluralName":"Korean Restaurants","shortName":"Korean","icon":{"prefix":"https:\/\/foursquare.com\/img\/categories_v2\/food\/default_","suffix":".png"},"primary":true}],"verified":false,"stats":{"checkinsCount":6,"usersCount":2,"tipCount":0},"likes":{"count":0,"groups":[]},"specials":{"count":0,"items":[]},"hereNow":{"count":0,"groups":[]}},{"id":"4d4c9ad0cca5f04dcd808080","name":"宇治市立木幡保育所","contact":{},"location":{"lat":34.925647,"lng":135.796425,"country":"Japan"},"categories":[{"id":"4bf58dd8d48988d1a8941735","name":"General College & University","pluralName":"General Colleges & Universities","shortName":"Other - Education","icon":{"prefix":"https:\/\/foursquare.com\/img\/categories_v2\/education\/other_","suffix":".png"},"primary":true}],"verified":false,"stats":{"checkinsCount":5,"usersCount":2,"tipCount":0},"likes":{"count":0,"groups":[]},"specials":{"count":0,"items":[]},"hereNow":{"count":0,"groups":[]}},{"id":"4c0f4f06c6cf76b0371e8251","name":"セブンイレブン 宇治京阪木幡駅前店","contact":{"phone":"+81774330663","formattedPhone":"+81 774-33-0663"},"location":{"address":"木幡内畑34-9","lat":34.92552546486377,"lng":135.79574167728424,"postalCode":"661-0002","city":"京都市","state":"宇治市","country":"Japan"},"categories":[{"id":"4d954b0ea243a5684a65b473","name":"Convenience Store","pluralName":"Convenience Stores","shortName":"Convenience Stores","icon":{"prefix":"https:\/\/foursquare.com\/img\/categories_v2\/shops\/conveniencestore_","suffix":".png"},"primary":true}],"verified":false,"stats":{"checkinsCount":64,"usersCount":17,"tipCount":0},"likes":{"count":0,"groups":[]},"specials":{"count":0,"items":[]},"hereNow":{"count":0,"groups":[]}},{"id":"4ed9f90f6da1642c5c2d8b90","name":"いなかもん","contact":{},"location":{"address":"木幡内畑34-11","lat":34.925773183454375,"lng":135.79553908316288,"city":"京都府宇治市","country":"Japan"},"categories":[{"id":"4bf58dd8d48988d116941735","name":"Bar","pluralName":"Bars","shortName":"Bar","icon":{"prefix":"https:\/\/foursquare.com\/img\/categories_v2\/nightlife\/bar_","suffix":".png"},"primary":true}],"verified":false,"stats":{"checkinsCount":3,"usersCount":2,"tipCount":0},"likes":{"count":0,"groups":[]},"specials":{"count":0,"items":[]},"hereNow":{"count":0,"groups":[]}},{"id":"4b6e444bf964a52035b52ce3","name":"ことぶきや","contact":{},"location":{"lat":34.92527861160435,"lng":135.79633712768555,"country":"Japan"},"categories":[],"verified":false,"stats":{"checkinsCount":41,"usersCount":2,"tipCount":0},"likes":{"count":0,"groups":[]},"specials":{"count":0,"items":[]},"hereNow":{"count":0,"groups":[]}},{"id":"4fc58d19e4b0b745a19786b2","name":"若","contact":{},"location":{"lat":34.92467498779297,"lng":135.79611206054688,"country":"Japan"},"categories":[{"id":"4bf58dd8d48988d111941735","name":"Japanese Restaurant","pluralName":"Japanese Restaurants","shortName":"Japanese","icon":{"prefix":"https:\/\/foursquare.com\/img\/categories_v2\/food\/japanese_","suffix":".png"},"primary":true}],"verified":false,"stats":{"checkinsCount":1,"usersCount":1,"tipCount":0},"likes":{"count":0,"groups":[]},"specials":{"count":0,"items":[]},"hereNow":{"count":0,"groups":[]}},{"id":"4ee747e74fc654475f4af488","name":"宇治陵 37号","contact":{},"location":{"address":"木幡","lat":34.92457928163471,"lng":135.797588378191,"city":"宇治市","state":"京都府","country":"Japan"},"categories":[{"id":"4bf58dd8d48988d15c941735","name":"Cemetery","pluralName":"Cemeteries","shortName":"Cemetery","icon":{"prefix":"https:\/\/foursquare.com\/img\/categories_v2\/parks_outdoors\/cemetery_","suffix":".png"},"primary":true}],"verified":false,"stats":{"checkinsCount":0,"usersCount":0,"tipCount":0},"likes":{"count":0,"groups":[]},"specials":{"count":0,"items":[]},"hereNow":{"count":0,"groups":[]}},{"id":"4ee747a74fc654475f4aee5b","name":"宇治陵 36号","contact":{},"location":{"address":"木幡","lat":34.92683119079799,"lng":135.79831928014755,"city":"宇治市","state":"京都府","country":"Japan"},"categories":[{"id":"4bf58dd8d48988d15c941735","name":"Cemetery","pluralName":"Cemeteries","shortName":"Cemetery","icon":{"prefix":"https:\/\/foursquare.com\/img\/categories_v2\/parks_outdoors\/cemetery_","suffix":".png"},"primary":true}],"verified":false,"stats":{"checkinsCount":0,"usersCount":0,"tipCount":0},"likes":{"count":0,"groups":[]},"specials":{"count":0,"items":[]},"hereNow":{"count":0,"groups":[]}},{"id":"4d9b3ae58e3dd7ce1a5f5cfe","name":"宇治市立木幡中学校","contact":{"phone":"+81774399174","formattedPhone":"+81 774-39-9174"},"location":{"address":"木幡内畑34","lat":34.92522349187698,"lng":135.79898046459726,"postalCode":"611-0002","city":"宇治市","state":"京都府","country":"Japan"},"categories":[{"id":"4bf58dd8d48988d13b941735","name":"School","pluralName":"Schools","shortName":"School","icon":{"prefix":"https:\/\/foursquare.com\/img\/categories_v2\/building\/school_","suffix":".png"},"primary":true}],"verified":false,"stats":{"checkinsCount":3,"usersCount":2,"tipCount":0},"likes":{"count":0,"groups":[]},"specials":{"count":0,"items":[]},"hereNow":{"count":0,"groups":[]}}]}}
