{"meta":{"code":200},"response":{"venues":[{"id":"4e806a9930f83ddc9a59e685","name":"コクラ医院","contact":{},"location":{"lat":34.86920505123324,"lng":135.78148896435673,"country":"Japan"},"categories":[],"verified":false,"stats":{"checkinsCount":13,"usersCount":3,"tipCount":0},"likes":{"count":0,"groups":[]},"specials":{"count":0,"items":[]},"hereNow":{"count":0,"groups":[]}},{"id":"4e3d18cd1495bf24a5d5db9c","name":"居酒屋kaos","contact":{},"location":{"lat":34.86833,"lng":135.785967,"country":"Japan"},"categories":[{"id":"4bf58dd8d48988d116941735","name":"Bar","pluralName":"Bars","shortName":"Bar","icon":{"prefix":"https:\/\/foursquare.com\/img\/categories_v2\/nightlife\/bar_","suffix":".png"},"primary":true}],"verified":false,"stats":{"checkinsCount":6,"usersCount":3,"tipCount":0},"likes":{"count":0,"groups":[]},"specials":{"count":0,"items":[]},"hereNow":{"count":0,"groups":[]}},{"id":"4da8f6c90cb6a89c624b29b5","name":"森田チェロ教室","contact":{},"location":{"lat":34.86907,"lng":135.783112,"city":"Uji","state":"Kyoto Prefecture","country":"Japan"},"categories":[],"verified":false,"stats":{"checkinsCount":23,"usersCount":1,"tipCount":0},"likes":{"count":0,"groups":[]},"specials":{"count":0,"items":[]},"hereNow":{"count":0,"groups":[]}},{"id":"4dac1c6c0cb6a89c628fc59d","name":"合谷整骨院","contact":{},"location":{"lat":34.868203,"lng":135.781845,"city":"Joyo","state":"Kyoto Prefecture","country":"Japan"},"categories":[],"verified":false,"stats":{"checkinsCount":1,"usersCount":1,"tipCount":0},"likes":{"count":0,"groups":[]},"specials":{"count":0,"items":[]},"hereNow":{"count":0,"groups":[]}},{"id":"4da17ae3540ea1cdb48a68de","name":"ほっぺす・トーン","contact":{},"location":{"address":"久世下大谷12-16","lat":34.86531340326562,"lng":135.78369855880737,"city":"城陽市","state":"京都府","country":"Japan"},"categories":[{"id":"4bf58dd8d48988d1d0941735","name":"Dessert Shop","pluralName":"Dessert Shops","shortName":"Desserts","icon":{"prefix":"https:\/\/foursquare.com\/img\/categories_v2\/food\/dessert_","suffix":".png"},"primary":true}],"verified":false,"stats":{"checkinsCount":10,"usersCount":6,"tipCount":0},"likes":{"count":0,"groups":[]},"specials":{"count":0,"items":[]},"hereNow":{"count":0,"groups":[]}},{"id":"4b76b49cf964a520a4592ee3","name":"デイリーヤマザキ 城陽平川店","contact":{"phone":"+81774524577","formattedPhone":"+81 774-52-4577"},"location":{"address":"平川車塚 60-1","lat":34.86479809,"lng":135.78322038,"postalCode":"610-0101","city":"城陽市","state":"京都府","country":"Japan"},"categories":[{"id":"4d954b0ea243a5684a65b473","name":"Convenience Store","pluralName":"Convenience Stores","shortName":"Convenience Stores","icon":{"prefix":"https:\/\/foursquare.com\/img\/categories_v2\/shops\/conveniencestore_","suffix":".png"},"primary":true}],"verified":false,"stats":{"checkinsCount":70,"usersCount":11,"tipCount":0},"likes":{"count":0,"groups":[]},"specials":{"count":0,"items":[]},"hereNow":{"count":0,"groups":[]}},{"id":"4da1760ab1c9370441fdcea1","name":"城陽市第9区投票所","contact":{},"location":{"lat":34.86501,"lng":135.783079,"country":"Japan"},"categories":[{"id":"4bf58dd8d48988d12b941735","name":"Courthouse","pluralName":"Courthouses","shortName":"Courthouse","icon":{"prefix":"https:\/\/foursquare.com\/img\/categories_v2\/building\/government_courthouse_","suffix":".png"},"primary":true}],"verified":false,"stats":{"checkinsCount":2,"usersCount":1,"tipCount":0},"likes":{"count":0,"groups":[]},"specials":{"count":0,"items":[]},"hereNow":{"count":0,"groups":[]}}]}}
