{"meta":{"code":200},"response":{"venues":[{"id":"4cb8300d43ec6dcb06139331","name":"はなび","contact":{},"location":{"lat":34.895423,"lng":135.781607,"country":"Japan"},"categories":[{"id":"4bf58dd8d48988d11a941735","name":"Other Nightlife","pluralName":"Other Nightlife","shortName":"Other - Nightlife","icon":{"prefix":"https:\/\/foursquare.com\/img\/categories_v2\/nightlife\/default_","suffix":".png"},"primary":true}],"verified":false,"stats":{"checkinsCount":2,"usersCount":2,"tipCount":0},"likes":{"count":0,"groups":[]},"specials":{"count":0,"items":[]},"hereNow":{"count":0,"groups":[]}},{"id":"4ed85074d3e346be31d1943a","name":"蝶","contact":{},"location":{"lat":34.89679718017578,"lng":135.77288818359375,"country":"Japan"},"categories":[{"id":"4bf58dd8d48988d153941735","name":"Burrito Place","pluralName":"Burrito Places","shortName":"Burritos","icon":{"prefix":"https:\/\/foursquare.com\/img\/categories_v2\/food\/burrito_","suffix":".png"},"primary":true}],"verified":false,"stats":{"checkinsCount":0,"usersCount":0,"tipCount":0},"likes":{"count":0,"groups":[]},"specials":{"count":0,"items":[]},"hereNow":{"count":0,"groups":[]}},{"id":"4d32b2cdeefa8cfa6fc339b3","name":"新鮮具味","contact":{},"location":{"lat":34.890004,"lng":135.774025,"country":"Japan"},"categories":[],"verified":false,"stats":{"checkinsCount":1,"usersCount":1,"tipCount":0},"likes":{"count":0,"groups":[]},"specials":{"count":0,"items":[]},"hereNow":{"count":0,"groups":[]}},{"id":"4c7656e6ff1fb60c4a8df8a7","name":"新田駅 (Shinden Sta.)","contact":{},"location":{"address":"広野町東裏","lat":34.87426687667083,"lng":135.78055769205093,"city":"宇治市","state":"京都府","country":"Japan"},"categories":[{"id":"4bf58dd8d48988d129951735","name":"Train Station","pluralName":"Train Stations","shortName":"Train Station","icon":{"prefix":"https:\/\/foursquare.com\/img\/categories_v2\/travel\/trainstation_","suffix":".png"},"primary":true}],"verified":false,"stats":{"checkinsCount":358,"usersCount":80,"tipCount":1},"likes":{"count":0,"groups":[]},"specials":{"count":0,"items":[]},"hereNow":{"count":0,"groups":[]}},{"id":"4e58740a14954ed2833a7567","name":"満腹屋","contact":{},"location":{"lat":34.89417,"lng":135.775504,"city":"宇治市","state":"京都府","country":"Japan"},"categories":[{"id":"4bf58dd8d48988d147941735","name":"Diner","pluralName":"Diners","shortName":"Diner","icon":{"prefix":"https:\/\/foursquare.com\/img\/categories_v2\/food\/diner_","suffix":".png"},"primary":true}],"verified":false,"stats":{"checkinsCount":2,"usersCount":1,"tipCount":0},"likes":{"count":0,"groups":[]},"specials":{"count":0,"items":[]},"hereNow":{"count":0,"groups":[]}},{"id":"4e73ed8dd22d80eb3286e1c0","name":"梶村税理士事務所","contact":{},"location":{"lat":34.87569808959961,"lng":135.78363037109375,"country":"Japan"},"categories":[{"id":"4bf58dd8d48988d124941735","name":"Office","pluralName":"Offices","shortName":"Corporate \/ Office","icon":{"prefix":"https:\/\/foursquare.com\/img\/categories_v2\/building\/default_","suffix":".png"},"primary":true}],"verified":false,"stats":{"checkinsCount":2,"usersCount":2,"tipCount":0},"likes":{"count":0,"groups":[]},"hereNow":{"count":0,"groups":[]}},{"id":"4d02c96c347da1cdf370218f","name":"宇治市立大久保小学校","contact":{},"location":{"lat":34.87340623538857,"lng":135.7829984359814,"country":"Japan"},"categories":[{"id":"4bf58dd8d48988d1a8941735","name":"General College & University","pluralName":"General Colleges & Universities","shortName":"Other - Education","icon":{"prefix":"https:\/\/foursquare.com\/img\/categories_v2\/education\/other_","suffix":".png"},"primary":true}],"verified":false,"stats":{"checkinsCount":26,"usersCount":7,"tipCount":0},"likes":{"count":0,"groups":[]},"specials":{"count":0,"items":[]},"hereNow":{"count":0,"groups":[]}},{"id":"4f065e4229c2db4c79a667fe","name":"本家かまどや 城南高校前店","contact":{"phone":"+81774450837","formattedPhone":"+81 774-45-0837"},"location":{"address":"広野町一里山56-3","lat":34.876119116306384,"lng":135.7850960325936,"city":"宇治市","state":"京都府","country":"Japan"},"categories":[{"id":"4bf58dd8d48988d146941735","name":"Deli\/Bodega","pluralName":"Delis\/Bodegas","shortName":"Deli \/ Bodega","icon":{"prefix":"https:\/\/foursquare.com\/img\/categories_v2\/food\/deli_","suffix":".png"},"primary":true}],"verified":false,"stats":{"checkinsCount":2,"usersCount":1,"tipCount":0},"likes":{"count":0,"groups":[]},"specials":{"count":0,"items":[]},"hereNow":{"count":0,"groups":[]}},{"id":"4e6154457d8b8540892be38b","name":"京都工場保険会 宇治支所","contact":{},"location":{"lat":34.87905979156494,"lng":135.77086687088013,"city":"宇治市","state":"京都府","country":"Japan"},"categories":[{"id":"4bf58dd8d48988d196941735","name":"Hospital","pluralName":"Hospitals","shortName":"Hospital","icon":{"prefix":"https:\/\/foursquare.com\/img\/categories_v2\/building\/medical_hospital_","suffix":".png"},"primary":true}],"verified":false,"stats":{"checkinsCount":2,"usersCount":2,"tipCount":0},"likes":{"count":0,"groups":[]},"specials":{"count":0,"items":[]},"hereNow":{"count":0,"groups":[]}},{"id":"4e547815d164a1ac2f36221d","name":"越前そば とまり","contact":{"phone":"+81774430289","formattedPhone":"+81 774-43-0289"},"location":{"address":"伊勢田町中ノ荒51-7","lat":34.880787,"lng":135.76886,"postalCode":"611-0043","city":"宇治市","state":"京都府","country":"Japan"},"categories":[{"id":"4bf58dd8d48988d1d1941735","name":"Ramen \/  Noodle House","pluralName":"Ramen \/  Noodle House","shortName":"Ramen \/ Noodles","icon":{"prefix":"https:\/\/foursquare.com\/img\/categories_v2\/food\/ramen_","suffix":".png"},"primary":true}],"verified":false,"stats":{"checkinsCount":1,"usersCount":1,"tipCount":0},"likes":{"count":0,"groups":[]},"specials":{"count":0,"items":[]},"hereNow":{"count":0,"groups":[]}},{"id":"4ea3acb3d3e32e6868832df0","name":"京都工場保健会診療所宇治支所","contact":{},"location":{"lat":34.87884243822745,"lng":135.77072494591076,"city":"宇治市","state":"京都府","country":"Japan"},"categories":[{"id":"4bf58dd8d48988d130941735","name":"Building","pluralName":"Buildings","shortName":"Other - Buildings","icon":{"prefix":"https:\/\/foursquare.com\/img\/categories_v2\/building\/default_","suffix":".png"},"primary":true}],"verified":false,"stats":{"checkinsCount":21,"usersCount":6,"tipCount":0},"likes":{"count":0,"groups":[]},"specials":{"count":0,"items":[]},"hereNow":{"count":0,"groups":[]}},{"id":"4fae1d78e4b097c37e2bbea3","name":"大和動物病院","contact":{},"location":{"lat":34.875231,"lng":135.782403,"country":"Japan"},"categories":[{"id":"4d954af4a243a5684765b473","name":"Veterinarian","pluralName":"Veterinarians","shortName":"Veterinarians","icon":{"prefix":"https:\/\/foursquare.com\/img\/categories_v2\/building\/medical_veterinarian_","suffix":".png"},"primary":true}],"verified":false,"stats":{"checkinsCount":1,"usersCount":1,"tipCount":0},"likes":{"count":0,"groups":[]},"specials":{"count":0,"items":[]},"hereNow":{"count":0,"groups":[]}},{"id":"4e100f801838f8ad814f3dbe","name":"ランデヴー","contact":{"phone":"+81774456501","formattedPhone":"+81 774-45-6501"},"location":{"address":"日本","lat":34.87421398,"lng":135.78058171,"postalCode":"611-0031","city":"宇治市広野町東裏100-6","state":"京都府","country":"Japan"},"categories":[{"id":"4bf58dd8d48988d110951735","name":"Salon \/ Barbershop","pluralName":"Salons \/ Barbershops","shortName":"Salon \/ Barbershop","icon":{"prefix":"https:\/\/foursquare.com\/img\/categories_v2\/shops\/salon_barber_","suffix":".png"},"primary":true}],"verified":false,"stats":{"checkinsCount":2,"usersCount":2,"tipCount":0},"likes":{"count":0,"groups":[]},"specials":{"count":0,"items":[]},"hereNow":{"count":0,"groups":[]}},{"id":"4e1e983c2271ad66e4a11ac2","name":"業務スーパー 伊勢田店","contact":{},"location":{"lat":34.88689298,"lng":135.7682586,"city":"宇治市","state":"京都府","country":"Japan"},"categories":[{"id":"4d4b7105d754a06378d81259","name":"Shop & Service","pluralName":"Shops & Services","shortName":"Shops","icon":{"prefix":"https:\/\/foursquare.com\/img\/categories_v2\/shops\/default_","suffix":".png"},"primary":true}],"verified":false,"stats":{"checkinsCount":33,"usersCount":8,"tipCount":0},"likes":{"count":0,"groups":[]},"specials":{"count":0,"items":[]},"hereNow":{"count":0,"groups":[]}},{"id":"4e3e94411838cb1b82ff9e95","name":"ローソン 宇治伊勢田店","contact":{"phone":"+81774432395","formattedPhone":"+81 774-43-2395","twitter":"akiko_lawson"},"location":{"address":"伊勢田町浮面41","lat":34.88706183346629,"lng":135.7676388323307,"postalCode":"611-0043","city":"宇治市","state":"京都府","country":"Japan"},"categories":[{"id":"4d954b0ea243a5684a65b473","name":"Convenience Store","pluralName":"Convenience Stores","shortName":"Convenience Stores","icon":{"prefix":"https:\/\/foursquare.com\/img\/categories_v2\/shops\/conveniencestore_","suffix":".png"},"primary":true}],"verified":true,"stats":{"checkinsCount":33,"usersCount":17,"tipCount":0},"likes":{"count":0,"groups":[]},"specials":{"count":0,"items":[]},"hereNow":{"count":0,"groups":[]}},{"id":"4dbfe0b96e8124d25dbf3b32","name":"セブンイレブン 宇治伊勢田町店","contact":{"phone":"+81774437236","formattedPhone":"+81 774-43-7236"},"location":{"address":"伊勢田町名木2-1-181","lat":34.884256,"lng":135.769055,"postalCode":"611-0044","city":"宇治市","state":"京都府","country":"Japan"},"categories":[{"id":"4bf58dd8d48988d1ff941735","name":"Miscellaneous Shop","pluralName":"Miscellaneous Shops","shortName":"Other - Shop","icon":{"prefix":"https:\/\/foursquare.com\/img\/categories_v2\/shops\/default_","suffix":".png"},"primary":true}],"verified":false,"stats":{"checkinsCount":403,"usersCount":10,"tipCount":0},"likes":{"count":0,"groups":[]},"specials":{"count":0,"items":[]},"hereNow":{"count":0,"groups":[]}},{"id":"4f407154e4b0d9886fdb24e4","name":"フードショップ オカモト","contact":{},"location":{"lat":34.873385879496695,"lng":135.7824890997262,"country":"Japan"},"categories":[],"verified":false,"stats":{"checkinsCount":3,"usersCount":1,"tipCount":0},"likes":{"count":0,"groups":[]},"specials":{"count":0,"items":[]},"hereNow":{"count":0,"groups":[]}},{"id":"4d6781ae9792b1f7a40e3e1f","name":"セブンイレブン 宇治伊勢田中山店","contact":{"phone":"+81774467535","formattedPhone":"+81 774-46-7535"},"location":{"address":"伊勢田町中山68","lat":34.88362290324564,"lng":135.77818930149078,"city":"宇治市","state":"京都府","country":"Japan"},"categories":[{"id":"4d954b0ea243a5684a65b473","name":"Convenience Store","pluralName":"Convenience Stores","shortName":"Convenience Stores","icon":{"prefix":"https:\/\/foursquare.com\/img\/categories_v2\/shops\/conveniencestore_","suffix":".png"},"primary":true}],"verified":false,"stats":{"checkinsCount":98,"usersCount":14,"tipCount":1},"likes":{"count":0,"groups":[]},"specials":{"count":0,"items":[]},"hereNow":{"count":0,"groups":[]}},{"id":"4d6f323f7e16a35de1f790f9","name":"宇治税務署","contact":{},"location":{"address":"大久保町井ノ尻56-1","lat":34.87434829541807,"lng":135.77056646347046,"city":"宇治市","state":"京都府","country":"Japan"},"categories":[{"id":"4bf58dd8d48988d126941735","name":"Government Building","pluralName":"Government Buildings","shortName":"Government","icon":{"prefix":"https:\/\/foursquare.com\/img\/categories_v2\/building\/government_","suffix":".png"},"primary":true}],"verified":false,"stats":{"checkinsCount":18,"usersCount":7,"tipCount":0},"likes":{"count":0,"groups":[]},"specials":{"count":0,"items":[]},"hereNow":{"count":0,"groups":[]}},{"id":"4e55a75345dd0a4826e9a1d8","name":"ファミリーマート 宇治伊勢田北山店","contact":{"phone":"+81774285068","formattedPhone":"+81 774-28-5068"},"location":{"address":"伊勢田町北山2-3","lat":34.88771527994312,"lng":135.77647268772125,"city":"宇治市","state":"京都府","country":"Japan"},"categories":[{"id":"4d954b0ea243a5684a65b473","name":"Convenience Store","pluralName":"Convenience Stores","shortName":"Convenience Stores","icon":{"prefix":"https:\/\/foursquare.com\/img\/categories_v2\/shops\/conveniencestore_","suffix":".png"},"primary":true}],"verified":false,"stats":{"checkinsCount":19,"usersCount":5,"tipCount":0},"likes":{"count":0,"groups":[]},"specials":{"count":0,"items":[]},"hereNow":{"count":0,"groups":[]}},{"id":"4ccfe2a02fd9b60cb2c07deb","name":"宇治市産業振興センター","contact":{},"location":{"address":"大久保町西ノ端1番地の25","lat":34.877367333652565,"lng":135.76727271080017,"postalCode":"6110033","city":"宇治市","state":"京都府","country":"Japan"},"categories":[{"id":"4bf58dd8d48988d1ff931735","name":"Convention Center","pluralName":"Convention Centers","shortName":"Convention Center","icon":{"prefix":"https:\/\/foursquare.com\/img\/categories_v2\/building\/conventioncenter_","suffix":".png"},"primary":true}],"verified":false,"stats":{"checkinsCount":12,"usersCount":2,"tipCount":0},"likes":{"count":0,"groups":[]},"specials":{"count":0,"items":[]},"hereNow":{"count":0,"groups":[]}},{"id":"4d8338caf1e56ea8be8f5b8a","name":"栄みどり公園","contact":{},"location":{"lat":34.878303,"lng":135.7668,"country":"Japan"},"categories":[{"id":"4bf58dd8d48988d163941735","name":"Park","pluralName":"Parks","shortName":"Park","icon":{"prefix":"https:\/\/foursquare.com\/img\/categories_v2\/parks_outdoors\/park_","suffix":".png"},"primary":true}],"verified":false,"stats":{"checkinsCount":1,"usersCount":1,"tipCount":0},"likes":{"count":0,"groups":[]},"specials":{"count":0,"items":[]},"hereNow":{"count":0,"groups":[]}},{"id":"4fdaf09fe4b036cbf8c599b7","name":"HILLTOP山本精工","contact":{},"location":{"lat":34.877334,"lng":135.770487,"country":"Japan"},"categories":[{"id":"4bf58dd8d48988d127941735","name":"Conference Room","pluralName":"Conference Rooms","shortName":"Conference room","icon":{"prefix":"https:\/\/foursquare.com\/img\/categories_v2\/building\/office_conferenceroom_","suffix":".png"},"primary":true}],"verified":false,"stats":{"checkinsCount":1,"usersCount":1,"tipCount":0},"likes":{"count":0,"groups":[]},"hereNow":{"count":0,"groups":[]}},{"id":"4c8c42d4509e3704321d3255","name":"ダックス 小倉西店","contact":{"phone":"+81774283166","formattedPhone":"+81 774-28-3166"},"location":{"address":"伊勢田町砂田105","lat":34.88755818932494,"lng":135.766719102794,"postalCode":"611-0043","city":"宇治市","state":"京都府","country":"Japan"},"categories":[{"id":"4bf58dd8d48988d10f951735","name":"Drugstore \/ Pharmacy","pluralName":"Drugstores \/ Pharmacies","shortName":"Pharmacy","icon":{"prefix":"https:\/\/foursquare.com\/img\/categories_v2\/shops\/pharmacy_","suffix":".png"},"primary":true}],"verified":false,"stats":{"checkinsCount":10,"usersCount":3,"tipCount":0},"url":"http:\/\/www.dacs-shimizu.jp","likes":{"count":0,"groups":[]},"specials":{"count":0,"items":[]},"hereNow":{"count":0,"groups":[]}},{"id":"4ee02a6b30f810beca7d31fe","name":"ラーメン四天王 伊勢田店","contact":{"phone":"+81774411227","formattedPhone":"+81 774-41-1227"},"location":{"address":"伊勢田町大谷18-7","lat":34.88325934543429,"lng":135.78005825160005,"postalCode":"611-0043","city":"宇治市","state":"京都府","country":"Japan"},"categories":[{"id":"4bf58dd8d48988d1d1941735","name":"Ramen \/  Noodle House","pluralName":"Ramen \/  Noodle House","shortName":"Ramen \/ Noodles","icon":{"prefix":"https:\/\/foursquare.com\/img\/categories_v2\/food\/ramen_","suffix":".png"},"primary":true}],"verified":false,"stats":{"checkinsCount":29,"usersCount":10,"tipCount":0},"likes":{"count":0,"groups":[]},"specials":{"count":0,"items":[]},"hereNow":{"count":0,"groups":[]}},{"id":"4e328f6a18a846d7ed087279","name":"サンクス 宇治伊勢田店","contact":{"phone":"+81774462812","formattedPhone":"+81 774-46-2812"},"location":{"address":"伊勢田町浮面39-5","lat":34.88691882260151,"lng":135.76636880636215,"postalCode":"611-0043","city":"宇治市","state":"京都府","country":"Japan"},"categories":[{"id":"4d954b0ea243a5684a65b473","name":"Convenience Store","pluralName":"Convenience Stores","shortName":"Convenience Stores","icon":{"prefix":"https:\/\/foursquare.com\/img\/categories_v2\/shops\/conveniencestore_","suffix":".png"},"primary":true}],"verified":false,"stats":{"checkinsCount":19,"usersCount":7,"tipCount":0},"likes":{"count":0,"groups":[]},"specials":{"count":0,"items":[]},"hereNow":{"count":0,"groups":[]}},{"id":"4d67794ba800721ea1ab0fb8","name":"ジャンボなかむら 伊勢田店","contact":{},"location":{"address":"日本","lat":34.88662344235493,"lng":135.77609507724156,"city":"宇治市","state":"京都府","country":"Japan"},"categories":[{"id":"4bf58dd8d48988d118951735","name":"Grocery Store","pluralName":"Grocery Stores","shortName":"Grocery Store","icon":{"prefix":"https:\/\/foursquare.com\/img\/categories_v2\/shops\/food_grocery_","suffix":".png"},"primary":true}],"verified":false,"stats":{"checkinsCount":27,"usersCount":4,"tipCount":0},"likes":{"count":0,"groups":[]},"specials":{"count":0,"items":[]},"hereNow":{"count":0,"groups":[]}},{"id":"4ce353121594236a7ddef649","name":"四天王ラーメン","contact":{},"location":{"address":"京都府宇治市","lat":34.88374850829558,"lng":135.78012307260923,"city":"宇治市","state":"京都府","country":"Japan"},"categories":[{"id":"4bf58dd8d48988d1d1941735","name":"Ramen \/  Noodle House","pluralName":"Ramen \/  Noodle House","shortName":"Ramen \/ Noodles","icon":{"prefix":"https:\/\/foursquare.com\/img\/categories_v2\/food\/ramen_","suffix":".png"},"primary":true}],"verified":false,"stats":{"checkinsCount":11,"usersCount":8,"tipCount":0},"likes":{"count":0,"groups":[]},"specials":{"count":0,"items":[]},"hereNow":{"count":0,"groups":[]}},{"id":"4f50131be4b0e66f251e9cf4","name":"京都中央信用金庫 西小倉支店 南市場出張所(ATM)","contact":{},"location":{"lat":34.89021301269531,"lng":135.76669311523438,"country":"Japan"},"categories":[{"id":"4bf58dd8d48988d10a951735","name":"Bank","pluralName":"Banks","shortName":"Bank \/ Financial","icon":{"prefix":"https:\/\/foursquare.com\/img\/categories_v2\/shops\/financial_","suffix":".png"},"primary":true}],"verified":false,"stats":{"checkinsCount":2,"usersCount":1,"tipCount":0},"likes":{"count":0,"groups":[]},"specials":{"count":0,"items":[]},"hereNow":{"count":0,"groups":[]}},{"id":"4e79556c7d8b5741b87fa21a","name":"シャトレーゼ 宇治伊勢田","contact":{"phone":"+81774208844","formattedPhone":"+81 774-20-8844"},"location":{"address":"伊勢田町砂田2番地","lat":34.88721615661432,"lng":135.77018333692968,"postalCode":"6110043","city":"宇治市","state":"京都府","country":"Japan"},"categories":[{"id":"4bf58dd8d48988d1d0941735","name":"Dessert Shop","pluralName":"Dessert Shops","shortName":"Desserts","icon":{"prefix":"https:\/\/foursquare.com\/img\/categories_v2\/food\/dessert_","suffix":".png"},"primary":true}],"verified":false,"stats":{"checkinsCount":27,"usersCount":7,"tipCount":0},"likes":{"count":0,"groups":[]},"specials":{"count":0,"items":[]},"hereNow":{"count":0,"groups":[]}},{"id":"4e37a987a809a0c63b380f61","name":"Express伊勢田SS","contact":{},"location":{"address":"伊勢田町中ノ田61","lat":34.88706623379664,"lng":135.7707005739212,"city":"宇治市","state":"京都府","country":"Japan"},"categories":[{"id":"4bf58dd8d48988d113951735","name":"Gas Station \/ Garage","pluralName":"Gas Stations \/ Garages","shortName":"Gas Station \/ Garage","icon":{"prefix":"https:\/\/foursquare.com\/img\/categories_v2\/shops\/gas_","suffix":".png"},"primary":true}],"verified":false,"stats":{"checkinsCount":26,"usersCount":2,"tipCount":0},"likes":{"count":0,"groups":[]},"specials":{"count":0,"items":[]},"hereNow":{"count":0,"groups":[]}},{"id":"4e186419d4c062b044e73455","name":"りゅう亭","contact":{"phone":"+81774449811","formattedPhone":"+81 774-44-9811"},"location":{"address":"日本","crossStreet":"伊勢田町毛語149-14","lat":34.88705743313571,"lng":135.7744824886322,"postalCode":"611-0043","city":"宇治市","state":"京都府","country":"Japan"},"categories":[{"id":"4bf58dd8d48988d111941735","name":"Japanese Restaurant","pluralName":"Japanese Restaurants","shortName":"Japanese","icon":{"prefix":"https:\/\/foursquare.com\/img\/categories_v2\/food\/japanese_","suffix":".png"},"primary":true}],"verified":false,"stats":{"checkinsCount":1,"usersCount":1,"tipCount":0},"likes":{"count":0,"groups":[]},"specials":{"count":0,"items":[]},"hereNow":{"count":0,"groups":[]}},{"id":"4f40a67ae4b015f1baa62fd2","name":"西宇治図書館","contact":{},"location":{"lat":34.888791,"lng":135.775523,"country":"Japan"},"categories":[{"id":"4bf58dd8d48988d1f1931735","name":"General Entertainment","pluralName":"General Entertainment","shortName":"Other - Entertainment","icon":{"prefix":"https:\/\/foursquare.com\/img\/categories_v2\/arts_entertainment\/default_","suffix":".png"},"primary":true}],"verified":false,"stats":{"checkinsCount":1,"usersCount":1,"tipCount":0},"likes":{"count":0,"groups":[]},"specials":{"count":0,"items":[]},"hereNow":{"count":0,"groups":[]}},{"id":"4b5cd825f964a520ed4629e3","name":"小倉駅 (Ogura Sta.)","contact":{},"location":{"address":"小倉町神楽田35-4","crossStreet":"近鉄京都線","lat":34.893244065192,"lng":135.78193366527557,"city":"宇治市","state":"京都府","country":"Japan"},"categories":[{"id":"4bf58dd8d48988d129951735","name":"Train Station","pluralName":"Train Stations","shortName":"Train Station","icon":{"prefix":"https:\/\/foursquare.com\/img\/categories_v2\/travel\/trainstation_","suffix":".png"},"primary":true}],"verified":false,"stats":{"checkinsCount":645,"usersCount":165,"tipCount":0},"likes":{"count":0,"groups":[]},"specials":{"count":0,"items":[]},"hereNow":{"count":0,"groups":[]}},{"id":"4d9095da34f2cbffdd68c7e3","name":"CoCo壱番屋 宇治伊勢田店","contact":{"phone":"+81774464649","formattedPhone":"+81 774-46-4649"},"location":{"address":"伊勢田町中ノ田37","lat":34.88621751571935,"lng":135.77012993395329,"city":"宇治市","state":"京都府","country":"Japan"},"categories":[{"id":"4bf58dd8d48988d10f941735","name":"Indian Restaurant","pluralName":"Indian Restaurants","shortName":"Indian","icon":{"prefix":"https:\/\/foursquare.com\/img\/categories_v2\/food\/default_","suffix":".png"},"primary":true}],"verified":false,"stats":{"checkinsCount":16,"usersCount":4,"tipCount":0},"likes":{"count":0,"groups":[]},"specials":{"count":0,"items":[]},"hereNow":{"count":0,"groups":[]}},{"id":"4d60b3979f67f04d57747cfb","name":"京菓子司 与楽","contact":{},"location":{"address":"日本","lat":34.88563453768968,"lng":135.7690492183961,"city":"宇治市","state":"京都府","country":"Japan"},"categories":[{"id":"4bf58dd8d48988d111941735","name":"Japanese Restaurant","pluralName":"Japanese Restaurants","shortName":"Japanese","icon":{"prefix":"https:\/\/foursquare.com\/img\/categories_v2\/food\/japanese_","suffix":".png"},"primary":true}],"verified":false,"stats":{"checkinsCount":9,"usersCount":8,"tipCount":1},"likes":{"count":0,"groups":[]},"specials":{"count":0,"items":[]},"hereNow":{"count":0,"groups":[]}},{"id":"4ec790d84690116a8c2ee2a6","name":"焼肉モリタ屋","contact":{},"location":{"lat":34.89116057397318,"lng":135.78014622299096,"country":"Japan"},"categories":[{"id":"4bf58dd8d48988d1cc941735","name":"Steakhouse","pluralName":"Steakhouses","shortName":"Steakhouse","icon":{"prefix":"https:\/\/foursquare.com\/img\/categories_v2\/food\/steakhouse_","suffix":".png"},"primary":true}],"verified":false,"stats":{"checkinsCount":3,"usersCount":2,"tipCount":1},"likes":{"count":0,"groups":[]},"specials":{"count":0,"items":[]},"hereNow":{"count":0,"groups":[]}},{"id":"4b64fb2df964a5208add2ae3","name":"情熱らーめん熱烈中華まるちゅう","contact":{},"location":{"lat":34.89119884309602,"lng":135.77622933827334,"country":"Japan"},"categories":[{"id":"4bf58dd8d48988d145941735","name":"Chinese Restaurant","pluralName":"Chinese Restaurants","shortName":"Chinese","icon":{"prefix":"https:\/\/foursquare.com\/img\/categories_v2\/food\/chinese_","suffix":".png"},"primary":true}],"verified":false,"stats":{"checkinsCount":6,"usersCount":6,"tipCount":0},"likes":{"count":0,"groups":[]},"specials":{"count":0,"items":[]},"hereNow":{"count":0,"groups":[]}},{"id":"4b5cd752f964a520bc4629e3","name":"大久保駅 (Okubo Sta.)","contact":{},"location":{"address":"広野町西裏81-2","lat":34.874618578192,"lng":135.77700713375657,"city":"宇治市","state":"京都府","country":"Japan"},"categories":[{"id":"4bf58dd8d48988d129951735","name":"Train Station","pluralName":"Train Stations","shortName":"Train Station","icon":{"prefix":"https:\/\/foursquare.com\/img\/categories_v2\/travel\/trainstation_","suffix":".png"},"primary":true}],"verified":false,"stats":{"checkinsCount":2567,"usersCount":467,"tipCount":4},"likes":{"count":0,"groups":[]},"specials":{"count":0,"items":[]},"hereNow":{"count":0,"groups":[]}},{"id":"4c4a67e19c8d2d7f08947969","name":"手打うどん、そば処 いちはた","contact":{},"location":{"lat":34.88653379211307,"lng":135.7689866423607,"country":"Japan"},"categories":[{"id":"4bf58dd8d48988d111941735","name":"Japanese Restaurant","pluralName":"Japanese Restaurants","shortName":"Japanese","icon":{"prefix":"https:\/\/foursquare.com\/img\/categories_v2\/food\/japanese_","suffix":".png"},"primary":true}],"verified":false,"stats":{"checkinsCount":10,"usersCount":4,"tipCount":0},"likes":{"count":0,"groups":[]},"specials":{"count":0,"items":[]},"hereNow":{"count":0,"groups":[]}},{"id":"4c3851b22c8020a161988a00","name":"韓国料理 からくに","contact":{},"location":{"lat":34.89199885592989,"lng":135.77933192253113,"country":"Japan"},"categories":[{"id":"4bf58dd8d48988d113941735","name":"Korean Restaurant","pluralName":"Korean Restaurants","shortName":"Korean","icon":{"prefix":"https:\/\/foursquare.com\/img\/categories_v2\/food\/default_","suffix":".png"},"primary":true}],"verified":false,"stats":{"checkinsCount":1,"usersCount":1,"tipCount":0},"likes":{"count":0,"groups":[]},"specials":{"count":0,"items":[]},"hereNow":{"count":0,"groups":[]}},{"id":"4b7e2679f964a5208fe42fe3","name":"TSUTAYA 小倉店","contact":{"phone":"+81774255167","formattedPhone":"+81 774-25-5167"},"location":{"address":"小倉老ノ木町29","lat":34.89425605881673,"lng":135.78348398208618,"postalCode":"611-0042","city":"宇治市","state":"京都府","country":"Japan"},"categories":[{"id":"4bf58dd8d48988d126951735","name":"Video Store","pluralName":"Video Stores","shortName":"Video Store","icon":{"prefix":"https:\/\/foursquare.com\/img\/categories_v2\/shops\/video_","suffix":".png"},"primary":true}],"verified":false,"stats":{"checkinsCount":213,"usersCount":51,"tipCount":0},"likes":{"count":0,"groups":[]},"specials":{"count":0,"items":[]},"hereNow":{"count":0,"groups":[]}},{"id":"4fd444ece4b0a071e1965a9e","name":"なかよし児童公園","contact":{},"location":{"lat":34.89214324951172,"lng":135.77740478515625,"country":"Japan"},"categories":[{"id":"4bf58dd8d48988d163941735","name":"Park","pluralName":"Parks","shortName":"Park","icon":{"prefix":"https:\/\/foursquare.com\/img\/categories_v2\/parks_outdoors\/park_","suffix":".png"},"primary":true}],"verified":false,"stats":{"checkinsCount":1,"usersCount":1,"tipCount":0},"likes":{"count":0,"groups":[]},"specials":{"count":0,"items":[]},"hereNow":{"count":0,"groups":[]}},{"id":"4d5a5f24fe7c224beee481b5","name":"エスカルゴ","contact":{},"location":{"lat":34.892684,"lng":135.778587,"city":"宇治市","state":"京都府","country":"Japan"},"categories":[{"id":"4bf58dd8d48988d10c941735","name":"French Restaurant","pluralName":"French Restaurants","shortName":"French","icon":{"prefix":"https:\/\/foursquare.com\/img\/categories_v2\/food\/french_","suffix":".png"},"primary":true}],"verified":false,"stats":{"checkinsCount":1,"usersCount":1,"tipCount":0},"likes":{"count":0,"groups":[]},"specials":{"count":0,"items":[]},"hereNow":{"count":0,"groups":[]}},{"id":"4d3bb299fb4c5481e409ce14","name":"京庵(みやこあん)","contact":{},"location":{"address":"日本","lat":34.89274881,"lng":135.77827312,"city":"宇治市","state":"京都府","country":"Japan"},"categories":[{"id":"4bf58dd8d48988d111941735","name":"Japanese Restaurant","pluralName":"Japanese Restaurants","shortName":"Japanese","icon":{"prefix":"https:\/\/foursquare.com\/img\/categories_v2\/food\/japanese_","suffix":".png"},"primary":true}],"verified":false,"stats":{"checkinsCount":5,"usersCount":1,"tipCount":0},"likes":{"count":0,"groups":[]},"specials":{"count":0,"items":[]},"hereNow":{"count":0,"groups":[]}},{"id":"4e3a5f04a809ec55443ad3d6","name":"ADhoc","contact":{"phone":"+81120115236","formattedPhone":"+81 120-115-236"},"location":{"address":"開町25-13","lat":34.881248791316374,"lng":135.78138381242752,"city":"宇治市","state":"京都府","country":"Japan"},"categories":[{"id":"4bf58dd8d48988d110951735","name":"Salon \/ Barbershop","pluralName":"Salons \/ Barbershops","shortName":"Salon \/ Barbershop","icon":{"prefix":"https:\/\/foursquare.com\/img\/categories_v2\/shops\/salon_barber_","suffix":".png"},"primary":true}],"verified":false,"stats":{"checkinsCount":5,"usersCount":3,"tipCount":0},"likes":{"count":0,"groups":[]},"specials":{"count":0,"items":[]},"hereNow":{"count":0,"groups":[]}},{"id":"4dd8e643c65bee535ad64b72","name":"セブンイレブン 宇治開町店","contact":{"phone":"+81774464230","formattedPhone":"+81 774-46-4230"},"location":{"address":"開町26-3","lat":34.88121578649668,"lng":135.78064620494843,"city":"宇治市","state":"京都府","country":"Japan"},"categories":[{"id":"4d954b0ea243a5684a65b473","name":"Convenience Store","pluralName":"Convenience Stores","shortName":"Convenience Stores","icon":{"prefix":"https:\/\/foursquare.com\/img\/categories_v2\/shops\/conveniencestore_","suffix":".png"},"primary":true}],"verified":false,"stats":{"checkinsCount":5,"usersCount":4,"tipCount":0},"likes":{"count":0,"groups":[]},"specials":{"count":0,"items":[]},"hereNow":{"count":0,"groups":[]}},{"id":"4e22a763b61cdcf1eccaab04","name":"Hair Earth","contact":{},"location":{"lat":34.885742,"lng":135.767529,"city":"宇治市","state":"京都府","country":"Japan"},"categories":[{"id":"4bf58dd8d48988d110951735","name":"Salon \/ Barbershop","pluralName":"Salons \/ Barbershops","shortName":"Salon \/ Barbershop","icon":{"prefix":"https:\/\/foursquare.com\/img\/categories_v2\/shops\/salon_barber_","suffix":".png"},"primary":true}],"verified":false,"stats":{"checkinsCount":14,"usersCount":2,"tipCount":0},"likes":{"count":0,"groups":[]},"specials":{"count":0,"items":[]},"hereNow":{"count":0,"groups":[]}},{"id":"4faab0d9e4b026b0359f66b0","name":"染付陶匠耀平","contact":{"phone":"+81774242495","formattedPhone":"+81 774-24-2495"},"location":{"address":"宇治市神明石塚５４ー３１０","lat":34.882983,"lng":135.786499,"postalCode":"611-00２５","city":"宇治市","country":"Japan"},"categories":[{"id":"4bf58dd8d48988d1e2931735","name":"Art Gallery","pluralName":"Art Galleries","shortName":"Art Gallery","icon":{"prefix":"https:\/\/foursquare.com\/img\/categories_v2\/arts_entertainment\/artgallery_","suffix":".png"},"primary":true}],"verified":false,"stats":{"checkinsCount":9,"usersCount":1,"tipCount":1},"likes":{"count":0,"groups":[]},"specials":{"count":0,"items":[]},"hereNow":{"count":0,"groups":[]}},{"id":"4c4a61a446240f470b56baf1","name":"かっぱ寿司 宇治店","contact":{},"location":{"lat":34.893939,"lng":135.78334713,"country":"Japan"},"categories":[{"id":"4bf58dd8d48988d1d2941735","name":"Sushi Restaurant","pluralName":"Sushi Restaurants","shortName":"Sushi","icon":{"prefix":"https:\/\/foursquare.com\/img\/categories_v2\/food\/sushi_","suffix":".png"},"primary":true}],"verified":false,"stats":{"checkinsCount":29,"usersCount":24,"tipCount":0},"likes":{"count":0,"groups":[]},"specials":{"count":0,"items":[]},"hereNow":{"count":0,"groups":[]}}]}}
