{"meta":{"code":200},"response":{"venues":[{"id":"4b570e89f964a520b22428e3","name":"京都駅 (Kyoto Sta.)","contact":{},"location":{"address":"東塩小路高倉町8-3","lat":34.98560085876146,"lng":135.75865745544434,"distance":93,"postalCode":"600-8214","city":"京都市下京区","state":"京都府","country":"Japan"},"categories":[{"id":"4bf58dd8d48988d129951735","name":"Train Station","pluralName":"Train Stations","shortName":"Train Station","icon":{"prefix":"https:\/\/foursquare.com\/img\/categories_v2\/travel\/trainstation_","suffix":".png"},"primary":true}],"verified":false,"stats":{"checkinsCount":87204,"usersCount":20552,"tipCount":95},"likes":{"count":0,"groups":[]},"specials":{"count":0,"items":[]},"hereNow":{"count":8,"groups":[{"type":"others","name":"Other people here","count":8,"items":[]}]}},{"id":"4b716fa3f964a52090462de3","name":"近鉄 京都駅 (Kintetsu Kyoto Sta.)","contact":{"phone":"+81756912560","formattedPhone":"+81 75-691-2560"},"location":{"address":"下京区東塩小路釜殿町31-1","lat":34.984669103469834,"lng":135.7572090625763,"distance":82,"postalCode":"600-8215","city":"京都市","state":"京都府","country":"Japan"},"categories":[{"id":"4bf58dd8d48988d129951735","name":"Train Station","pluralName":"Train Stations","shortName":"Train Station","icon":{"prefix":"https:\/\/foursquare.com\/img\/categories_v2\/travel\/trainstation_","suffix":".png"},"primary":true}],"verified":false,"stats":{"checkinsCount":7442,"usersCount":2274,"tipCount":12},"likes":{"count":0,"groups":[]},"specials":{"count":0,"items":[]},"hereNow":{"count":2,"groups":[{"type":"others","name":"Other people here","count":2,"items":[]}]}},{"id":"4c1d93e0eac020a1218c48c2","name":"JR 京都駅 31・32・33・34番ホーム (嵯峨野・山陰線)","contact":{},"location":{"address":"下京区東塩小路高倉町8-3","lat":34.98542505668788,"lng":135.75709640979767,"distance":58,"postalCode":"600-8214","city":"京都市","state":"京都府","country":"Japan"},"categories":[{"id":"4bf58dd8d48988d129951735","name":"Train Station","pluralName":"Train Stations","shortName":"Train Station","icon":{"prefix":"https:\/\/foursquare.com\/img\/categories_v2\/travel\/trainstation_","suffix":".png"},"primary":true}],"verified":false,"stats":{"checkinsCount":2514,"usersCount":730,"tipCount":12},"likes":{"count":0,"groups":[]},"specials":{"count":0,"items":[]},"hereNow":{"count":1,"groups":[{"type":"others","name":"Other people here","count":1,"items":[]}]}},{"id":"4b5970cbf964a520538828e3","name":"ジェイアール京都伊勢丹","contact":{"phone":"+81753521111","formattedPhone":"+81 75-352-1111"},"location":{"address":"東塩小路町901","crossStreet":"烏丸通塩小路下ル","lat":34.985860166130934,"lng":135.75757384300232,"distance":65,"postalCode":"600-8555","city":"京都市下京区","state":"京都府","country":"Japan"},"categories":[{"id":"4bf58dd8d48988d1f6941735","name":"Department Store","pluralName":"Department Stores","shortName":"Department Store","icon":{"prefix":"https:\/\/foursquare.com\/img\/categories_v2\/shops\/departmentstore_","suffix":".png"},"primary":true}],"verified":false,"stats":{"checkinsCount":4161,"usersCount":2173,"tipCount":11},"url":"http:\/\/kyoto.wjr-isetan.co.jp","likes":{"count":0,"groups":[]},"specials":{"count":0,"items":[]},"hereNow":{"count":0,"groups":[]}},{"id":"4e2bb54fd22d3f83c8929986","name":"時の灯","contact":{},"location":{"address":"東塩小路町","crossStreet":"JR京都駅西口改札外 南北自由通路","lat":34.98535253822253,"lng":135.758056640625,"distance":32,"postalCode":"600-8216","city":"京都市下京区","state":"京都府","country":"Japan"},"categories":[{"id":"4bf58dd8d48988d12d941735","name":"Monument \/ Landmark","pluralName":"Monuments \/ Landmarks","shortName":"Landmark","icon":{"prefix":"https:\/\/foursquare.com\/img\/categories_v2\/building\/government_monument_","suffix":".png"},"primary":true}],"verified":false,"stats":{"checkinsCount":462,"usersCount":113,"tipCount":1},"likes":{"count":0,"groups":[]},"specials":{"count":0,"items":[]},"hereNow":{"count":0,"groups":[]}},{"id":"4b6e4f5ef964a5208fb72ce3","name":"スバコ・ジェイアール京都伊勢丹 (SUVACO)","contact":{"phone":"+81753521111","formattedPhone":"+81 75-352-1111"},"location":{"address":"下京区東塩小路町","crossStreet":"烏丸通塩小路下ル","lat":34.98519651342783,"lng":135.75808882713318,"distance":35,"postalCode":"600-8216","city":"京都市","state":"京都府","country":"Japan"},"categories":[{"id":"4bf58dd8d48988d1fd941735","name":"Mall","pluralName":"Malls","shortName":"Mall","icon":{"prefix":"https:\/\/foursquare.com\/img\/categories_v2\/shops\/mall_","suffix":".png"},"primary":true}],"verified":false,"stats":{"checkinsCount":459,"usersCount":205,"tipCount":1},"url":"http:\/\/kyoto.wjr-isetan.co.jp\/suvaco\/","likes":{"count":0,"groups":[]},"specials":{"count":0,"items":[]},"hereNow":{"count":0,"groups":[]}},{"id":"4c3ab516def90f472fdbfc2d","name":"中村藤吉 京都駅店","contact":{"phone":"+81753422303","formattedPhone":"+81 75-342-2303"},"location":{"address":"東塩小路町901","crossStreet":"スバコ･ジェイアール京都伊勢丹3F","lat":34.98525145176974,"lng":135.7580727338791,"distance":33,"city":"京都市下京区","state":"京都府","country":"Japan"},"categories":[{"id":"4bf58dd8d48988d16d941735","name":"Café","pluralName":"Cafés","shortName":"Café","icon":{"prefix":"https:\/\/foursquare.com\/img\/categories_v2\/food\/cafe_","suffix":".png"},"primary":true}],"verified":false,"stats":{"checkinsCount":496,"usersCount":226,"tipCount":4},"likes":{"count":0,"groups":[]},"specials":{"count":0,"items":[]},"hereNow":{"count":0,"groups":[]}},{"id":"4b9f5813f964a5209c1d37e3","name":"はしたて","contact":{},"location":{"address":"東塩小路町","crossStreet":"スバコ・ジェイアール京都伊勢丹 3F","lat":34.985231673970894,"lng":135.757874250412,"distance":15,"city":"京都市下京区","state":"京都府","country":"Japan"},"categories":[{"id":"4bf58dd8d48988d111941735","name":"Japanese Restaurant","pluralName":"Japanese Restaurants","shortName":"Japanese","icon":{"prefix":"https:\/\/foursquare.com\/img\/categories_v2\/food\/japanese_","suffix":".png"},"primary":true}],"verified":false,"stats":{"checkinsCount":168,"usersCount":126,"tipCount":2},"likes":{"count":0,"groups":[]},"specials":{"count":0,"items":[]},"hereNow":{"count":0,"groups":[]}},{"id":"4ba95029f964a520e71d3ae3","name":"ポータルカフェ","contact":{"phone":"+81753422577","formattedPhone":"+81 75-342-2577"},"location":{"address":"東塩小路町","crossStreet":"烏丸通塩小路下ル スバコ・ジェイアール京都伊勢丹 2F","lat":34.985222883836556,"lng":135.75799763202667,"distance":26,"city":"京都市下京区","state":"京都府","country":"Japan"},"categories":[{"id":"4bf58dd8d48988d16d941735","name":"Café","pluralName":"Cafés","shortName":"Café","icon":{"prefix":"https:\/\/foursquare.com\/img\/categories_v2\/food\/cafe_","suffix":".png"},"primary":true}],"verified":false,"stats":{"checkinsCount":165,"usersCount":137,"tipCount":1},"likes":{"count":0,"groups":[]},"specials":{"count":0,"items":[]},"hereNow":{"count":0,"groups":[]}},{"id":"4b7fd88ef964a520834030e3","name":"近鉄名店街 みやこみち","contact":{"phone":"+81756918384","formattedPhone":"+81 75-691-8384"},"location":{"address":"東塩小路釜殿町31-1","lat":34.98463394268517,"lng":135.75743436813354,"distance":76,"postalCode":"600-8215","city":"京都市下京区","state":"京都府","country":"Japan"},"categories":[{"id":"4bf58dd8d48988d1fd941735","name":"Mall","pluralName":"Malls","shortName":"Mall","icon":{"prefix":"https:\/\/foursquare.com\/img\/categories_v2\/shops\/mall_","suffix":".png"},"primary":true}],"verified":false,"stats":{"checkinsCount":1906,"usersCount":381,"tipCount":0},"likes":{"count":0,"groups":[]},"specials":{"count":0,"items":[]},"hereNow":{"count":0,"groups":[]}},{"id":"4f12cb424fc64b86950738a3","name":"近鉄 京都駅 4番ホーム","contact":{},"location":{"address":"東塩小路釜殿町31-1","lat":34.98473502990038,"lng":135.75767576694489,"distance":61,"postalCode":"600-8215","city":"京都市下京区","state":"京都府","country":"Japan"},"categories":[{"id":"4f4531504b9074f6e4fb0102","name":"Platform","pluralName":"Platforms","shortName":"Platform","icon":{"prefix":"https:\/\/foursquare.com\/img\/categories_v2\/travel\/trainstation_","suffix":".png"},"primary":true}],"verified":false,"stats":{"checkinsCount":234,"usersCount":47,"tipCount":0},"likes":{"count":0,"groups":[]},"specials":{"count":0,"items":[]},"hereNow":{"count":0,"groups":[]}},{"id":"4ce1d279c4f6a35d3c79dd6c","name":"JR 京都駅 11・12番ホーム","contact":{},"location":{"address":"下京区東塩小路高倉町8-3","crossStreet":"新幹線／東京方面","lat":34.98467789366364,"lng":135.75846433639526,"distance":96,"postalCode":"600-8214","city":"京都市","state":"京都府","country":"Japan"},"categories":[{"id":"4bf58dd8d48988d129951735","name":"Train Station","pluralName":"Train Stations","shortName":"Train Station","icon":{"prefix":"https:\/\/foursquare.com\/img\/categories_v2\/travel\/trainstation_","suffix":".png"},"primary":true}],"verified":false,"stats":{"checkinsCount":2767,"usersCount":1546,"tipCount":11},"likes":{"count":0,"groups":[]},"specials":{"count":0,"items":[]},"hereNow":{"count":0,"groups":[]}},{"id":"4c26872d905a0f47e57b6360","name":"JR 京都駅 2・3番ホーム","contact":{},"location":{"address":"東塩小路高倉町8-3","crossStreet":"琵琶湖線\/湖西線","lat":34.98547340229574,"lng":135.7589203119278,"distance":112,"postalCode":"600-8214","city":"京都市下京区","state":"京都府","country":"Japan"},"categories":[{"id":"4bf58dd8d48988d129951735","name":"Train Station","pluralName":"Train Stations","shortName":"Train Station","icon":{"prefix":"https:\/\/foursquare.com\/img\/categories_v2\/travel\/trainstation_","suffix":".png"},"primary":true}],"verified":false,"stats":{"checkinsCount":4056,"usersCount":689,"tipCount":11},"likes":{"count":0,"groups":[]},"specials":{"count":0,"items":[]},"hereNow":{"count":1,"groups":[{"type":"others","name":"Other people here","count":1,"items":[]}]}},{"id":"4b9c0ef2f964a520ac4536e3","name":"BURDIGALA EXPRESS 京都","contact":{"phone":"+81753422316","formattedPhone":"+81 75-342-2316"},"location":{"address":"下京区東塩小路町","crossStreet":"スバコ・ジェイアール京都伊勢丹2F","lat":34.9854755998227,"lng":135.75812369585037,"distance":43,"postalCode":"600-8555","city":"京都市","state":"京都府","country":"Japan"},"categories":[{"id":"4bf58dd8d48988d16a941735","name":"Bakery","pluralName":"Bakeries","shortName":"Bakery","icon":{"prefix":"https:\/\/foursquare.com\/img\/categories_v2\/food\/bakery_","suffix":".png"},"primary":true}],"verified":false,"stats":{"checkinsCount":155,"usersCount":86,"tipCount":0},"likes":{"count":0,"groups":[]},"specials":{"count":0,"items":[]},"hereNow":{"count":0,"groups":[]}},{"id":"4f096132e4b07c8f8d1ad642","name":"JR 京都駅","contact":{},"location":{"address":"烏丸通塩小路下ル東塩小路町901","lat":34.98517893315065,"lng":135.75835704803467,"distance":59,"postalCode":"600-8216","city":"京都市下京区","state":"京都府","country":"Japan"},"categories":[{"id":"4bf58dd8d48988d129951735","name":"Train Station","pluralName":"Train Stations","shortName":"Train Station","icon":{"prefix":"https:\/\/foursquare.com\/img\/categories_v2\/travel\/trainstation_","suffix":".png"},"primary":true}],"verified":false,"stats":{"checkinsCount":114,"usersCount":97,"tipCount":1},"likes":{"count":0,"groups":[]},"specials":{"count":0,"items":[]},"hereNow":{"count":0,"groups":[]}},{"id":"4c671529f7a80f478014a07a","name":"JR 京都駅 新幹線八条口","contact":{},"location":{"address":"東塩小路高倉町8-3","lat":34.98453285534514,"lng":135.75831413269043,"distance":99,"postalCode":"600-8214","city":"京都市下京区","state":"京都府","country":"Japan"},"categories":[{"id":"4bf58dd8d48988d129951735","name":"Train Station","pluralName":"Train Stations","shortName":"Train Station","icon":{"prefix":"https:\/\/foursquare.com\/img\/categories_v2\/travel\/trainstation_","suffix":".png"},"primary":true}],"verified":false,"stats":{"checkinsCount":1985,"usersCount":1266,"tipCount":1},"likes":{"count":0,"groups":[]},"specials":{"count":0,"items":[]},"hereNow":{"count":0,"groups":[]}},{"id":"4bc98349b6c49c74a3928e91","name":"ミスタードーナツ 近鉄京都ショップ","contact":{"phone":"+81756938155","formattedPhone":"+81 75-693-8155"},"location":{"address":"東塩小路殿釜町31-1","lat":34.984589991683094,"lng":135.75783401727676,"distance":78,"postalCode":"600-8215","city":"京都市下京区","state":"京都府","country":"Japan"},"categories":[{"id":"4bf58dd8d48988d148941735","name":"Donut Shop","pluralName":"Donut Shops","shortName":"Donuts","icon":{"prefix":"https:\/\/foursquare.com\/img\/categories_v2\/food\/donuts_","suffix":".png"},"primary":true}],"verified":false,"stats":{"checkinsCount":269,"usersCount":88,"tipCount":3},"likes":{"count":0,"groups":[]},"specials":{"count":0,"items":[]},"hereNow":{"count":0,"groups":[]}},{"id":"4e702417e4cd5c8693de3c87","name":"フィゲラス スバコ・ジェイアール京都伊勢丹","contact":{"phone":"+81753422355","formattedPhone":"+81 75-342-2355"},"location":{"address":"下京区東塩小路町","crossStreet":"スバコ・ジェイアール京都伊勢丹3F","lat":34.98530199501175,"lng":135.75797617435455,"distance":24,"city":"京都市","state":"京都府","country":"Japan"},"categories":[{"id":"4bf58dd8d48988d150941735","name":"Spanish Restaurant","pluralName":"Spanish Restaurants","shortName":"Spanish","icon":{"prefix":"https:\/\/foursquare.com\/img\/categories_v2\/food\/spanish_","suffix":".png"},"primary":true}],"verified":false,"stats":{"checkinsCount":17,"usersCount":12,"tipCount":0},"likes":{"count":0,"groups":[]},"specials":{"count":0,"items":[]},"hereNow":{"count":0,"groups":[]}},{"id":"4e4e4f7752b1e893ad4a1c55","name":"JR京都駅 八条口高速バス乗り場","contact":{},"location":{"address":"東九条室町","lat":34.98432518639635,"lng":135.7578970491886,"distance":108,"postalCode":"601-8001","city":"京都市南区","state":"京都府","country":"Japan"},"categories":[{"id":"4bf58dd8d48988d1fe931735","name":"Bus Station","pluralName":"Bus Stations","shortName":"Bus Station","icon":{"prefix":"https:\/\/foursquare.com\/img\/categories_v2\/travel\/busstation_","suffix":".png"},"primary":true}],"verified":false,"stats":{"checkinsCount":600,"usersCount":387,"tipCount":0},"likes":{"count":0,"groups":[]},"specials":{"count":0,"items":[]},"hereNow":{"count":0,"groups":[]}},{"id":"4bc84ca714d795217ec168e9","name":"近鉄 京都駅 1番ホーム","contact":{"phone":"+81756912560","formattedPhone":"+81 75-691-2560"},"location":{"address":"東塩小路釜殿町31-1","lat":34.98451087981993,"lng":135.7574987411499,"distance":88,"postalCode":"600-8215","city":"京都市下京区","state":"京都府","country":"Japan"},"categories":[{"id":"4f4531504b9074f6e4fb0102","name":"Platform","pluralName":"Platforms","shortName":"Platform","icon":{"prefix":"https:\/\/foursquare.com\/img\/categories_v2\/travel\/trainstation_","suffix":".png"},"primary":true}],"verified":false,"stats":{"checkinsCount":276,"usersCount":125,"tipCount":0},"likes":{"count":0,"groups":[]},"specials":{"count":0,"items":[]},"hereNow":{"count":0,"groups":[]}},{"id":"4b6e4bbef964a520d3b62ce3","name":"The CUBE 京都駅ビル専門店街 (ザ・キューブ)","contact":{"phone":"+81753712134","formattedPhone":"+81 75-371-2134"},"location":{"address":"東塩小路町901","crossStreet":"烏丸通塩小路下ル、京都駅ビル","lat":34.98591070899713,"lng":135.75881034135818,"distance":121,"postalCode":"600-8216","city":"京都市下京区","state":"京都府","country":"Japan"},"categories":[{"id":"4bf58dd8d48988d1f6941735","name":"Department Store","pluralName":"Department Stores","shortName":"Department Store","icon":{"prefix":"https:\/\/foursquare.com\/img\/categories_v2\/shops\/departmentstore_","suffix":".png"},"primary":true}],"verified":false,"stats":{"checkinsCount":791,"usersCount":303,"tipCount":1},"likes":{"count":0,"groups":[]},"specials":{"count":0,"items":[]},"hereNow":{"count":0,"groups":[]}},{"id":"4e27ae2a1f6e88a1545b0b21","name":"京都駅 ATM STATION","contact":{},"location":{"address":"下京区東塩小路町","crossStreet":"京都駅 南北自由通路","lat":34.98475700536544,"lng":135.75814247131348,"distance":70,"postalCode":"600-8214","city":"京都市","state":"京都府","country":"Japan"},"categories":[{"id":"4bf58dd8d48988d10a951735","name":"Bank","pluralName":"Banks","shortName":"Bank \/ Financial","icon":{"prefix":"https:\/\/foursquare.com\/img\/categories_v2\/shops\/financial_","suffix":".png"},"primary":true}],"verified":false,"stats":{"checkinsCount":49,"usersCount":20,"tipCount":0},"likes":{"count":0,"groups":[]},"specials":{"count":0,"items":[]},"hereNow":{"count":0,"groups":[]}},{"id":"4e9ae31c754aab1ca9d3e808","name":"CAFFE CIAO PRESSO 京都駅店","contact":{"phone":"+81756622203","formattedPhone":"+81 75-662-2203"},"location":{"address":"東塩小路釜殿町31-1","crossStreet":"京都駅改札内","lat":34.9846515230794,"lng":135.75714468955994,"distance":87,"postalCode":"600-8215","city":"京都市下京区","state":"京都府","country":"Japan"},"categories":[{"id":"4bf58dd8d48988d16d941735","name":"Café","pluralName":"Cafés","shortName":"Café","icon":{"prefix":"https:\/\/foursquare.com\/img\/categories_v2\/food\/cafe_","suffix":".png"},"primary":true}],"verified":false,"stats":{"checkinsCount":166,"usersCount":33,"tipCount":2},"likes":{"count":0,"groups":[]},"specials":{"count":0,"items":[]},"hereNow":{"count":1,"groups":[{"type":"others","name":"Other people here","count":1,"items":[]}]}},{"id":"4b6561d4f964a52001ef2ae3","name":"博多一幸舎 京都拉麺小路店","contact":{"phone":"+81753610739","formattedPhone":"+81 75-361-0739"},"location":{"address":"東塩小路町901","crossStreet":"烏丸通塩小路下ル \/ 京都駅ビル10Ｆ","lat":34.985743060140585,"lng":135.75845461449848,"distance":84,"postalCode":"600-8711","city":"京都市下京区","state":"京都府","country":"Japan"},"categories":[{"id":"4bf58dd8d48988d1d1941735","name":"Ramen \/  Noodle House","pluralName":"Ramen \/  Noodle House","shortName":"Ramen \/ Noodles","icon":{"prefix":"https:\/\/foursquare.com\/img\/categories_v2\/food\/ramen_","suffix":".png"},"primary":true}],"verified":false,"stats":{"checkinsCount":220,"usersCount":168,"tipCount":3},"likes":{"count":0,"groups":[]},"specials":{"count":0,"items":[]},"hereNow":{"count":0,"groups":[]}},{"id":"4cff66faf7b38cfaadfbc8c3","name":"JR 京都駅 西口","contact":{},"location":{"address":"東塩小路町","crossStreet":"烏丸通塩小路下ル","lat":34.98537231599219,"lng":135.75843214988708,"distance":66,"postalCode":"600-8216","city":"京都市下京区","state":"京都府","country":"Japan"},"categories":[{"id":"4bf58dd8d48988d129951735","name":"Train Station","pluralName":"Train Stations","shortName":"Train Station","icon":{"prefix":"https:\/\/foursquare.com\/img\/categories_v2\/travel\/trainstation_","suffix":".png"},"primary":true}],"verified":false,"stats":{"checkinsCount":148,"usersCount":41,"tipCount":0},"likes":{"count":0,"groups":[]},"specials":{"count":0,"items":[]},"hereNow":{"count":0,"groups":[]}},{"id":"4d9515cddaec224b6548f73d","name":"米屋のおにぎり屋 菊太屋米穀店 スバコ・ジェイアール京都伊勢丹","contact":{"phone":"+81753438558","formattedPhone":"+81 75-343-8558"},"location":{"address":"東塩小路釜殿1-1","crossStreet":"スバコ・ジェイアール京都伊勢丹 2F","lat":34.98516135286968,"lng":135.7580941915512,"distance":37,"city":"京都市下京区","state":"京都府","country":"Japan"},"categories":[{"id":"4bf58dd8d48988d111941735","name":"Japanese Restaurant","pluralName":"Japanese Restaurants","shortName":"Japanese","icon":{"prefix":"https:\/\/foursquare.com\/img\/categories_v2\/food\/japanese_","suffix":".png"},"primary":true}],"verified":false,"stats":{"checkinsCount":18,"usersCount":11,"tipCount":0},"likes":{"count":0,"groups":[]},"specials":{"count":0,"items":[]},"hereNow":{"count":0,"groups":[]}},{"id":"4c0b9ab6a1b32d7f0c379bf0","name":"ファミリーマート 近鉄京都駅店","contact":{"phone":"+81756912581","formattedPhone":"+81 75-691-2581"},"location":{"address":"下京区東塩小路釜殿町31-1","crossStreet":"近鉄京都駅構内","lat":34.98449416047548,"lng":135.75740407659111,"distance":92,"postalCode":"600-8215","city":"京都市","state":"京都府","country":"Japan"},"categories":[{"id":"4d954b0ea243a5684a65b473","name":"Convenience Store","pluralName":"Convenience Stores","shortName":"Convenience Stores","icon":{"prefix":"https:\/\/foursquare.com\/img\/categories_v2\/shops\/conveniencestore_","suffix":".png"},"primary":true}],"verified":false,"stats":{"checkinsCount":256,"usersCount":84,"tipCount":1},"likes":{"count":0,"groups":[]},"specials":{"count":0,"items":[]},"hereNow":{"count":1,"groups":[{"type":"others","name":"Other people here","count":1,"items":[]}]}},{"id":"4b61828df964a52034162ae3","name":"PRONTO 京都駅ビル店","contact":{"phone":"+81753658686","formattedPhone":"+81 75-365-8686"},"location":{"address":"東塩小路町901","crossStreet":"烏丸通塩小路下ル","lat":34.98586807719032,"lng":135.75852870941162,"distance":98,"postalCode":"600-8216","city":"京都市下京区","state":"京都府","country":"Japan"},"categories":[{"id":"4bf58dd8d48988d16d941735","name":"Café","pluralName":"Cafés","shortName":"Café","icon":{"prefix":"https:\/\/foursquare.com\/img\/categories_v2\/food\/cafe_","suffix":".png"},"primary":true}],"verified":false,"stats":{"checkinsCount":257,"usersCount":113,"tipCount":3},"likes":{"count":0,"groups":[]},"specials":{"count":0,"items":[]},"hereNow":{"count":0,"groups":[]}},{"id":"4ebf48b54901f56b0dcf28f5","name":"JEUGIA ハーモニーステーション","contact":{},"location":{"crossStreet":"日本生命京都ヤサカビル2F","lat":34.98544015379201,"lng":135.7581815649732,"distance":46,"city":"京都市","state":"京都府","country":"Japan"},"categories":[{"id":"4bf58dd8d48988d1fe941735","name":"Music Store","pluralName":"Music Stores","shortName":"Music Store","icon":{"prefix":"https:\/\/foursquare.com\/img\/categories_v2\/shops\/music_instruments_","suffix":".png"},"primary":true}],"verified":false,"stats":{"checkinsCount":6,"usersCount":2,"tipCount":0},"likes":{"count":0,"groups":[]},"specials":{"count":0,"items":[]},"hereNow":{"count":0,"groups":[]}},{"id":"4b62741df964a5203a482ae3","name":"cafe COCORA 京都駅店","contact":{"phone":"+81753420003","formattedPhone":"+81 75-342-0003"},"location":{"address":"下京区東塩小路高倉町8-3","crossStreet":"JR京都駅 西口 改札内","lat":34.985038290797185,"lng":135.75850188732147,"distance":76,"postalCode":"600-8214","city":"京都市","state":"京都府","country":"Japan"},"categories":[{"id":"4bf58dd8d48988d16d941735","name":"Café","pluralName":"Cafés","shortName":"Café","icon":{"prefix":"https:\/\/foursquare.com\/img\/categories_v2\/food\/cafe_","suffix":".png"},"primary":true}],"verified":false,"stats":{"checkinsCount":105,"usersCount":58,"tipCount":3},"likes":{"count":0,"groups":[]},"specials":{"count":0,"items":[]},"hereNow":{"count":0,"groups":[]}},{"id":"4dda1f2545ddced820c6bd17","name":"貴和製作所","contact":{},"location":{"lat":34.98568717565154,"lng":135.75821858854596,"distance":64,"country":"Japan"},"categories":[{"id":"4bf58dd8d48988d1fb941735","name":"Hobby Shop","pluralName":"Hobby Shops","shortName":"Hobbies","icon":{"prefix":"https:\/\/foursquare.com\/img\/categories_v2\/shops\/hobbyshop_","suffix":".png"},"primary":true}],"verified":false,"stats":{"checkinsCount":8,"usersCount":5,"tipCount":0},"likes":{"count":0,"groups":[]},"specials":{"count":0,"items":[]},"hereNow":{"count":0,"groups":[]}},{"id":"4bdfdb02ffdec928044feda1","name":"ふたば書房 京都駅八条口店","contact":{"phone":"+81756810880","formattedPhone":"+81 75-681-0880","twitter":"futabaeki"},"location":{"address":"東塩小路釜殿町31-1","crossStreet":"近鉄京都駅1階","lat":34.984436162990065,"lng":135.7573539018631,"distance":99,"postalCode":"600-8215","city":"京都市下京区","state":"京都府","country":"Japan"},"categories":[{"id":"4bf58dd8d48988d114951735","name":"Bookstore","pluralName":"Bookstores","shortName":"Bookstore","icon":{"prefix":"https:\/\/foursquare.com\/img\/categories_v2\/shops\/bookstore_","suffix":".png"},"primary":true}],"verified":false,"stats":{"checkinsCount":161,"usersCount":87,"tipCount":1},"likes":{"count":0,"groups":[]},"specials":{"count":0,"items":[]},"hereNow":{"count":0,"groups":[]}},{"id":"4cff5d3e75d3236a40bfe4f7","name":"京都駅 南遊歩道","contact":{},"location":{"address":"東塩小路高倉町8-3","lat":34.985666784441726,"lng":135.75899809598923,"distance":124,"postalCode":"600-8214","city":"京都市下京区","state":"京都府","country":"Japan"},"categories":[{"id":"4bf58dd8d48988d163941735","name":"Park","pluralName":"Parks","shortName":"Park","icon":{"prefix":"https:\/\/foursquare.com\/img\/categories_v2\/parks_outdoors\/park_","suffix":".png"},"primary":true}],"verified":false,"stats":{"checkinsCount":261,"usersCount":47,"tipCount":0},"likes":{"count":0,"groups":[]},"specials":{"count":0,"items":[]},"hereNow":{"count":0,"groups":[]}},{"id":"4dca0dbfc65bebb82f30beab","name":"麺串 門左衛門","contact":{},"location":{"address":"東塩小路町","crossStreet":"JR京都駅 西口 改札内","lat":34.98555910580314,"lng":135.75848311185837,"distance":76,"postalCode":"600-8216","city":"京都市下京区","state":"京都府","country":"Japan"},"categories":[{"id":"4bf58dd8d48988d1d1941735","name":"Ramen \/  Noodle House","pluralName":"Ramen \/  Noodle House","shortName":"Ramen \/ Noodles","icon":{"prefix":"https:\/\/foursquare.com\/img\/categories_v2\/food\/ramen_","suffix":".png"},"primary":true}],"verified":false,"stats":{"checkinsCount":51,"usersCount":30,"tipCount":2},"likes":{"count":0,"groups":[]},"specials":{"count":0,"items":[]},"hereNow":{"count":0,"groups":[]}},{"id":"4df1f88c45dd4e26933a1ada","name":"グランヴィア テラス","contact":{"phone":"+81753448888","formattedPhone":"+81 75-344-8888"},"location":{"address":"烏丸通塩小路下ル","crossStreet":"京都駅ビル3F","lat":34.985219,"lng":135.75828,"distance":52,"city":"京都市下京区","state":"京都府","country":"Japan"},"categories":[{"id":"4bf58dd8d48988d117941735","name":"Beer Garden","pluralName":"Beer Gardens","shortName":"Beer Garden","icon":{"prefix":"https:\/\/foursquare.com\/img\/categories_v2\/nightlife\/beergarden_","suffix":".png"},"primary":true}],"verified":false,"stats":{"checkinsCount":2,"usersCount":2,"tipCount":0},"likes":{"count":0,"groups":[]},"specials":{"count":0,"items":[]},"hereNow":{"count":0,"groups":[]}},{"id":"4be51145cf200f477fdf123c","name":"Cafe Du Monde JR京都駅ビル店","contact":{},"location":{"address":"東塩小路町901","crossStreet":"京都駅ビル内","lat":34.98590851148186,"lng":135.75818538665771,"distance":81,"city":"京都市下京区","state":"京都府","country":"Japan"},"categories":[{"id":"4bf58dd8d48988d16d941735","name":"Café","pluralName":"Cafés","shortName":"Café","icon":{"prefix":"https:\/\/foursquare.com\/img\/categories_v2\/food\/cafe_","suffix":".png"},"primary":true}],"verified":false,"stats":{"checkinsCount":218,"usersCount":153,"tipCount":2},"likes":{"count":0,"groups":[]},"specials":{"count":0,"items":[]},"hereNow":{"count":0,"groups":[]}},{"id":"4e7a7aa68231499f09acc2e6","name":"タイムズプレイス京都","contact":{},"location":{"lat":34.98455922596762,"lng":135.75742900371552,"distance":84,"city":"京都市","state":"京都府","country":"Japan"},"categories":[{"id":"4d4b7105d754a06378d81259","name":"Shop & Service","pluralName":"Shops & Services","shortName":"Shops","icon":{"prefix":"https:\/\/foursquare.com\/img\/categories_v2\/shops\/default_","suffix":".png"},"primary":true}],"verified":false,"stats":{"checkinsCount":28,"usersCount":5,"tipCount":0},"likes":{"count":0,"groups":[]},"specials":{"count":0,"items":[]},"hereNow":{"count":0,"groups":[]}},{"id":"4dcdd876d22deadedd4420f3","name":"スパイシーマサラ","contact":{"phone":"+81753526555","formattedPhone":"+81 75-352-6555"},"location":{"address":"下京区東塩小路町657","crossStreet":"JR京都駅 改札内外","lat":34.98488006786074,"lng":135.75855016708374,"distance":88,"city":"京都市","state":"京都府","country":"Japan"},"categories":[{"id":"4bf58dd8d48988d10f941735","name":"Indian Restaurant","pluralName":"Indian Restaurants","shortName":"Indian","icon":{"prefix":"https:\/\/foursquare.com\/img\/categories_v2\/food\/default_","suffix":".png"},"primary":true}],"verified":false,"stats":{"checkinsCount":128,"usersCount":78,"tipCount":1},"likes":{"count":0,"groups":[]},"specials":{"count":0,"items":[]},"hereNow":{"count":0,"groups":[]}},{"id":"4ca14711d3c2b60c93a0e4bc","name":"マネケン JR京都駅店","contact":{"phone":"+81753523163","formattedPhone":"+81 75-352-3163"},"location":{"address":"東塩小路町","crossStreet":"JR京都駅西口改札内","lat":34.98501192032899,"lng":135.75846433639526,"distance":74,"postalCode":"600-8216","city":"京都市下京区","state":"京都府","country":"Japan"},"categories":[{"id":"4bf58dd8d48988d1d0941735","name":"Dessert Shop","pluralName":"Dessert Shops","shortName":"Desserts","icon":{"prefix":"https:\/\/foursquare.com\/img\/categories_v2\/food\/dessert_","suffix":".png"},"primary":true}],"verified":false,"stats":{"checkinsCount":47,"usersCount":31,"tipCount":0},"likes":{"count":0,"groups":[]},"specials":{"count":0,"items":[]},"hereNow":{"count":0,"groups":[]}},{"id":"4d9f0648a77d816ed428f808","name":"ベルマート 京都店","contact":{"phone":"+81756933465","formattedPhone":"+81 75-693-3465"},"location":{"address":"下京区東塩小路高倉町8-3","crossStreet":"JR京都駅1F 新幹線八条口 改札外","lat":34.98451087981993,"lng":135.7583463191986,"distance":103,"postalCode":"600-8214","city":"京都市","state":"京都府","country":"Japan"},"categories":[{"id":"4d954b0ea243a5684a65b473","name":"Convenience Store","pluralName":"Convenience Stores","shortName":"Convenience Stores","icon":{"prefix":"https:\/\/foursquare.com\/img\/categories_v2\/shops\/conveniencestore_","suffix":".png"},"primary":true}],"verified":false,"stats":{"checkinsCount":95,"usersCount":60,"tipCount":0},"likes":{"count":0,"groups":[]},"specials":{"count":0,"items":[]},"hereNow":{"count":0,"groups":[]}},{"id":"4e07fa906284d9ee92d91110","name":"グリル＆バー東洋亭","contact":{},"location":{"address":"東塩小路釜殿町","crossStreet":"近鉄名店街みやこみち","lat":34.984616362287184,"lng":135.75741291046143,"distance":79,"city":"京都市下京区","state":"京都府","country":"Japan"},"categories":[{"id":"4bf58dd8d48988d147941735","name":"Diner","pluralName":"Diners","shortName":"Diner","icon":{"prefix":"https:\/\/foursquare.com\/img\/categories_v2\/food\/diner_","suffix":".png"},"primary":true}],"verified":false,"stats":{"checkinsCount":33,"usersCount":29,"tipCount":0},"likes":{"count":0,"groups":[]},"specials":{"count":0,"items":[]},"hereNow":{"count":0,"groups":[]}},{"id":"4f58a0d2e4b01f47e86ccb55","name":"新生銀行 JR京都駅 ATM","contact":{},"location":{"address":"下京区東塩小路町","crossStreet":"京都駅 南北自由通路 ATM STATION","lat":34.98475700536544,"lng":135.75803518295288,"distance":65,"postalCode":"600-8216","city":"京都市","state":"京都府","country":"Japan"},"categories":[{"id":"4bf58dd8d48988d10a951735","name":"Bank","pluralName":"Banks","shortName":"Bank \/ Financial","icon":{"prefix":"https:\/\/foursquare.com\/img\/categories_v2\/shops\/financial_","suffix":".png"},"primary":true}],"verified":false,"stats":{"checkinsCount":4,"usersCount":3,"tipCount":0},"likes":{"count":0,"groups":[]},"specials":{"count":0,"items":[]},"hereNow":{"count":0,"groups":[]}},{"id":"4e7d67b5722e5fdd946ae7bc","name":"JR京都駅 西口 みどりの窓口","contact":{},"location":{"address":"下京区東塩小路町","crossStreet":"烏丸通塩小路下ル","lat":34.98524485917068,"lng":135.7583785057068,"distance":60,"postalCode":"600-8216","city":"京都市","state":"京都府","country":"Japan"},"categories":[{"id":"4bf58dd8d48988d129951735","name":"Train Station","pluralName":"Train Stations","shortName":"Train Station","icon":{"prefix":"https:\/\/foursquare.com\/img\/categories_v2\/travel\/trainstation_","suffix":".png"},"primary":true}],"verified":false,"stats":{"checkinsCount":22,"usersCount":12,"tipCount":0},"likes":{"count":0,"groups":[]},"specials":{"count":0,"items":[]},"hereNow":{"count":0,"groups":[]}},{"id":"4c6e6eac06ed6dcb4093a622","name":"GODIVA アスティ京都店","contact":{"phone":"+81752118111","formattedPhone":"+81 75-211-8111"},"location":{"address":"東塩小路高倉町8-3","crossStreet":"京都駅構内2階 ASTY SQUARE","lat":34.98483873379957,"lng":135.7584083348078,"distance":80,"postalCode":"600-8214","city":"京都市下京区","state":"京都府","country":"Japan"},"categories":[{"id":"4bf58dd8d48988d1f9941735","name":"Food & Drink Shop","pluralName":"Food & Drink Shops","shortName":"Food & Drink","icon":{"prefix":"https:\/\/foursquare.com\/img\/categories_v2\/shops\/foodanddrink_","suffix":".png"},"primary":true}],"verified":false,"stats":{"checkinsCount":34,"usersCount":19,"tipCount":0},"likes":{"count":0,"groups":[]},"specials":{"count":0,"items":[]},"hereNow":{"count":0,"groups":[]}},{"id":"4f589f73e4b098e01d8f1911","name":"りそな銀行 JR京都駅出張所 クイックロビー","contact":{"phone":"+81752211141","formattedPhone":"+81 75-221-1141"},"location":{"address":"下京区東塩小路町","crossStreet":"京都駅 南北自由通路 ATM STATION","lat":34.98475700536544,"lng":135.758056640625,"distance":66,"postalCode":"600-8216","city":"京都市","state":"京都府","country":"Japan"},"categories":[{"id":"4bf58dd8d48988d10a951735","name":"Bank","pluralName":"Banks","shortName":"Bank \/ Financial","icon":{"prefix":"https:\/\/foursquare.com\/img\/categories_v2\/shops\/financial_","suffix":".png"},"primary":true}],"verified":false,"stats":{"checkinsCount":4,"usersCount":2,"tipCount":0},"likes":{"count":0,"groups":[]},"specials":{"count":0,"items":[]},"hereNow":{"count":0,"groups":[]}},{"id":"4f2e5b4ce4b07ca3162dd000","name":"築地 寿司清","contact":{},"location":{"address":"京都駅","lat":34.985885090268965,"lng":135.75799644754102,"distance":71,"country":"Japan"},"categories":[{"id":"4bf58dd8d48988d1d2941735","name":"Sushi Restaurant","pluralName":"Sushi Restaurants","shortName":"Sushi","icon":{"prefix":"https:\/\/foursquare.com\/img\/categories_v2\/food\/sushi_","suffix":".png"},"primary":true}],"verified":false,"stats":{"checkinsCount":5,"usersCount":5,"tipCount":0},"likes":{"count":0,"groups":[]},"specials":{"count":0,"items":[]},"hereNow":{"count":0,"groups":[]}},{"id":"4b7a196ff964a520ed222fe3","name":"おみやげ街道","contact":{},"location":{"lat":34.9849929698044,"lng":135.75844073058653,"distance":73,"country":"Japan"},"categories":[{"id":"4bf58dd8d48988d128951735","name":"Gift Shop","pluralName":"Gift Shops","shortName":"Gift Shop","icon":{"prefix":"https:\/\/foursquare.com\/img\/categories_v2\/shops\/giftshop_","suffix":".png"},"primary":true}],"verified":false,"stats":{"checkinsCount":17,"usersCount":15,"tipCount":1},"likes":{"count":0,"groups":[]},"specials":{"count":0,"items":[]},"hereNow":{"count":0,"groups":[]}},{"id":"4b8b9d51f964a52073a432e3","name":"Juicer Bar JR京都駅店","contact":{"phone":"+81753523555","formattedPhone":"+81 75-352-3555"},"location":{"address":"下京区東塩小路町","crossStreet":"烏丸通塩小路下ル JR京都駅 西口 改札内","lat":34.985000932631415,"lng":135.75851261615753,"distance":79,"postalCode":"600-8216","city":"京都市","state":"京都府","country":"Japan"},"categories":[{"id":"4bf58dd8d48988d112941735","name":"Juice Bar","pluralName":"Juice Bars","shortName":"Juice Bar","icon":{"prefix":"https:\/\/foursquare.com\/img\/categories_v2\/food\/juicebar_","suffix":".png"},"primary":true}],"verified":false,"stats":{"checkinsCount":71,"usersCount":25,"tipCount":2},"likes":{"count":0,"groups":[]},"specials":{"count":0,"items":[]},"hereNow":{"count":0,"groups":[]}},{"id":"4b641759f964a520949e2ae3","name":"551蓬莱 JR京都駅店","contact":{"phone":"+81756618455","formattedPhone":"+81 75-661-8455"},"location":{"address":"下京区東塩小路町901","crossStreet":"京都駅 南北自由通路","lat":34.98454164555358,"lng":135.75814247131348,"distance":91,"postalCode":"600-8216","city":"京都市","state":"京都府","country":"Japan"},"categories":[{"id":"4bf58dd8d48988d1f5931735","name":"Dim Sum Restaurant","pluralName":"Dim Sum Restaurants","shortName":"Dim Sum","icon":{"prefix":"https:\/\/foursquare.com\/img\/categories_v2\/food\/dimsum_","suffix":".png"},"primary":true}],"verified":false,"stats":{"checkinsCount":237,"usersCount":160,"tipCount":2},"likes":{"count":0,"groups":[]},"specials":{"count":0,"items":[]},"hereNow":{"count":0,"groups":[]}},{"id":"4f8fef6ce4b00b6012b6c651","name":"キヨスク 京都8-1号","contact":{"phone":"+81753525461","formattedPhone":"+81 75-352-5461"},"location":{"address":"下京区東塩小路町","crossStreet":"JR京都駅 西口改札付近 改札内","lat":34.98560085876146,"lng":135.7584536075592,"distance":76,"postalCode":"600-8216","city":"京都市","state":"京都府","country":"Japan"},"categories":[{"id":"4d954b0ea243a5684a65b473","name":"Convenience Store","pluralName":"Convenience Stores","shortName":"Convenience Stores","icon":{"prefix":"https:\/\/foursquare.com\/img\/categories_v2\/shops\/conveniencestore_","suffix":".png"},"primary":true}],"verified":false,"stats":{"checkinsCount":2,"usersCount":2,"tipCount":0},"likes":{"count":0,"groups":[]},"specials":{"count":0,"items":[]},"hereNow":{"count":0,"groups":[]}}]}}
