{"meta":{"code":200},"notifications":[{"type":"notificationTray","item":{"unreadCount":23}}],"response":{"venues":[{"id":"4c271b09f1272d7f39b887c5","name":"スペインバル Santres","contact":{},"location":{"lat":34.994994,"lng":135.759813,"distance":20,"country":"Japan"},"categories":[{"id":"4bf58dd8d48988d116941735","name":"Bar","pluralName":"Bars","shortName":"Bar","icon":{"prefix":"https:\/\/foursquare.com\/img\/categories\/nightlife\/bar_","sizes":[32,44,64,88,256],"name":".png"},"primary":true}],"verified":false,"stats":{"checkinsCount":121,"usersCount":40,"tipCount":0},"specials":{"count":0,"items":[]},"hereNow":{"count":0}},{"id":"4ee93bd5722edd10719be16b","name":"第10長谷ビル","contact":{},"location":{"address":"京都市下京区","lat":34.99505545292103,"lng":135.75973657979793,"distance":11,"country":"Japan"},"categories":[{"id":"4bf58dd8d48988d124941735","name":"Office","pluralName":"Offices","shortName":"Corporate \/ Office","icon":{"prefix":"https:\/\/foursquare.com\/img\/categories\/building\/default_","sizes":[32,44,64,88,256],"name":".png"},"primary":true}],"verified":false,"stats":{"checkinsCount":5,"usersCount":3,"tipCount":0},"hereNow":{"count":0}},{"id":"4d049f8bc2e5370473cab967","name":"サントレス","contact":{},"location":{"lat":34.994984,"lng":135.759815,"distance":21,"country":"Japan"},"categories":[{"id":"4bf58dd8d48988d150941735","name":"Spanish Restaurant","pluralName":"Spanish Restaurants","shortName":"Spanish","icon":{"prefix":"https:\/\/foursquare.com\/img\/categories\/food\/default_","sizes":[32,44,64,88,256],"name":".png"},"primary":true}],"verified":false,"stats":{"checkinsCount":58,"usersCount":10,"tipCount":0},"specials":{"count":0,"items":[]},"hereNow":{"count":0}},{"id":"4d2ede97da7cb60c4ca672d4","name":"烏丸五条 バス停","contact":{},"location":{"address":"醍醐町・大坂町・上平野町","crossStreet":"市バス\/京都バス","lat":34.996007119499744,"lng":135.75904369354248,"distance":112,"city":"京都市下京区","state":"京都府","country":"Japan"},"categories":[{"id":"4bf58dd8d48988d1fe931735","name":"Bus Station","pluralName":"Bus Stations","shortName":"Bus Station","icon":{"prefix":"https:\/\/foursquare.com\/img\/categories\/travel\/busstation_","sizes":[32,44,64,88,256],"name":".png"},"primary":true}],"verified":false,"stats":{"checkinsCount":130,"usersCount":49,"tipCount":0},"specials":{"count":0,"items":[]},"hereNow":{"count":0}},{"id":"4e1d3023a809ef911eb9bb9a","name":"MEGATON 烏丸五条店","contact":{"phone":"0753543217","formattedPhone":"075-354-3217"},"location":{"address":"上平野町448","lat":34.99586484781376,"lng":135.76011657714844,"distance":89,"city":"京都市下京区","state":"京都府","country":"Japan"},"categories":[{"id":"4bf58dd8d48988d120941735","name":"Karaoke Bar","pluralName":"Karaoke Bars","shortName":"Karaoke","icon":{"prefix":"https:\/\/foursquare.com\/img\/categories\/nightlife\/karaoke_","sizes":[32,44,64,88,256],"name":".png"},"primary":true}],"verified":false,"stats":{"checkinsCount":21,"usersCount":14,"tipCount":0},"specials":{"count":0,"items":[]},"hereNow":{"count":0}},{"id":"4b7fb99cf964a520d83a30e3","name":"TSUTAYA 烏丸五条店","contact":{"phone":"0753544161","formattedPhone":"075-354-4161"},"location":{"address":"下京区上平野町448 烏丸五条","lat":34.995915384502744,"lng":135.76017826795578,"distance":96,"postalCode":"6008171","city":"京都市","state":"京都府","country":"Japan"},"categories":[{"id":"4bf58dd8d48988d126951735","name":"Video Store","pluralName":"Video Stores","shortName":"Video Store","icon":{"prefix":"https:\/\/foursquare.com\/img\/categories\/shops\/video_","sizes":[32,44,64,88,256],"name":".png"},"primary":true}],"verified":false,"stats":{"checkinsCount":165,"usersCount":66,"tipCount":0},"specials":{"count":0,"items":[]},"hereNow":{"count":0}},{"id":"4f111a8de4b01eefedd4c271","name":"京都五条東洞院郵便局","contact":{"phone":"0753519933","formattedPhone":"075-351-9933"},"location":{"address":"下京区不明門通五条下る上平野町４４７","lat":34.995851,"lng":135.76038,"distance":100,"city":"京都市","state":"京都府","country":"Japan"},"categories":[{"id":"4bf58dd8d48988d172941735","name":"Post Office","pluralName":"Post Offices","shortName":"Post Office","icon":{"prefix":"https:\/\/foursquare.com\/img\/categories\/building\/postoffice_","sizes":[32,44,64,88,256],"name":".png"},"primary":true}],"verified":false,"stats":{"checkinsCount":12,"usersCount":7,"tipCount":0},"specials":{"count":0,"items":[]},"hereNow":{"count":0}},{"id":"4e4a857d62847afcaf16e845","name":"スーバーホテル 京都・烏丸五条","contact":{},"location":{"lat":34.994525,"lng":135.759793,"distance":69,"country":"Japan"},"categories":[{"id":"4bf58dd8d48988d1fa931735","name":"Hotel","pluralName":"Hotels","shortName":"Hotel","icon":{"prefix":"https:\/\/foursquare.com\/img\/categories\/travel\/hotel_","sizes":[32,44,64,88,256],"name":".png"},"primary":true}],"verified":false,"stats":{"checkinsCount":8,"usersCount":7,"tipCount":0},"specials":{"count":0,"items":[]},"hereNow":{"count":0}},{"id":"4b7895edf964a52085d82ee3","name":"マクドナルド 烏丸五条店","contact":{"phone":"0753532225","formattedPhone":"075-353-2225"},"location":{"address":"下京区松屋町411","crossStreet":"五条通烏丸東入ル","lat":34.996477877716785,"lng":135.7599127292633,"distance":149,"postalCode":"600-8105","city":"京都市","state":"京都府","country":"Japan"},"categories":[{"id":"4bf58dd8d48988d16e941735","name":"Fast Food Restaurant","pluralName":"Fast Food Restaurants","shortName":"Fast Food","icon":{"prefix":"https:\/\/foursquare.com\/img\/categories\/food\/fastfood_","sizes":[32,44,64,88,256],"name":".png"},"primary":true}],"verified":false,"stats":{"checkinsCount":393,"usersCount":219,"tipCount":4},"specials":{"count":0,"items":[]},"hereNow":{"count":0}},{"id":"4ee1010d0aafbb3dbb351e36","name":"すき家 烏丸五条店","contact":{},"location":{"address":"下京区上平野町448","crossStreet":"ワオキューブビル1F","lat":34.996264,"lng":135.759787,"distance":124,"city":"京都市","state":"京都府","country":"Japan"},"categories":[{"id":"4bf58dd8d48988d16e941735","name":"Fast Food Restaurant","pluralName":"Fast Food Restaurants","shortName":"Fast Food","icon":{"prefix":"https:\/\/foursquare.com\/img\/categories\/food\/fastfood_","sizes":[32,44,64,88,256],"name":".png"},"primary":true}],"verified":false,"stats":{"checkinsCount":20,"usersCount":15,"tipCount":0},"specials":{"count":0,"items":[]},"hereNow":{"count":0}},{"id":"4c6cfd766af58cfa16328817","name":"スーパーホテル京都・烏丸五条","contact":{"phone":"0753439000","formattedPhone":"075-343-9000"},"location":{"address":"下京区烏丸通五条下る大坂町396番3","lat":34.994357,"lng":135.759774,"distance":88,"city":"京都市","state":"京都府","country":"Japan"},"categories":[{"id":"4bf58dd8d48988d1fa931735","name":"Hotel","pluralName":"Hotels","shortName":"Hotel","icon":{"prefix":"https:\/\/foursquare.com\/img\/categories\/travel\/hotel_","sizes":[32,44,64,88,256],"name":".png"},"primary":true}],"verified":false,"stats":{"checkinsCount":20,"usersCount":15,"tipCount":0},"specials":{"count":0,"items":[]},"hereNow":{"count":0}},{"id":"4ef6c15e0cd689475afdba31","name":"尚徳諏訪神社","contact":{},"location":{"address":"下京区下諏訪町351","crossStreet":"諏訪町通五条下ル","lat":34.99468711439816,"lng":135.75882107019424,"distance":94,"postalCode":"600-8163","city":"京都市","state":"京都府","country":"Japan"},"categories":[{"id":"4eb1d80a4b900d56c88a45ff","name":"Shrine","pluralName":"Shrines","shortName":"Shrine","icon":{"prefix":"https:\/\/foursquare.com\/img\/categories\/building\/religious_","sizes":[32,44,64,88,256],"name":".png"},"primary":true}],"verified":false,"stats":{"checkinsCount":4,"usersCount":3,"tipCount":1},"specials":{"count":0,"items":[]},"hereNow":{"count":0}},{"id":"4f221f9be4b0eec7fbcbf232","name":"Image Design","contact":{},"location":{"lat":34.99553680419922,"lng":135.7604522705078,"distance":82,"country":"Japan"},"categories":[{"id":"4bf58dd8d48988d124941735","name":"Office","pluralName":"Offices","shortName":"Corporate \/ Office","icon":{"prefix":"https:\/\/foursquare.com\/img\/categories\/building\/default_","sizes":[32,44,64,88,256],"name":".png"},"primary":true}],"verified":false,"stats":{"checkinsCount":3,"usersCount":2,"tipCount":0},"hereNow":{"count":0}},{"id":"4bf53989ff90c9b614145628","name":"セブンイレブン 烏丸五条店","contact":{"phone":"0753713770","formattedPhone":"075-371-3770"},"location":{"address":"下京区下万寿寺町500","lat":34.99591099000929,"lng":135.76083540916443,"distance":134,"postalCode":"6008180","city":"京都市","state":"京都府","country":"Japan"},"categories":[{"id":"4d954b0ea243a5684a65b473","name":"Convenience Store","pluralName":"Convenience Stores","shortName":"Convenience Stores","icon":{"prefix":"https:\/\/foursquare.com\/img\/categories\/shops\/default_","sizes":[32,44,64,88,256],"name":".png"},"primary":true}],"verified":false,"stats":{"checkinsCount":181,"usersCount":70,"tipCount":0},"specials":{"count":0,"items":[]},"hereNow":{"count":0}},{"id":"4f140ef1e4b0d3f8a8048c6c","name":"壱壷シアター","contact":{},"location":{"lat":34.99448776245117,"lng":135.7591552734375,"distance":87,"country":"Japan"},"categories":[{"id":"4bf58dd8d48988d135941735","name":"Indie or Off Broadway Theater","pluralName":"Indie or Off Broadway Theaters","shortName":"Indie \/ Off Broadway","icon":{"prefix":"https:\/\/foursquare.com\/img\/categories\/arts_entertainment\/default_","sizes":[32,44,64,88,256],"name":".png"},"primary":true}],"verified":false,"stats":{"checkinsCount":1,"usersCount":1,"tipCount":0},"specials":{"count":0,"items":[]},"hereNow":{"count":0}},{"id":"4e86519d6da1136e7c23782e","name":"嵐山渡月橋","contact":{},"location":{"lat":34.99631841444996,"lng":135.75956996863937,"distance":130,"city":"京都市","state":"京都府","country":"Japan"},"categories":[{"id":"4bf58dd8d48988d1f6931735","name":"General Travel","pluralName":"General Travel","shortName":"Other - Travel","icon":{"prefix":"https:\/\/foursquare.com\/img\/categories\/travel\/default_","sizes":[32,44,64,88,256],"name":".png"},"primary":true}],"verified":false,"stats":{"checkinsCount":28,"usersCount":11,"tipCount":0},"specials":{"count":0,"items":[]},"hereNow":{"count":0}},{"id":"4d8c67720bc3a1430fb598b7","name":"ゆう遊空間京都五条店","contact":{},"location":{"lat":34.996243,"lng":135.75974120789397,"distance":122,"country":"Japan"},"categories":[{"id":"4bf58dd8d48988d18d941735","name":"Gaming Cafe","pluralName":"Gaming Cafes","shortName":"Gaming Cafe","icon":{"prefix":"https:\/\/foursquare.com\/img\/categories\/arts_entertainment\/gamingcafe_","sizes":[32,44,64,88,256],"name":".png"},"primary":true}],"verified":false,"stats":{"checkinsCount":18,"usersCount":12,"tipCount":0},"specials":{"count":0,"items":[]},"hereNow":{"count":0}},{"id":"4bb89226314e95217787489d","name":"シタディーン京都 烏丸五条 Citadines Apart Hotel Kyoto","contact":{},"location":{"address":"松屋町432","crossStreet":"五条通烏丸東入","lat":34.99650424449133,"lng":135.76064229011536,"distance":174,"city":"京都市下京区","state":"京都府","country":"Japan"},"categories":[{"id":"4bf58dd8d48988d1fa931735","name":"Hotel","pluralName":"Hotels","shortName":"Hotel","icon":{"prefix":"https:\/\/foursquare.com\/img\/categories\/travel\/hotel_","sizes":[32,44,64,88,256],"name":".png"},"primary":true}],"verified":false,"stats":{"checkinsCount":200,"usersCount":92,"tipCount":3},"specials":{"count":0,"items":[]},"hereNow":{"count":0}},{"id":"4e65cb0c1838ad3d103df0d0","name":"真宗大谷派 長安寺","contact":{},"location":{"lat":34.99678012668133,"lng":135.75995872891548,"distance":183,"country":"Japan"},"categories":[{"id":"4bf58dd8d48988d13a941735","name":"Temple","pluralName":"Temples","shortName":"Temple","icon":{"prefix":"https:\/\/foursquare.com\/img\/categories\/building\/religious_","sizes":[32,44,64,88,256],"name":".png"},"primary":true}],"verified":false,"stats":{"checkinsCount":32,"usersCount":8,"tipCount":0},"specials":{"count":0,"items":[]},"hereNow":{"count":0}},{"id":"4b8667aaf964a520d48831e3","name":"そば料理 蕎麦の実 よしむら (soba no mi yoshimura)","contact":{"phone":"0753530114","formattedPhone":"075-353-0114"},"location":{"address":"下京区五条烏丸東入ル北側","lat":34.99644861,"lng":135.760086,"distance":149,"city":"京都市","state":"京都府","country":"Japan"},"categories":[{"id":"4bf58dd8d48988d111941735","name":"Japanese Restaurant","pluralName":"Japanese Restaurants","shortName":"Japanese","icon":{"prefix":"https:\/\/foursquare.com\/img\/categories\/food\/default_","sizes":[32,44,64,88,256],"name":".png"},"primary":true}],"verified":false,"stats":{"checkinsCount":73,"usersCount":60,"tipCount":1},"specials":{"count":0,"items":[]},"hereNow":{"count":0}},{"id":"4ed9d104be7be2833707f235","name":"KITTEN COMPANY (キトゥンカンパニー)","contact":{"phone":"0753441591","formattedPhone":"075-344-1591"},"location":{"address":"上諏訪町294","crossStreet":"諏訪町通五条下る","lat":34.99607411750977,"lng":135.7594459868858,"distance":105,"city":"京都市下京区","state":"京都府","country":"Japan"},"categories":[{"id":"4bf58dd8d48988d16d941735","name":"Café","pluralName":"Cafés","shortName":"Café","icon":{"prefix":"https:\/\/foursquare.com\/img\/categories\/food\/cafe_","sizes":[32,44,64,88,256],"name":".png"},"primary":true}],"verified":false,"stats":{"checkinsCount":8,"usersCount":5,"tipCount":1},"specials":{"count":0,"items":[]},"hereNow":{"count":0}},{"id":"4cf6650c81cd6dcb5d317b0d","name":"セブンイレブン 京都烏丸六条店","contact":{"phone":"0753436669","formattedPhone":"075-343-6669"},"location":{"address":"北町182","crossStreet":"烏丸通リ六条下ル","lat":34.994043308930046,"lng":135.75951039791107,"distance":123,"postalCode":"600-8176","city":"京都市下京区","state":"京都府","country":"Japan"},"categories":[{"id":"4d954b0ea243a5684a65b473","name":"Convenience Store","pluralName":"Convenience Stores","shortName":"Convenience Stores","icon":{"prefix":"https:\/\/foursquare.com\/img\/categories\/shops\/default_","sizes":[32,44,64,88,256],"name":".png"},"primary":true}],"verified":false,"stats":{"checkinsCount":51,"usersCount":23,"tipCount":0},"specials":{"count":0,"items":[]},"hereNow":{"count":0}},{"id":"4d0b0d54dd5fa1cdecfe5689","name":"ホテルカンラ京都 Hotel Kanra","contact":{},"location":{"address":"北町185","crossStreet":"烏丸通六条下る","lat":34.994015,"lng":135.759706,"distance":125,"city":"京都市下京区","state":"京都府","country":"Japan"},"categories":[{"id":"4bf58dd8d48988d1fa931735","name":"Hotel","pluralName":"Hotels","shortName":"Hotel","icon":{"prefix":"https:\/\/foursquare.com\/img\/categories\/travel\/hotel_","sizes":[32,44,64,88,256],"name":".png"},"primary":true}],"verified":false,"stats":{"checkinsCount":52,"usersCount":41,"tipCount":2},"specials":{"count":0,"items":[]},"hereNow":{"count":0}},{"id":"4b7fc242f964a520893c30e3","name":"坐・和民 京都五条烏丸店","contact":{"phone":"0753537577","formattedPhone":"075-353-7577"},"location":{"address":"下京区醍醐町284","crossStreet":"YMC烏丸五条ビル2階","lat":34.99657016139054,"lng":135.75921535491943,"distance":164,"city":"京都市","state":"京都府","country":"Japan"},"categories":[{"id":"4bf58dd8d48988d11c941735","name":"Sake Bar","pluralName":"Sake Bars","shortName":"Sake Bar","icon":{"prefix":"https:\/\/foursquare.com\/img\/categories\/nightlife\/sake_","sizes":[32,44,64,88,256],"name":".png"},"primary":true}],"verified":false,"stats":{"checkinsCount":39,"usersCount":32,"tipCount":0},"specials":{"count":0,"items":[]},"hereNow":{"count":0}},{"id":"4ccf8f74de0f6dcbe0136563","name":"書遊","contact":{},"location":{"lat":34.995568,"lng":135.759585,"distance":47,"country":"Japan"},"categories":[],"verified":false,"stats":{"checkinsCount":3,"usersCount":3,"tipCount":0},"specials":{"count":0,"items":[]},"hereNow":{"count":0}},{"id":"4f14e75be4b072566028d57c","name":"壱坪シアター・スワン","contact":{},"location":{"lat":34.996520735198594,"lng":135.75948666327858,"distance":154,"country":"Japan"},"categories":[{"id":"4bf58dd8d48988d135941735","name":"Indie or Off Broadway Theater","pluralName":"Indie or Off Broadway Theaters","shortName":"Indie \/ Off Broadway","icon":{"prefix":"https:\/\/foursquare.com\/img\/categories\/arts_entertainment\/default_","sizes":[32,44,64,88,256],"name":".png"},"primary":true}],"verified":false,"stats":{"checkinsCount":11,"usersCount":5,"tipCount":0},"specials":{"count":0,"items":[]},"hereNow":{"count":0}},{"id":"4d6b2fd22ea9b1f76d1cce28","name":"CoCo壱番屋 烏丸五条店","contact":{"phone":"0753425185","formattedPhone":"075-342-5185"},"location":{"address":"下京区松屋町411","crossStreet":"五条通烏丸東入","lat":34.99651742787542,"lng":135.75990736484528,"distance":153,"city":"京都市","state":"京都府","country":"Japan"},"categories":[{"id":"4bf58dd8d48988d1c4941735","name":"Restaurant","pluralName":"Restaurants","shortName":"Other - Food","icon":{"prefix":"https:\/\/foursquare.com\/img\/categories\/food\/default_","sizes":[32,44,64,88,256],"name":".png"},"primary":true}],"verified":false,"stats":{"checkinsCount":78,"usersCount":54,"tipCount":0},"specials":{"count":0,"items":[]},"hereNow":{"count":0}},{"id":"4c92e8a86cfea0932311b68b","name":"今西軒","contact":{"phone":"0753515825","formattedPhone":"075-351-5825"},"location":{"address":"横諏訪町312","crossStreet":"烏丸五条西入ル一筋目下ル","lat":34.995602,"lng":135.75893524,"distance":85,"city":"京都市下京区","state":"京都府","country":"Japan"},"categories":[{"id":"4bf58dd8d48988d1d0941735","name":"Dessert Shop","pluralName":"Dessert Shops","shortName":"Desserts","icon":{"prefix":"https:\/\/foursquare.com\/img\/categories\/food\/dessert_","sizes":[32,44,64,88,256],"name":".png"},"primary":true}],"verified":false,"stats":{"checkinsCount":11,"usersCount":10,"tipCount":0},"specials":{"count":0,"items":[]},"hereNow":{"count":0}},{"id":"4b9d9f39f964a520c3b636e3","name":"下京税務署","contact":{"phone":"0753519161","formattedPhone":"075-351-9161"},"location":{"address":"大津町8","crossStreet":"間之町五条下ル","lat":34.9952725668382,"lng":135.76198588745493,"distance":210,"postalCode":"600-8181","city":"京都市下京区","state":"京都府","country":"Japan"},"categories":[{"id":"4bf58dd8d48988d130941735","name":"Building","pluralName":"Buildings","shortName":"Other - Buildings","icon":{"prefix":"https:\/\/foursquare.com\/img\/categories\/building\/default_","sizes":[32,44,64,88,256],"name":".png"},"primary":true}],"verified":false,"stats":{"checkinsCount":28,"usersCount":17,"tipCount":0},"specials":{"count":0,"items":[]},"hereNow":{"count":0}},{"id":"4cc1aa4d873c236ad63dba23","name":"ローソン 烏丸五条店","contact":{"phone":"0753418325","formattedPhone":"075-341-8325","twitter":"akiko_lawson"},"location":{"address":"下京区醍醐町290","crossStreet":"烏丸通五条西入","lat":34.99649985002951,"lng":135.7594245672226,"distance":152,"city":"京都市","state":"京都府","country":"Japan"},"categories":[{"id":"4d954b0ea243a5684a65b473","name":"Convenience Store","pluralName":"Convenience Stores","shortName":"Convenience Stores","icon":{"prefix":"https:\/\/foursquare.com\/img\/categories\/shops\/default_","sizes":[32,44,64,88,256],"name":".png"},"primary":true}],"verified":true,"stats":{"checkinsCount":70,"usersCount":34,"tipCount":1},"specials":{"count":0,"items":[]},"hereNow":{"count":0}}]}}
