{"meta":{"code":200},"notifications":[{"type":"notificationTray","item":{"unreadCount":23}}],"response":{"venues":[{"id":"4b570e89f964a520b22428e3","name":"京都駅 (Kyoto Sta.)","contact":{},"location":{"address":"東塩小路高倉町8-3","lat":34.98560085876146,"lng":135.75865745544434,"distance":44,"postalCode":"600-8214","city":"京都市下京区","state":"京都府","country":"Japan"},"categories":[{"id":"4bf58dd8d48988d129951735","name":"Train Station","pluralName":"Train Stations","shortName":"Train Station","icon":{"prefix":"https:\/\/foursquare.com\/img\/categories\/travel\/trainstation_","sizes":[32,44,64,88,256],"name":".png"},"primary":true}],"verified":false,"stats":{"checkinsCount":73326,"usersCount":17948,"tipCount":84},"specials":{"count":0,"items":[]},"hereNow":{"count":10}},{"id":"4c26872d905a0f47e57b6360","name":"JR 京都駅 2・3番ホーム","contact":{},"location":{"address":"東塩小路高倉町8-3","crossStreet":"琵琶湖線\/湖西線","lat":34.98547340229574,"lng":135.7589203119278,"distance":57,"postalCode":"600-8214","city":"京都市下京区","state":"京都府","country":"Japan"},"categories":[{"id":"4bf58dd8d48988d129951735","name":"Train Station","pluralName":"Train Stations","shortName":"Train Station","icon":{"prefix":"https:\/\/foursquare.com\/img\/categories\/travel\/trainstation_","sizes":[32,44,64,88,256],"name":".png"},"primary":true}],"verified":false,"stats":{"checkinsCount":3382,"usersCount":576,"tipCount":11},"specials":{"count":0,"items":[]},"hereNow":{"count":2}},{"id":"4ce1d279c4f6a35d3c79dd6c","name":"JR 京都駅 11・12番ホーム","contact":{},"location":{"address":"下京区東塩小路高倉町8-3","crossStreet":"新幹線／東京方面","lat":34.98467789366364,"lng":135.75846433639526,"distance":72,"city":"京都市","state":"京都府","country":"Japan"},"categories":[{"id":"4bf58dd8d48988d129951735","name":"Train Station","pluralName":"Train Stations","shortName":"Train Station","icon":{"prefix":"https:\/\/foursquare.com\/img\/categories\/travel\/trainstation_","sizes":[32,44,64,88,256],"name":".png"},"primary":true}],"verified":false,"stats":{"checkinsCount":2317,"usersCount":1339,"tipCount":7},"specials":{"count":0,"items":[]},"hereNow":{"count":1}},{"id":"4b9c0ef2f964a520ac4536e3","name":"BURDIGALA EXPRESS 京都","contact":{"phone":"0753422316","formattedPhone":"075-342-2316"},"location":{"address":"下京区東塩小路町","crossStreet":"スバコ・ジェイアール京都伊勢丹2F","lat":34.9854755998227,"lng":135.75812369585037,"distance":24,"postalCode":"600-8555","city":"京都市","state":"京都府","country":"Japan"},"categories":[{"id":"4bf58dd8d48988d16a941735","name":"Bakery","pluralName":"Bakeries","shortName":"Bakery","icon":{"prefix":"https:\/\/foursquare.com\/img\/categories\/food\/bakery_","sizes":[32,44,64,88,256],"name":".png"},"primary":true}],"verified":false,"stats":{"checkinsCount":128,"usersCount":72,"tipCount":0},"specials":{"count":0,"items":[]},"hereNow":{"count":0}},{"id":"4b5970cbf964a520538828e3","name":"ジェイアール京都伊勢丹","contact":{"phone":"0753521111","formattedPhone":"075-352-1111"},"location":{"address":"東塩小路町901","crossStreet":"烏丸通塩小路下ル","lat":34.985860166130934,"lng":135.75757384300232,"distance":90,"postalCode":"600-8555","city":"京都市下京区","state":"京都府","country":"Japan"},"categories":[{"id":"4bf58dd8d48988d1f6941735","name":"Department Store","pluralName":"Department Stores","shortName":"Department Store","icon":{"prefix":"https:\/\/foursquare.com\/img\/categories\/shops\/default_","sizes":[32,44,64,88,256],"name":".png"},"primary":true}],"verified":false,"stats":{"checkinsCount":3490,"usersCount":1846,"tipCount":9},"url":"http:\/\/kyoto.wjr-isetan.co.jp","specials":{"count":0,"items":[]},"hereNow":{"count":0}},{"id":"4ba95029f964a520e71d3ae3","name":"ポータルカフェ","contact":{"phone":"0753422577","formattedPhone":"075-342-2577"},"location":{"address":"東塩小路町","crossStreet":"烏丸通塩小路下ル スバコ・ジェイアール京都伊勢丹 2F","lat":34.985222883836556,"lng":135.75799763202667,"distance":30,"city":"京都市下京区","state":"京都府","country":"Japan"},"categories":[{"id":"4bf58dd8d48988d16d941735","name":"Café","pluralName":"Cafés","shortName":"Café","icon":{"prefix":"https:\/\/foursquare.com\/img\/categories\/food\/cafe_","sizes":[32,44,64,88,256],"name":".png"},"primary":true}],"verified":false,"stats":{"checkinsCount":129,"usersCount":104,"tipCount":1},"specials":{"count":0,"items":[]},"hereNow":{"count":0}},{"id":"4b716fa3f964a52090462de3","name":"近鉄 京都駅 (Kintetsu Kyoto Sta.)","contact":{"phone":"0756912560","formattedPhone":"075-691-2560"},"location":{"address":"下京区東塩小路釜殿町31-1","lat":34.984669103469834,"lng":135.7572090625763,"distance":124,"postalCode":"600-8215","city":"京都市","state":"京都府","country":"Japan"},"categories":[{"id":"4bf58dd8d48988d129951735","name":"Train Station","pluralName":"Train Stations","shortName":"Train Station","icon":{"prefix":"https:\/\/foursquare.com\/img\/categories\/travel\/trainstation_","sizes":[32,44,64,88,256],"name":".png"},"primary":true}],"verified":false,"stats":{"checkinsCount":5901,"usersCount":1904,"tipCount":10},"specials":{"count":0,"items":[]},"hereNow":{"count":3}},{"id":"4c626c2386b6be9a09078c34","name":"京都拉麺小路","contact":{},"location":{"address":"東塩小路町901","crossStreet":"JR京都伊勢丹10F \/ 烏丸通塩小路下る","lat":34.98577226541974,"lng":135.75774550437927,"distance":72,"city":"京都市下京区","state":"京都府","country":"Japan"},"categories":[{"id":"4bf58dd8d48988d1d1941735","name":"Ramen or Noodle House","pluralName":"Ramen or Noodle House","shortName":"Ramen \/ Noodles","icon":{"prefix":"https:\/\/foursquare.com\/img\/categories\/food\/ramen_","sizes":[32,44,64,88,256],"name":".png"},"primary":true}],"verified":false,"stats":{"checkinsCount":588,"usersCount":387,"tipCount":3},"url":"http:\/\/www.kyoto-ramen-koji.com","specials":{"count":0,"items":[]},"hereNow":{"count":0}},{"id":"4b6e4bbef964a520d3b62ce3","name":"The CUBE 京都駅ビル専門店街 (ザ・キューブ)","contact":{"phone":"0753712134","formattedPhone":"075-371-2134"},"location":{"address":"東塩小路町901","crossStreet":"烏丸通塩小路下ル、京都駅ビル","lat":34.98591070899713,"lng":135.75881034135818,"distance":79,"postalCode":"600-8216","city":"京都市下京区","state":"京都府","country":"Japan"},"categories":[{"id":"4bf58dd8d48988d1f6941735","name":"Department Store","pluralName":"Department Stores","shortName":"Department Store","icon":{"prefix":"https:\/\/foursquare.com\/img\/categories\/shops\/default_","sizes":[32,44,64,88,256],"name":".png"},"primary":true}],"verified":false,"stats":{"checkinsCount":654,"usersCount":264,"tipCount":1},"specials":{"count":0,"items":[]},"hereNow":{"count":0}},{"id":"4c671529f7a80f478014a07a","name":"JR 京都駅 新幹線八条口","contact":{},"location":{"address":"東塩小路高倉町8-3","lat":34.98453285534514,"lng":135.75831413269043,"distance":87,"postalCode":"600-8214","city":"京都市下京区","state":"京都府","country":"Japan"},"categories":[{"id":"4bf58dd8d48988d129951735","name":"Train Station","pluralName":"Train Stations","shortName":"Train Station","icon":{"prefix":"https:\/\/foursquare.com\/img\/categories\/travel\/trainstation_","sizes":[32,44,64,88,256],"name":".png"},"primary":true}],"verified":false,"stats":{"checkinsCount":1822,"usersCount":1178,"tipCount":1},"specials":{"count":0,"items":[]},"hereNow":{"count":1}},{"id":"4bd11530462cb713e2c9d907","name":"JR 京都駅 中央口","contact":{},"location":{"address":"下京区東塩小路町901","lat":34.98616781787691,"lng":135.75888812541962,"distance":107,"postalCode":"600-8216","city":"京都市","state":"京都府","country":"Japan"},"categories":[{"id":"4bf58dd8d48988d129951735","name":"Train Station","pluralName":"Train Stations","shortName":"Train Station","icon":{"prefix":"https:\/\/foursquare.com\/img\/categories\/travel\/trainstation_","sizes":[32,44,64,88,256],"name":".png"},"primary":true}],"verified":false,"stats":{"checkinsCount":2893,"usersCount":1747,"tipCount":6},"specials":{"count":0,"items":[]},"hereNow":{"count":0}},{"id":"4b6561d4f964a52001ef2ae3","name":"博多一幸舎 京都拉麺小路店","contact":{"phone":"0753610739","formattedPhone":"075-361-0739"},"location":{"address":"東塩小路町901","crossStreet":"烏丸通塩小路下ル \/ 京都駅ビル10Ｆ","lat":34.985743060140585,"lng":135.75845461449848,"distance":48,"postalCode":"600-8711","city":"京都市下京区","state":"京都府","country":"Japan"},"categories":[{"id":"4bf58dd8d48988d1d1941735","name":"Ramen or Noodle House","pluralName":"Ramen or Noodle House","shortName":"Ramen \/ Noodles","icon":{"prefix":"https:\/\/foursquare.com\/img\/categories\/food\/ramen_","sizes":[32,44,64,88,256],"name":".png"},"primary":true}],"verified":false,"stats":{"checkinsCount":164,"usersCount":126,"tipCount":3},"specials":{"count":0,"items":[]},"hereNow":{"count":0}},{"id":"4c1d93e0eac020a1218c48c2","name":"JR 京都駅 31・32・33・34番ホーム (嵯峨野・山陰線)","contact":{},"location":{"address":"下京区東塩小路高倉町8-3","lat":34.98542505668788,"lng":135.75709640979767,"distance":111,"postalCode":"600-8214","city":"京都市","state":"京都府","country":"Japan"},"categories":[{"id":"4bf58dd8d48988d129951735","name":"Train Station","pluralName":"Train Stations","shortName":"Train Station","icon":{"prefix":"https:\/\/foursquare.com\/img\/categories\/travel\/trainstation_","sizes":[32,44,64,88,256],"name":".png"},"primary":true}],"verified":false,"stats":{"checkinsCount":1934,"usersCount":567,"tipCount":12},"specials":{"count":0,"items":[]},"hereNow":{"count":0}},{"id":"4e702417e4cd5c8693de3c87","name":"フィゲラス スバコ・ジェイアール京都伊勢丹","contact":{"phone":"0753422355","formattedPhone":"075-342-2355"},"location":{"address":"下京区東塩小路町","crossStreet":"スバコ・ジェイアール京都伊勢丹3F","lat":34.98530199501175,"lng":135.75797617435455,"distance":30,"city":"京都市","state":"京都府","country":"Japan"},"categories":[{"id":"4bf58dd8d48988d150941735","name":"Spanish Restaurant","pluralName":"Spanish Restaurants","shortName":"Spanish","icon":{"prefix":"https:\/\/foursquare.com\/img\/categories\/food\/default_","sizes":[32,44,64,88,256],"name":".png"},"primary":true}],"verified":false,"stats":{"checkinsCount":11,"usersCount":9,"tipCount":0},"specials":{"count":0,"items":[]},"hereNow":{"count":0}},{"id":"4bcfb602b221c9b6e6a8d2d0","name":"JR 京都駅 13・14番ホーム","contact":{},"location":{"address":"東塩小路高倉町8-3","crossStreet":"新幹線／新大阪方面","lat":34.98451967003071,"lng":135.7586145401001,"distance":93,"city":"京都市下京区","state":"京都府","country":"Japan"},"categories":[{"id":"4f4531504b9074f6e4fb0102","name":"Platform","pluralName":"Platforms","shortName":"Platform","icon":{"prefix":"https:\/\/foursquare.com\/img\/categories\/travel\/trainstation_","sizes":[32,44,64,88,256],"name":".png"},"primary":true}],"verified":false,"stats":{"checkinsCount":620,"usersCount":387,"tipCount":0},"specials":{"count":0,"items":[]},"hereNow":{"count":0}},{"id":"4b7fd88ef964a520834030e3","name":"近鉄名店街 みやこみち","contact":{"phone":"0756918384","formattedPhone":"075-691-8384"},"location":{"address":"東塩小路釜殿町31-1","lat":34.98463394268517,"lng":135.75743436813354,"distance":110,"postalCode":"600-8215","city":"京都市下京区","state":"京都府","country":"Japan"},"categories":[{"id":"4bf58dd8d48988d1fd941735","name":"Mall","pluralName":"Malls","shortName":"Mall","icon":{"prefix":"https:\/\/foursquare.com\/img\/categories\/shops\/default_","sizes":[32,44,64,88,256],"name":".png"},"primary":true}],"verified":false,"stats":{"checkinsCount":1621,"usersCount":340,"tipCount":0},"specials":{"count":0,"items":[]},"hereNow":{"count":0}},{"id":"4c42d507ff711b8db01c1405","name":"上方ざんまい屋","contact":{"phone":"0753423066","formattedPhone":"075-342-3066"},"location":{"address":"東塩小路町901","crossStreet":"京都駅ビル10階 京都拉麺小路","lat":34.98576347534344,"lng":135.75799226760864,"distance":57,"postalCode":"600-8216","city":"京都市下京区","state":"京都府","country":"Japan"},"categories":[{"id":"4bf58dd8d48988d1d1941735","name":"Ramen or Noodle House","pluralName":"Ramen or Noodle House","shortName":"Ramen \/ Noodles","icon":{"prefix":"https:\/\/foursquare.com\/img\/categories\/food\/ramen_","sizes":[32,44,64,88,256],"name":".png"},"primary":true}],"verified":false,"stats":{"checkinsCount":77,"usersCount":54,"tipCount":1},"specials":{"count":0,"items":[]},"hereNow":{"count":0}},{"id":"4db8966393a0f369e85d562a","name":"京都総合観光案内所 京なび Kyo-Navi Tourist info Centre","contact":{},"location":{"lat":34.985661055044005,"lng":135.7580025176867,"distance":47,"city":"京都市","state":"京都府","country":"Japan"},"categories":[{"id":"4bf58dd8d48988d1f6931735","name":"General Travel","pluralName":"General Travel","shortName":"Other - Travel","icon":{"prefix":"https:\/\/foursquare.com\/img\/categories\/travel\/default_","sizes":[32,44,64,88,256],"name":".png"},"primary":true}],"verified":false,"stats":{"checkinsCount":164,"usersCount":50,"tipCount":1},"specials":{"count":0,"items":[]},"hereNow":{"count":0}},{"id":"4d019db718ff8cfab7e3bf57","name":"京都駅八条口","contact":{},"location":{"address":"東塩小路高倉町8-3","lat":34.98451967003071,"lng":135.75916171073914,"distance":117,"postalCode":"600-8214","city":"京都市下京区","state":"京都府","country":"Japan"},"categories":[{"id":"4bf58dd8d48988d129951735","name":"Train Station","pluralName":"Train Stations","shortName":"Train Station","icon":{"prefix":"https:\/\/foursquare.com\/img\/categories\/travel\/trainstation_","sizes":[32,44,64,88,256],"name":".png"},"primary":true}],"verified":false,"stats":{"checkinsCount":2039,"usersCount":1244,"tipCount":3},"specials":{"count":0,"items":[]},"hereNow":{"count":0}},{"id":"4b9f5813f964a5209c1d37e3","name":"はしたて","contact":{},"location":{"address":"東塩小路町","crossStreet":"スバコ・ジェイアール京都伊勢丹 3F","lat":34.985231673970894,"lng":135.757874250412,"distance":41,"city":"京都市下京区","state":"京都府","country":"Japan"},"categories":[{"id":"4bf58dd8d48988d111941735","name":"Japanese Restaurant","pluralName":"Japanese Restaurants","shortName":"Japanese","icon":{"prefix":"https:\/\/foursquare.com\/img\/categories\/food\/default_","sizes":[32,44,64,88,256],"name":".png"},"primary":true}],"verified":false,"stats":{"checkinsCount":136,"usersCount":106,"tipCount":2},"specials":{"count":0,"items":[]},"hereNow":{"count":0}},{"id":"4ba1a2d1f964a5203fc537e3","name":"三省堂書店 京都駅店","contact":{"phone":"0753658640","formattedPhone":"075-365-8640"},"location":{"address":"東塩小路町901","crossStreet":"京都駅ビル専門店街 ザ・キューブB1F","lat":34.98602278219784,"lng":135.75870037078857,"distance":85,"postalCode":"600-8216","city":"京都市下京区","state":"京都府","country":"Japan"},"categories":[{"id":"4bf58dd8d48988d114951735","name":"Bookstore","pluralName":"Bookstores","shortName":"Bookstore","icon":{"prefix":"https:\/\/foursquare.com\/img\/categories\/shops\/bookstore_","sizes":[32,44,64,88,256],"name":".png"},"primary":true}],"verified":false,"stats":{"checkinsCount":559,"usersCount":164,"tipCount":0},"specials":{"count":0,"items":[]},"hereNow":{"count":0}},{"id":"4b61828df964a52034162ae3","name":"PRONTO 京都駅ビル店","contact":{"phone":"0753658686","formattedPhone":"075-365-8686"},"location":{"address":"東塩小路町901","crossStreet":"烏丸通塩小路下ル","lat":34.98586807719032,"lng":135.75852870941162,"distance":64,"city":"京都市下京区","state":"京都府","country":"Japan"},"categories":[{"id":"4bf58dd8d48988d16d941735","name":"Café","pluralName":"Cafés","shortName":"Café","icon":{"prefix":"https:\/\/foursquare.com\/img\/categories\/food\/cafe_","sizes":[32,44,64,88,256],"name":".png"},"primary":true}],"verified":false,"stats":{"checkinsCount":216,"usersCount":99,"tipCount":1},"specials":{"count":0,"items":[]},"hereNow":{"count":0}},{"id":"4bf52413ff90c9b671f75528","name":"富山ブラック 麺家いろは 京都駅ビル店","contact":{},"location":{"address":"東塩小路町901番地","crossStreet":"京都駅ビル 10F","lat":34.98585269142109,"lng":135.7579825637626,"distance":66,"city":"京都市下京区","state":"京都府","country":"Japan"},"categories":[{"id":"4bf58dd8d48988d1d1941735","name":"Ramen or Noodle House","pluralName":"Ramen or Noodle House","shortName":"Ramen \/ Noodles","icon":{"prefix":"https:\/\/foursquare.com\/img\/categories\/food\/ramen_","sizes":[32,44,64,88,256],"name":".png"},"primary":true}],"verified":false,"stats":{"checkinsCount":152,"usersCount":123,"tipCount":3},"specials":{"count":0,"items":[]},"hereNow":{"count":0}},{"id":"4f54465ee4b0754d59a69b2f","name":"東海道新幹線 京都駅 ホーム","contact":{},"location":{"address":"東塩小路高倉町","lat":34.98464809561812,"lng":135.75758919172182,"distance":99,"city":"京都市下京区","state":"京都府","country":"Japan"},"categories":[{"id":"4bf58dd8d48988d129951735","name":"Train Station","pluralName":"Train Stations","shortName":"Train Station","icon":{"prefix":"https:\/\/foursquare.com\/img\/categories\/travel\/trainstation_","sizes":[32,44,64,88,256],"name":".png"},"primary":true}],"verified":false,"stats":{"checkinsCount":134,"usersCount":121,"tipCount":0},"specials":{"count":0,"items":[]},"hereNow":{"count":1}},{"id":"4dda1f2545ddced820c6bd17","name":"貴和製作所","contact":{},"location":{"lat":34.98568717565154,"lng":135.75821858854596,"distance":41,"country":"Japan"},"categories":[{"id":"4bf58dd8d48988d1fb941735","name":"Hobby Shop","pluralName":"Hobby Shops","shortName":"Hobbies","icon":{"prefix":"https:\/\/foursquare.com\/img\/categories\/shops\/default_","sizes":[32,44,64,88,256],"name":".png"},"primary":true}],"verified":false,"stats":{"checkinsCount":8,"usersCount":5,"tipCount":0},"specials":{"count":0,"items":[]},"hereNow":{"count":0}},{"id":"4f12cb424fc64b86950738a3","name":"近鉄 京都駅 4番ホーム","contact":{},"location":{"address":"東塩小路釜殿町31-1","lat":34.98473502990038,"lng":135.75767576694489,"distance":87,"postalCode":"600-8215","city":"京都市下京区","state":"京都府","country":"Japan"},"categories":[{"id":"4f4531504b9074f6e4fb0102","name":"Platform","pluralName":"Platforms","shortName":"Platform","icon":{"prefix":"https:\/\/foursquare.com\/img\/categories\/travel\/trainstation_","sizes":[32,44,64,88,256],"name":".png"},"primary":true}],"verified":false,"stats":{"checkinsCount":41,"usersCount":16,"tipCount":0},"specials":{"count":0,"items":[]},"hereNow":{"count":1}},{"id":"4e4e4f7752b1e893ad4a1c55","name":"JR京都駅 八条口高速バス乗り場","contact":{},"location":{"address":"南区東九条室町","lat":34.98432518639635,"lng":135.7578970491886,"distance":117,"postalCode":"601-8001","city":"京都市","state":"京都府","country":"Japan"},"categories":[{"id":"4bf58dd8d48988d1fe931735","name":"Bus Station","pluralName":"Bus Stations","shortName":"Bus Station","icon":{"prefix":"https:\/\/foursquare.com\/img\/categories\/travel\/busstation_","sizes":[32,44,64,88,256],"name":".png"},"primary":true}],"verified":false,"stats":{"checkinsCount":427,"usersCount":292,"tipCount":0},"specials":{"count":0,"items":[]},"hereNow":{"count":0}},{"id":"4bc98349b6c49c74a3928e91","name":"ミスタードーナツ 近鉄京都ショップ","contact":{"phone":"0756938155","formattedPhone":"075-693-8155"},"location":{"address":"東塩小路殿釜町31-1","lat":34.984589991683094,"lng":135.75783401727676,"distance":92,"postalCode":"600-8215","city":"京都市下京区","state":"京都府","country":"Japan"},"categories":[{"id":"4bf58dd8d48988d148941735","name":"Donut Shop","pluralName":"Donut Shops","shortName":"Donuts","icon":{"prefix":"https:\/\/foursquare.com\/img\/categories\/food\/bagels_","sizes":[32,44,64,88,256],"name":".png"},"primary":true}],"verified":false,"stats":{"checkinsCount":215,"usersCount":73,"tipCount":2},"specials":{"count":0,"items":[]},"hereNow":{"count":0}},{"id":"4eaf5963b8f7116f20ace1ba","name":"大勝軒 京都拉麺小路店","contact":{},"location":{"address":"烏丸通り塩小路下ル東塩小路町901番","crossStreet":"京都駅ビル10Ｆ","lat":34.98583599344476,"lng":135.75788632035255,"distance":69,"postalCode":"600-8216","city":"京都市下京区","state":"京都府","country":"Japan"},"categories":[{"id":"4bf58dd8d48988d1d1941735","name":"Ramen or Noodle House","pluralName":"Ramen or Noodle House","shortName":"Ramen \/ Noodles","icon":{"prefix":"https:\/\/foursquare.com\/img\/categories\/food\/ramen_","sizes":[32,44,64,88,256],"name":".png"},"primary":true}],"verified":false,"stats":{"checkinsCount":90,"usersCount":73,"tipCount":4},"specials":{"count":0,"items":[]},"hereNow":{"count":0}},{"id":"4be51145cf200f477fdf123c","name":"Cafe Du Monde JR京都駅ビル店","contact":{},"location":{"address":"東塩小路町901","crossStreet":"京都駅ビル内","lat":34.98590851148186,"lng":135.75818538665771,"distance":66,"city":"京都市下京区","state":"京都府","country":"Japan"},"categories":[{"id":"4bf58dd8d48988d16d941735","name":"Café","pluralName":"Cafés","shortName":"Café","icon":{"prefix":"https:\/\/foursquare.com\/img\/categories\/food\/cafe_","sizes":[32,44,64,88,256],"name":".png"},"primary":true}],"verified":false,"stats":{"checkinsCount":190,"usersCount":128,"tipCount":1},"specials":{"count":0,"items":[]},"hereNow":{"count":0}}]}}
