{"meta":{"code":200},"response":{"venues":[{"id":"4eb55445a17cab61281c3b4f","name":"弥須","contact":{"phone":"+81774446977","formattedPhone":"+81 774-44-6977"},"location":{"address":"羽拍子町84","crossStreet":"ボーン宇治１階","lat":34.882086009143634,"lng":135.77967524528503,"distance":88,"city":"宇治市","state":"京都府","country":"Japan"},"categories":[{"id":"4bf58dd8d48988d111941735","name":"Japanese Restaurant","pluralName":"Japanese Restaurants","shortName":"Japanese","icon":{"prefix":"https:\/\/foursquare.com\/img\/categories_v2\/food\/japanese_","suffix":".png"},"primary":true}],"verified":false,"stats":{"checkinsCount":2,"usersCount":2,"tipCount":0},"likes":{"count":0,"groups":[]},"specials":{"count":0,"items":[]},"hereNow":{"count":0,"groups":[]}},{"id":"4d6781ae9792b1f7a40e3e1f","name":"セブンイレブン 宇治伊勢田中山店","contact":{"phone":"+81774467535","formattedPhone":"+81 774-46-7535"},"location":{"address":"伊勢田町中山68","lat":34.88362290324564,"lng":135.77818930149078,"distance":219,"city":"宇治市","state":"京都府","country":"Japan"},"categories":[{"id":"4d954b0ea243a5684a65b473","name":"Convenience Store","pluralName":"Convenience Stores","shortName":"Convenience Stores","icon":{"prefix":"https:\/\/foursquare.com\/img\/categories_v2\/shops\/conveniencestore_","suffix":".png"},"primary":true}],"verified":false,"stats":{"checkinsCount":97,"usersCount":14,"tipCount":1},"likes":{"count":0,"groups":[]},"specials":{"count":0,"items":[]},"hereNow":{"count":0,"groups":[]}},{"id":"4ee02a6b30f810beca7d31fe","name":"ラーメン四天王 伊勢田店","contact":{"phone":"+81774411227","formattedPhone":"+81 774-41-1227"},"location":{"address":"伊勢田町大谷18-7","lat":34.88325934543429,"lng":135.78005825160005,"distance":205,"postalCode":"611-0043","city":"宇治市","state":"京都府","country":"Japan"},"categories":[{"id":"4bf58dd8d48988d1d1941735","name":"Ramen \/  Noodle House","pluralName":"Ramen \/  Noodle House","shortName":"Ramen \/ Noodles","icon":{"prefix":"https:\/\/foursquare.com\/img\/categories_v2\/food\/ramen_","suffix":".png"},"primary":true}],"verified":false,"stats":{"checkinsCount":29,"usersCount":10,"tipCount":0},"likes":{"count":0,"groups":[]},"specials":{"count":0,"items":[]},"hereNow":{"count":0,"groups":[]}},{"id":"4d5cf5a3e7f7548125771f97","name":"新鮮館コスモ 伊勢田店","contact":{},"location":{"address":"羽拍子町1-2","lat":34.88482692,"lng":135.78109337948263,"distance":403,"city":"宇治市","state":"京都府","country":"Japan"},"categories":[{"id":"4bf58dd8d48988d118951735","name":"Grocery Store","pluralName":"Grocery Stores","shortName":"Grocery Store","icon":{"prefix":"https:\/\/foursquare.com\/img\/categories_v2\/shops\/food_grocery_","suffix":".png"},"primary":true}],"verified":false,"stats":{"checkinsCount":81,"usersCount":10,"tipCount":0},"likes":{"count":0,"groups":[]},"specials":{"count":0,"items":[]},"hereNow":{"count":0,"groups":[]}},{"id":"4b5cd752f964a520bc4629e3","name":"大久保駅 (Okubo Sta.)","contact":{},"location":{"address":"広野町西裏81-2","lat":34.874618578192,"lng":135.77700713375657,"distance":807,"city":"宇治市","state":"京都府","country":"Japan"},"categories":[{"id":"4bf58dd8d48988d129951735","name":"Train Station","pluralName":"Train Stations","shortName":"Train Station","icon":{"prefix":"https:\/\/foursquare.com\/img\/categories_v2\/travel\/trainstation_","suffix":".png"},"primary":true}],"verified":false,"stats":{"checkinsCount":2552,"usersCount":465,"tipCount":4},"likes":{"count":0,"groups":[]},"specials":{"count":0,"items":[]},"hereNow":{"count":1,"groups":[{"type":"others","name":"Other people here","count":1,"items":[]}]}},{"id":"4e3a5f04a809ec55443ad3d6","name":"ADhoc","contact":{"phone":"+81120115236","formattedPhone":"+81 120-115-236"},"location":{"address":"開町25-13","lat":34.881248791316374,"lng":135.78138381242752,"distance":240,"city":"宇治市","state":"京都府","country":"Japan"},"categories":[{"id":"4bf58dd8d48988d110951735","name":"Salon \/ Barbershop","pluralName":"Salons \/ Barbershops","shortName":"Salon \/ Barbershop","icon":{"prefix":"https:\/\/foursquare.com\/img\/categories_v2\/shops\/salon_barber_","suffix":".png"},"primary":true}],"verified":false,"stats":{"checkinsCount":5,"usersCount":3,"tipCount":0},"likes":{"count":0,"groups":[]},"specials":{"count":0,"items":[]},"hereNow":{"count":0,"groups":[]}},{"id":"4dace4c043a17e90f8eaa57d","name":"panya a la Bonne Miche","contact":{},"location":{"lat":34.88515616994313,"lng":135.7831882808858,"distance":553,"city":"Uji","state":"Kyoto Prefecture","country":"Japan"},"categories":[{"id":"4bf58dd8d48988d16a941735","name":"Bakery","pluralName":"Bakeries","shortName":"Bakery","icon":{"prefix":"https:\/\/foursquare.com\/img\/categories_v2\/food\/bakery_","suffix":".png"},"primary":true}],"verified":false,"stats":{"checkinsCount":22,"usersCount":2,"tipCount":0},"likes":{"count":0,"groups":[]},"specials":{"count":0,"items":[]},"hereNow":{"count":0,"groups":[]}},{"id":"4bbaf86553649c74678f49fb","name":"サンクス 宇治大久保店","contact":{"phone":"+81774445810","formattedPhone":"+81 774-44-5810"},"location":{"address":"広野町西裏49-1","lat":34.87611088150165,"lng":135.77850714325905,"distance":624,"postalCode":"611-0031","city":"宇治市","state":"京都府","country":"Japan"},"categories":[{"id":"4d954b0ea243a5684a65b473","name":"Convenience Store","pluralName":"Convenience Stores","shortName":"Convenience Stores","icon":{"prefix":"https:\/\/foursquare.com\/img\/categories_v2\/shops\/conveniencestore_","suffix":".png"},"primary":true}],"verified":false,"stats":{"checkinsCount":126,"usersCount":37,"tipCount":0},"likes":{"count":0,"groups":[]},"specials":{"count":0,"items":[]},"hereNow":{"count":0,"groups":[]}},{"id":"4ce353121594236a7ddef649","name":"四天王ラーメン","contact":{},"location":{"address":"京都府宇治市","lat":34.88374850829558,"lng":135.78012307260923,"distance":255,"city":"宇治市","state":"京都府","country":"Japan"},"categories":[{"id":"4bf58dd8d48988d1d1941735","name":"Ramen \/  Noodle House","pluralName":"Ramen \/  Noodle House","shortName":"Ramen \/ Noodles","icon":{"prefix":"https:\/\/foursquare.com\/img\/categories_v2\/food\/ramen_","suffix":".png"},"primary":true}],"verified":false,"stats":{"checkinsCount":11,"usersCount":8,"tipCount":0},"likes":{"count":0,"groups":[]},"specials":{"count":0,"items":[]},"hereNow":{"count":0,"groups":[]}},{"id":"4dd8e643c65bee535ad64b72","name":"セブンイレブン 宇治開町店","contact":{"phone":"+81774464230","formattedPhone":"+81 774-46-4230"},"location":{"address":"開町26-3","lat":34.88121578649668,"lng":135.78064620494843,"distance":176,"city":"宇治市","state":"京都府","country":"Japan"},"categories":[{"id":"4d954b0ea243a5684a65b473","name":"Convenience Store","pluralName":"Convenience Stores","shortName":"Convenience Stores","icon":{"prefix":"https:\/\/foursquare.com\/img\/categories_v2\/shops\/conveniencestore_","suffix":".png"},"primary":true}],"verified":false,"stats":{"checkinsCount":5,"usersCount":4,"tipCount":0},"likes":{"count":0,"groups":[]},"specials":{"count":0,"items":[]},"hereNow":{"count":0,"groups":[]}},{"id":"4c7656e6ff1fb60c4a8df8a7","name":"新田駅 (Shinden Sta.)","contact":{},"location":{"address":"広野町東裏","lat":34.87426687667083,"lng":135.78055769205093,"distance":844,"city":"宇治市","state":"京都府","country":"Japan"},"categories":[{"id":"4bf58dd8d48988d129951735","name":"Train Station","pluralName":"Train Stations","shortName":"Train Station","icon":{"prefix":"https:\/\/foursquare.com\/img\/categories_v2\/travel\/trainstation_","suffix":".png"},"primary":true}],"verified":false,"stats":{"checkinsCount":346,"usersCount":80,"tipCount":1},"likes":{"count":0,"groups":[]},"specials":{"count":0,"items":[]},"hereNow":{"count":0,"groups":[]}},{"id":"4d3536cf5c2db60c98a8da6c","name":"ソフトバンク 宇治大久保","contact":{"phone":"+81774464440","formattedPhone":"+81 774-46-4440","twitter":"sbujiokubo"},"location":{"address":"広野町西裏31-3","lat":34.87740254044148,"lng":135.77816247940063,"distance":483,"postalCode":"611-0031","city":"宇治市","state":"京都府","country":"Japan"},"categories":[{"id":"4f04afc02fb6e1c99f3db0bc","name":"Mobile Phone Shop","pluralName":"Mobile Phone Shops","shortName":"Mobile Phone","icon":{"prefix":"https:\/\/foursquare.com\/img\/categories_v2\/shops\/mobilephoneshop_","suffix":".png"},"primary":true}],"verified":false,"stats":{"checkinsCount":27,"usersCount":10,"tipCount":0},"likes":{"count":0,"groups":[]},"specials":{"count":0,"items":[]},"hereNow":{"count":0,"groups":[]}},{"id":"4bb8b08eb35776b0a21bc901","name":"mE・DI・A 大久保店","contact":{"phone":"+81774465801","formattedPhone":"+81 774-46-5801"},"location":{"address":"広野町字西裏1-16","crossStreet":"サンマルシェ大久保内","lat":34.874710586952425,"lng":135.77704417195312,"distance":796,"postalCode":"611-0031","city":"宇治市","state":"京都府","country":"Japan"},"categories":[],"verified":false,"stats":{"checkinsCount":152,"usersCount":10,"tipCount":0},"likes":{"count":0,"groups":[]},"specials":{"count":0,"items":[]},"hereNow":{"count":0,"groups":[]}},{"id":"4df2e3a51f6e818dadff1779","name":"ミスタードーナツ 近鉄大久保ショップ","contact":{"phone":"+81774465886","formattedPhone":"+81 774-46-5886"},"location":{"address":"広野町字西裏1-16","crossStreet":"サンマルシェ大久保","lat":34.87459919571488,"lng":135.7769932444403,"distance":809,"city":"宇治市","state":"京都府","country":"Japan"},"categories":[{"id":"4bf58dd8d48988d148941735","name":"Donut Shop","pluralName":"Donut Shops","shortName":"Donuts","icon":{"prefix":"https:\/\/foursquare.com\/img\/categories_v2\/food\/donuts_","suffix":".png"},"primary":true}],"verified":false,"stats":{"checkinsCount":242,"usersCount":21,"tipCount":0},"likes":{"count":0,"groups":[]},"specials":{"count":0,"items":[]},"hereNow":{"count":0,"groups":[]}},{"id":"4eabc642490158448a12f67a","name":"サンベークル","contact":{},"location":{"address":"日本","lat":34.885144744632235,"lng":135.78331793149852,"distance":560,"city":"宇治市","state":"京都府","country":"Japan"},"categories":[{"id":"4bf58dd8d48988d16d941735","name":"Café","pluralName":"Cafés","shortName":"Café","icon":{"prefix":"https:\/\/foursquare.com\/img\/categories_v2\/food\/cafe_","suffix":".png"},"primary":true}],"verified":false,"stats":{"checkinsCount":20,"usersCount":3,"tipCount":0},"likes":{"count":0,"groups":[]},"specials":{"count":0,"items":[]},"hereNow":{"count":0,"groups":[]}},{"id":"4d3909b61a57a143deca8af3","name":"陸上自衛隊 大久保駐屯地","contact":{},"location":{"address":"広野町風呂垣外1-1","lat":34.878397125998326,"lng":135.77505111694336,"distance":504,"postalCode":"611-0031","city":"宇治市","state":"京都府","country":"Japan"},"categories":[{"id":"4e52adeebd41615f56317744","name":"Military Base","pluralName":"Military Bases","shortName":"Military Base","icon":{"prefix":"https:\/\/foursquare.com\/img\/categories_v2\/building\/militarybase_","suffix":".png"},"primary":true}],"verified":false,"stats":{"checkinsCount":67,"usersCount":30,"tipCount":0},"likes":{"count":0,"groups":[]},"specials":{"count":0,"items":[]},"hereNow":{"count":0,"groups":[]}},{"id":"4f20f0c5e4b053b17867f816","name":"カメラのキタムラ 宇治・大久保店","contact":{"phone":"+81774452563","formattedPhone":"+81 774-45-2563"},"location":{"address":"広野町西裏50-9","lat":34.87585952740209,"lng":135.77825255889235,"distance":653,"city":"宇治市","state":"京都府","country":"Japan"},"categories":[{"id":"4eb1bdf03b7b55596b4a7491","name":"Camera Store","pluralName":"Camera Stores","shortName":"Camera Store","icon":{"prefix":"https:\/\/foursquare.com\/img\/categories_v2\/shops\/camerastore_","suffix":".png"},"primary":true}],"verified":false,"stats":{"checkinsCount":46,"usersCount":12,"tipCount":0},"likes":{"count":0,"groups":[]},"specials":{"count":0,"items":[]},"hereNow":{"count":0,"groups":[]}},{"id":"4e55a75345dd0a4826e9a1d8","name":"ファミリーマート 宇治伊勢田北山店","contact":{"phone":"+81774285068","formattedPhone":"+81 774-28-5068"},"location":{"address":"伊勢田町北山2-3","lat":34.88771527994312,"lng":135.77647268772125,"distance":701,"city":"宇治市","state":"京都府","country":"Japan"},"categories":[{"id":"4d954b0ea243a5684a65b473","name":"Convenience Store","pluralName":"Convenience Stores","shortName":"Convenience Stores","icon":{"prefix":"https:\/\/foursquare.com\/img\/categories_v2\/shops\/conveniencestore_","suffix":".png"},"primary":true}],"verified":false,"stats":{"checkinsCount":19,"usersCount":5,"tipCount":0},"likes":{"count":0,"groups":[]},"specials":{"count":0,"items":[]},"hereNow":{"count":0,"groups":[]}},{"id":"4bc2a7d3461576b05bbe7d32","name":"cafe&dining UP","contact":{"phone":"+81774452949","formattedPhone":"+81 774-45-2949"},"location":{"address":"羽拍子町3-2","lat":34.88548650005714,"lng":135.78108608722687,"distance":468,"city":"宇治市","state":"京都府","country":"Japan"},"categories":[{"id":"4bf58dd8d48988d1c4941735","name":"Restaurant","pluralName":"Restaurants","shortName":"Other - Food","icon":{"prefix":"https:\/\/foursquare.com\/img\/categories_v2\/food\/default_","suffix":".png"},"primary":true}],"verified":false,"stats":{"checkinsCount":52,"usersCount":8,"tipCount":0},"likes":{"count":0,"groups":[]},"specials":{"count":0,"items":[]},"hereNow":{"count":0,"groups":[]}},{"id":"4f9ed696e4b060916a926e22","name":"ピザハット宇治小倉店","contact":{},"location":{"address":"京都府宇治市小倉町老ノ木２５　木下ビル１Ｆ","lat":34.88057825140329,"lng":135.78317902014123,"distance":417,"country":"Japan"},"categories":[{"id":"4bf58dd8d48988d1ca941735","name":"Pizza Place","pluralName":"Pizza Places","shortName":"Pizza","icon":{"prefix":"https:\/\/foursquare.com\/img\/categories_v2\/food\/pizza_","suffix":".png"},"primary":true}],"verified":false,"stats":{"checkinsCount":2,"usersCount":1,"tipCount":0},"likes":{"count":0,"groups":[]},"specials":{"count":0,"items":[]},"hereNow":{"count":0,"groups":[]}},{"id":"4c48e96da3ace21e4b33df3a","name":"床屋さん  takumi","contact":{},"location":{"lat":34.88528231031443,"lng":135.78161861035144,"distance":472,"country":"Japan"},"categories":[{"id":"4bf58dd8d48988d10c951735","name":"Cosmetics Shop","pluralName":"Cosmetics Shops","shortName":"Beauty \/ Cosmetic","icon":{"prefix":"https:\/\/foursquare.com\/img\/categories_v2\/shops\/beauty_cosmetic_","suffix":".png"},"primary":true}],"verified":false,"stats":{"checkinsCount":4,"usersCount":2,"tipCount":0},"likes":{"count":0,"groups":[]},"specials":{"count":0,"items":[]},"hereNow":{"count":0,"groups":[]}},{"id":"4dbfe0b96e8124d25dbf3b32","name":"セブンイレブン 宇治伊勢田町店","contact":{"phone":"+81774437236","formattedPhone":"+81 774-43-7236"},"location":{"address":"伊勢田町名木2-1-181","lat":34.884256,"lng":135.769055,"distance":935,"postalCode":"611-0044","city":"宇治市","state":"京都府","country":"Japan"},"categories":[{"id":"4bf58dd8d48988d1ff941735","name":"Miscellaneous Shop","pluralName":"Miscellaneous Shops","shortName":"Other - Shop","icon":{"prefix":"https:\/\/foursquare.com\/img\/categories_v2\/shops\/default_","suffix":".png"},"primary":true}],"verified":false,"stats":{"checkinsCount":400,"usersCount":10,"tipCount":0},"likes":{"count":0,"groups":[]},"specials":{"count":0,"items":[]},"hereNow":{"count":0,"groups":[]}},{"id":"4c8c4aaf8018a1cd58abebd2","name":"PC-Plus+","contact":{"phone":"+81774446351","formattedPhone":"+81 774-44-6351"},"location":{"address":"伊勢田町大谷33-3","lat":34.88572808251651,"lng":135.78092461821143,"distance":486,"postalCode":"611-0043","city":"宇治市","state":"京都府","country":"Japan"},"categories":[{"id":"4bf58dd8d48988d122951735","name":"Electronics Store","pluralName":"Electronics Stores","shortName":"Electronics","icon":{"prefix":"https:\/\/foursquare.com\/img\/categories_v2\/shops\/technology_","suffix":".png"},"primary":true}],"verified":false,"stats":{"checkinsCount":6,"usersCount":5,"tipCount":0},"url":"http:\/\/www.pc-plus.jp","likes":{"count":0,"groups":[]},"specials":{"count":0,"items":[]},"hereNow":{"count":0,"groups":[]}},{"id":"4b595026f964a520cd8428e3","name":"マクドナルド 24号大久保店","contact":{"phone":"+81774454130","formattedPhone":"+81 774-45-4130"},"location":{"address":"広野町茶屋裏3-1","lat":34.87325903793402,"lng":135.77817052602768,"distance":943,"postalCode":"611-0031","city":"宇治市","state":"京都府","country":"Japan"},"categories":[{"id":"4bf58dd8d48988d16c941735","name":"Burger Joint","pluralName":"Burger Joints","shortName":"Burgers","icon":{"prefix":"https:\/\/foursquare.com\/img\/categories_v2\/food\/burger_","suffix":".png"},"primary":true}],"verified":false,"stats":{"checkinsCount":313,"usersCount":64,"tipCount":3},"likes":{"count":0,"groups":[]},"specials":{"count":0,"items":[]},"hereNow":{"count":0,"groups":[]}},{"id":"4faab0d9e4b026b0359f66b0","name":"染付陶匠耀平","contact":{"phone":"+81774242495","formattedPhone":"+81 774-24-2495"},"location":{"address":"宇治市神明石塚５４ー３１０","lat":34.882983,"lng":135.786499,"distance":715,"postalCode":"611-00２５","city":"宇治市","country":"Japan"},"categories":[{"id":"4bf58dd8d48988d1e2931735","name":"Art Gallery","pluralName":"Art Galleries","shortName":"Art Gallery","icon":{"prefix":"https:\/\/foursquare.com\/img\/categories_v2\/arts_entertainment\/artgallery_","suffix":".png"},"primary":true}],"verified":false,"stats":{"checkinsCount":9,"usersCount":1,"tipCount":1},"likes":{"count":0,"groups":[]},"specials":{"count":0,"items":[]},"hereNow":{"count":0,"groups":[]}},{"id":"4eaf4959e5fa7081056f9ba7","name":"第二岡本総合病院","contact":{},"location":{"lat":34.887220503647406,"lng":135.7803036458849,"distance":627,"city":"宇治市","state":"京都府","country":"Japan"},"categories":[{"id":"4bf58dd8d48988d196941735","name":"Hospital","pluralName":"Hospitals","shortName":"Hospital","icon":{"prefix":"https:\/\/foursquare.com\/img\/categories_v2\/building\/medical_hospital_","suffix":".png"},"primary":true}],"verified":false,"stats":{"checkinsCount":4,"usersCount":4,"tipCount":0},"likes":{"count":0,"groups":[]},"specials":{"count":0,"items":[]},"hereNow":{"count":0,"groups":[]}},{"id":"4d4245cafe6ab60c259b4a39","name":"セブンイレブン 宇治広野町店","contact":{"phone":"+81774443560","formattedPhone":"+81 774-44-3560"},"location":{"address":"広野町東裏61-5","lat":34.875652084642475,"lng":135.78107669949532,"distance":705,"postalCode":"611-0031","city":"宇治市","state":"京都府","country":"Japan"},"categories":[{"id":"4d954b0ea243a5684a65b473","name":"Convenience Store","pluralName":"Convenience Stores","shortName":"Convenience Stores","icon":{"prefix":"https:\/\/foursquare.com\/img\/categories_v2\/shops\/conveniencestore_","suffix":".png"},"primary":true}],"verified":false,"stats":{"checkinsCount":39,"usersCount":20,"tipCount":0},"likes":{"count":0,"groups":[]},"specials":{"count":0,"items":[]},"hereNow":{"count":0,"groups":[]}},{"id":"4ef5934c2c5b0445ff4ea187","name":"宇治バプテスト\u2022キリスト教会","contact":{"phone":"+81774417511","formattedPhone":"+81 774-41-7511"},"location":{"crossStreet":"開町8-2","lat":34.88005,"lng":135.78033,"distance":231,"city":"宇治市","country":"Japan"},"categories":[{"id":"4bf58dd8d48988d132941735","name":"Church","pluralName":"Churches","shortName":"Church","icon":{"prefix":"https:\/\/foursquare.com\/img\/categories_v2\/building\/religious_church_","suffix":".png"},"primary":true}],"verified":false,"stats":{"checkinsCount":3,"usersCount":1,"tipCount":0},"likes":{"count":0,"groups":[]},"specials":{"count":0,"items":[]},"hereNow":{"count":0,"groups":[]}},{"id":"4e83ee3929c2cfe72395efa2","name":"亀王 大久保店","contact":{"phone":"+81774465788","formattedPhone":"+81 774-46-5788"},"location":{"address":"広野町西裏1-16","lat":34.87404242457178,"lng":135.77689111232758,"distance":872,"postalCode":"611-0031","city":"宇治市","state":"京都府","country":"Japan"},"categories":[{"id":"4bf58dd8d48988d1d1941735","name":"Ramen \/  Noodle House","pluralName":"Ramen \/  Noodle House","shortName":"Ramen \/ Noodles","icon":{"prefix":"https:\/\/foursquare.com\/img\/categories_v2\/food\/ramen_","suffix":".png"},"primary":true}],"verified":false,"stats":{"checkinsCount":48,"usersCount":11,"tipCount":0},"url":"http:\/\/www.kiou.co.jp\/","likes":{"count":0,"groups":[]},"specials":{"count":0,"items":[]},"hereNow":{"count":0,"groups":[]}},{"id":"4ea3acb3d3e32e6868832df0","name":"京都工場保健会診療所宇治支所","contact":{},"location":{"lat":34.87884243822745,"lng":135.77072494591076,"distance":805,"city":"宇治市","state":"京都府","country":"Japan"},"categories":[{"id":"4bf58dd8d48988d130941735","name":"Building","pluralName":"Buildings","shortName":"Other - Buildings","icon":{"prefix":"https:\/\/foursquare.com\/img\/categories_v2\/building\/default_","suffix":".png"},"primary":true}],"verified":false,"stats":{"checkinsCount":20,"usersCount":6,"tipCount":0},"likes":{"count":0,"groups":[]},"specials":{"count":0,"items":[]},"hereNow":{"count":0,"groups":[]}},{"id":"4efaae8f2c5b044503be1732","name":"まいどおおきに食堂 京宇治食堂","contact":{},"location":{"lat":34.88617886554802,"lng":135.7813546885194,"distance":548,"country":"Japan"},"categories":[{"id":"4bf58dd8d48988d111941735","name":"Japanese Restaurant","pluralName":"Japanese Restaurants","shortName":"Japanese","icon":{"prefix":"https:\/\/foursquare.com\/img\/categories_v2\/food\/japanese_","suffix":".png"},"primary":true}],"verified":false,"stats":{"checkinsCount":12,"usersCount":6,"tipCount":0},"likes":{"count":0,"groups":[]},"specials":{"count":0,"items":[]},"hereNow":{"count":0,"groups":[]}},{"id":"4d721455f7c38cfa0d83a03d","name":"ハーベス 大久保店","contact":{},"location":{"address":"広野町西裏1-46","lat":34.87447657,"lng":135.77703852,"distance":821,"city":"宇治市","state":"京都府","country":"Japan"},"categories":[{"id":"4bf58dd8d48988d118951735","name":"Grocery Store","pluralName":"Grocery Stores","shortName":"Grocery Store","icon":{"prefix":"https:\/\/foursquare.com\/img\/categories_v2\/shops\/food_grocery_","suffix":".png"},"primary":true}],"verified":false,"stats":{"checkinsCount":75,"usersCount":15,"tipCount":0},"likes":{"count":0,"groups":[]},"specials":{"count":0,"items":[]},"hereNow":{"count":0,"groups":[]}},{"id":"4d67794ba800721ea1ab0fb8","name":"ジャンボなかむら 伊勢田店","contact":{},"location":{"address":"日本","lat":34.88662344235493,"lng":135.77609507724156,"distance":600,"city":"宇治市","state":"京都府","country":"Japan"},"categories":[{"id":"4bf58dd8d48988d118951735","name":"Grocery Store","pluralName":"Grocery Stores","shortName":"Grocery Store","icon":{"prefix":"https:\/\/foursquare.com\/img\/categories_v2\/shops\/food_grocery_","suffix":".png"},"primary":true}],"verified":false,"stats":{"checkinsCount":27,"usersCount":4,"tipCount":0},"likes":{"count":0,"groups":[]},"specials":{"count":0,"items":[]},"hereNow":{"count":0,"groups":[]}},{"id":"4df859a962847bdf4fec0b19","name":"TSUTAYA メディア大久保店","contact":{},"location":{"address":"広野町西裏1-16","lat":34.87454736,"lng":135.77713,"distance":812,"city":"宇治市","state":"京都府","country":"Japan"},"categories":[{"id":"4bf58dd8d48988d126951735","name":"Video Store","pluralName":"Video Stores","shortName":"Video Store","icon":{"prefix":"https:\/\/foursquare.com\/img\/categories_v2\/shops\/video_","suffix":".png"},"primary":true}],"verified":false,"stats":{"checkinsCount":103,"usersCount":12,"tipCount":0},"likes":{"count":0,"groups":[]},"specials":{"count":0,"items":[]},"hereNow":{"count":0,"groups":[]}},{"id":"4faab606e4b0eeffb5932af5","name":"おしゃれ処耀平","contact":{"phone":"+81774433157","formattedPhone":"+81 774-43-3157"},"location":{"address":"京都府宇治市開町５５ー１０","lat":34.88298243078774,"lng":135.78652226573746,"distance":717,"postalCode":"611-0026","city":"京都府宇治市","state":"京都府","country":"Japan"},"categories":[{"id":"4bf58dd8d48988d1e2931735","name":"Art Gallery","pluralName":"Art Galleries","shortName":"Art Gallery","icon":{"prefix":"https:\/\/foursquare.com\/img\/categories_v2\/arts_entertainment\/artgallery_","suffix":".png"},"primary":true}],"verified":false,"stats":{"checkinsCount":6,"usersCount":1,"tipCount":1},"likes":{"count":0,"groups":[]},"specials":{"count":0,"items":[]},"hereNow":{"count":0,"groups":[]}},{"id":"4ec09319b8f7963bce11fdf5","name":"エムズ 大久保店","contact":{},"location":{"address":"広野町茶屋裏46-2","lat":34.8743440649738,"lng":135.7770349124013,"distance":836,"city":"宇治市","state":"京都府","country":"Japan"},"categories":[{"id":"4bf58dd8d48988d17c941735","name":"Casino","pluralName":"Casinos","shortName":"Casino","icon":{"prefix":"https:\/\/foursquare.com\/img\/categories_v2\/arts_entertainment\/casino_","suffix":".png"},"primary":true}],"verified":false,"stats":{"checkinsCount":28,"usersCount":8,"tipCount":0},"likes":{"count":0,"groups":[]},"specials":{"count":0,"items":[]},"hereNow":{"count":0,"groups":[]}},{"id":"4f5c7ee2e4b075ad7a83b3c2","name":"Harves","contact":{},"location":{"lat":34.8743727410186,"lng":135.77712750800055,"distance":831,"country":"Japan"},"categories":[{"id":"4bf58dd8d48988d118951735","name":"Grocery Store","pluralName":"Grocery Stores","shortName":"Grocery Store","icon":{"prefix":"https:\/\/foursquare.com\/img\/categories_v2\/shops\/food_grocery_","suffix":".png"},"primary":true}],"verified":false,"stats":{"checkinsCount":22,"usersCount":5,"tipCount":0},"likes":{"count":0,"groups":[]},"specials":{"count":0,"items":[]},"hereNow":{"count":0,"groups":[]}},{"id":"4e05b38a6284d9ee92ca16fd","name":"WAKAN-CHI(わかんち)","contact":{},"location":{"lat":34.87342196319815,"lng":135.7774562238297,"distance":931,"city":"宇治市","state":"京都府","country":"Japan"},"categories":[{"id":"4d4b7105d754a06374d81259","name":"Food","pluralName":"Food","shortName":"Food","icon":{"prefix":"https:\/\/foursquare.com\/img\/categories_v2\/food\/default_","suffix":".png"},"primary":true}],"verified":false,"stats":{"checkinsCount":14,"usersCount":3,"tipCount":0},"likes":{"count":0,"groups":[]},"specials":{"count":0,"items":[]},"hereNow":{"count":0,"groups":[]}},{"id":"4e2fe78a1f6ed9df90242eed","name":"やきとり花","contact":{},"location":{"lat":34.87467,"lng":135.777061,"distance":800,"country":"Japan"},"categories":[{"id":"4bf58dd8d48988d11a941735","name":"Other Nightlife","pluralName":"Other Nightlife","shortName":"Other - Nightlife","icon":{"prefix":"https:\/\/foursquare.com\/img\/categories_v2\/nightlife\/default_","suffix":".png"},"primary":true}],"verified":false,"stats":{"checkinsCount":9,"usersCount":5,"tipCount":0},"likes":{"count":0,"groups":[]},"specials":{"count":0,"items":[]},"hereNow":{"count":0,"groups":[]}},{"id":"4c185e70834e2d7febd72880","name":"ゴーゴーカレー大久保店","contact":{"phone":"+81774435755","formattedPhone":"+81 774-43-5755"},"location":{"address":"広野茶屋裏8-6","lat":34.87299,"lng":135.776999,"distance":985,"city":"宇治市","state":"京都府","country":"Japan"},"categories":[{"id":"4bf58dd8d48988d111941735","name":"Japanese Restaurant","pluralName":"Japanese Restaurants","shortName":"Japanese","icon":{"prefix":"https:\/\/foursquare.com\/img\/categories_v2\/food\/japanese_","suffix":".png"},"primary":true}],"verified":false,"stats":{"checkinsCount":155,"usersCount":82,"tipCount":1},"url":"http:\/\/www.gogocurry.com\/","likes":{"count":0,"groups":[]},"specials":{"count":0,"items":[]},"hereNow":{"count":0,"groups":[]}},{"id":"4c78e0e397028cfaa934d9fe","name":"中国料理 広東","contact":{},"location":{"lat":34.8737716646716,"lng":135.77520155655478,"distance":943,"country":"Japan"},"categories":[{"id":"4bf58dd8d48988d145941735","name":"Chinese Restaurant","pluralName":"Chinese Restaurants","shortName":"Chinese","icon":{"prefix":"https:\/\/foursquare.com\/img\/categories_v2\/food\/chinese_","suffix":".png"},"primary":true}],"verified":false,"stats":{"checkinsCount":25,"usersCount":5,"tipCount":1},"likes":{"count":0,"groups":[]},"specials":{"count":0,"items":[]},"hereNow":{"count":0,"groups":[]}},{"id":"4d02c96c347da1cdf370218f","name":"宇治市立大久保小学校","contact":{},"location":{"lat":34.87340623538857,"lng":135.7829984359814,"distance":1000,"country":"Japan"},"categories":[{"id":"4bf58dd8d48988d1a8941735","name":"General College & University","pluralName":"General Colleges & Universities","shortName":"Other - Education","icon":{"prefix":"https:\/\/foursquare.com\/img\/categories_v2\/education\/other_","suffix":".png"},"primary":true}],"verified":false,"stats":{"checkinsCount":26,"usersCount":7,"tipCount":0},"likes":{"count":0,"groups":[]},"specials":{"count":0,"items":[]},"hereNow":{"count":0,"groups":[]}},{"id":"4dd90674d22d38ef430ebad3","name":"サークルK 宇治神明店","contact":{"phone":"+81774240503","formattedPhone":"+81 774-24-0503"},"location":{"address":"神明石塚54番地の475","lat":34.88460366208958,"lng":135.78609310090542,"distance":738,"postalCode":"611-0025","city":"宇治市","state":"京都府","country":"Japan"},"categories":[{"id":"4d954b0ea243a5684a65b473","name":"Convenience Store","pluralName":"Convenience Stores","shortName":"Convenience Stores","icon":{"prefix":"https:\/\/foursquare.com\/img\/categories_v2\/shops\/conveniencestore_","suffix":".png"},"primary":true}],"verified":false,"stats":{"checkinsCount":11,"usersCount":2,"tipCount":0},"likes":{"count":0,"groups":[]},"specials":{"count":0,"items":[]},"hereNow":{"count":0,"groups":[]}},{"id":"4ee57f702c5b5fc6cd6457c6","name":"居酒屋 呑亭","contact":{},"location":{"address":"広野町西裏","lat":34.875222231217464,"lng":135.77698861466908,"distance":741,"state":"京都府","country":"Japan"},"categories":[{"id":"4bf58dd8d48988d1d4941735","name":"Speakeasy","pluralName":"Speakeasies","shortName":"Speakeasy \/ Secret Spot","icon":{"prefix":"https:\/\/foursquare.com\/img\/categories_v2\/nightlife\/secretbar_","suffix":".png"},"primary":true}],"verified":false,"stats":{"checkinsCount":8,"usersCount":3,"tipCount":0},"likes":{"count":0,"groups":[]},"specials":{"count":0,"items":[]},"hereNow":{"count":0,"groups":[]}},{"id":"4eb07ffe6da152b3a8ead9f6","name":"El Galan","contact":{"phone":"+81774465777","formattedPhone":"+81 774-46-5777"},"location":{"address":"広野町西裏1-16","crossStreet":"近鉄大久保駅高架下 サンマルシェ大久保","lat":34.87552704531004,"lng":135.7772849209318,"distance":702,"city":"宇治市","state":"京都府","country":"Japan"},"categories":[{"id":"4bf58dd8d48988d116941735","name":"Bar","pluralName":"Bars","shortName":"Bar","icon":{"prefix":"https:\/\/foursquare.com\/img\/categories_v2\/nightlife\/bar_","suffix":".png"},"primary":true}],"verified":false,"stats":{"checkinsCount":9,"usersCount":1,"tipCount":0},"likes":{"count":0,"groups":[]},"specials":{"count":0,"items":[]},"hereNow":{"count":0,"groups":[]}},{"id":"4c4e4ff81b8e1b8d763af826","name":"お好み焼き 山崎屋","contact":{},"location":{"lat":34.87391699519068,"lng":135.77707886695862,"distance":882,"country":"Japan"},"categories":[{"id":"4bf58dd8d48988d111941735","name":"Japanese Restaurant","pluralName":"Japanese Restaurants","shortName":"Japanese","icon":{"prefix":"https:\/\/foursquare.com\/img\/categories_v2\/food\/japanese_","suffix":".png"},"primary":true}],"verified":false,"stats":{"checkinsCount":12,"usersCount":4,"tipCount":0},"likes":{"count":0,"groups":[]},"specials":{"count":0,"items":[]},"hereNow":{"count":0,"groups":[]}},{"id":"4c96b62c94a0236a407da112","name":"平和堂 100BAN店","contact":{"phone":"+81774444555","formattedPhone":"+81 774-44-4555"},"location":{"address":"広野町西裏100番地","lat":34.87384657861217,"lng":135.77889740467072,"distance":875,"postalCode":"611-0031","city":"宇治市","state":"京都府","country":"Japan"},"categories":[{"id":"4bf58dd8d48988d118951735","name":"Grocery Store","pluralName":"Grocery Stores","shortName":"Grocery Store","icon":{"prefix":"https:\/\/foursquare.com\/img\/categories_v2\/shops\/food_grocery_","suffix":".png"},"primary":true}],"verified":false,"stats":{"checkinsCount":56,"usersCount":14,"tipCount":0},"likes":{"count":0,"groups":[]},"specials":{"count":0,"items":[]},"hereNow":{"count":0,"groups":[]}},{"id":"4d1964dc816af04d49515dc2","name":"ラーメン帝王","contact":{},"location":{"lat":34.87377576791002,"lng":135.773761773469,"distance":997,"country":"Japan"},"categories":[],"verified":false,"stats":{"checkinsCount":10,"usersCount":4,"tipCount":0},"likes":{"count":0,"groups":[]},"specials":{"count":0,"items":[]},"hereNow":{"count":0,"groups":[]}},{"id":"4e73ed8dd22d80eb3286e1c0","name":"梶村税理士事務所","contact":{},"location":{"lat":34.87569808959961,"lng":135.78363037109375,"distance":801,"country":"Japan"},"categories":[{"id":"4bf58dd8d48988d124941735","name":"Office","pluralName":"Offices","shortName":"Corporate \/ Office","icon":{"prefix":"https:\/\/foursquare.com\/img\/categories_v2\/building\/default_","suffix":".png"},"primary":true}],"verified":false,"stats":{"checkinsCount":2,"usersCount":2,"tipCount":0},"likes":{"count":0,"groups":[]},"hereNow":{"count":0,"groups":[]}},{"id":"4d4c8f7ee469721eeb86ec8e","name":"大久保自動車教習所","contact":{"phone":"+81774431166","formattedPhone":"+81 774-43-1166"},"location":{"address":"大久保町北ノ山20","lat":34.872816729259974,"lng":135.7724279165268,"distance":1149,"postalCode":"611-0033","city":"宇治市","state":"京都府","country":"Japan"},"categories":[{"id":"4bf58dd8d48988d198941735","name":"College Academic Building","pluralName":"College Academic Buildings","shortName":"Academic Building","icon":{"prefix":"https:\/\/foursquare.com\/img\/categories_v2\/education\/academicbuilding_","suffix":".png"},"primary":true}],"verified":false,"stats":{"checkinsCount":40,"usersCount":6,"tipCount":0},"likes":{"count":0,"groups":[]},"specials":{"count":0,"items":[]},"hereNow":{"count":0,"groups":[]}}]}}
