{"meta":{"code":200},"notifications":[{"type":"notificationTray","item":{"unreadCount":23}}],"response":{"venues":[{"id":"4cdd54b74e15a0904d42e92b","name":"ファミリーマート 烏丸今出川店","contact":{"phone":"0754510045","formattedPhone":"075-451-0045"},"location":{"address":"上京区今出川町331","crossStreet":"今出川通室町東入ル","lat":35.02898165768385,"lng":135.75903296470642,"distance":30,"postalCode":"602-0033","city":"京都市","state":"京都府","country":"Japan"},"categories":[{"id":"4d954b0ea243a5684a65b473","name":"Convenience Store","pluralName":"Convenience Stores","shortName":"Convenience Stores","icon":{"prefix":"https:\/\/foursquare.com\/img\/categories\/shops\/default_","sizes":[32,44,64,88,256],"name":".png"},"primary":true}],"verified":false,"stats":{"checkinsCount":115,"usersCount":61,"tipCount":1},"specials":{"count":0,"items":[]},"hereNow":{"count":0}},{"id":"4baf0d5ef964a520dae83be3","name":"TSUTAYA 烏丸今出川店","contact":{"phone":"0754172300","formattedPhone":"075-417-2300"},"location":{"address":"今出川町329-18","crossStreet":"今出川通室町東入","lat":35.02925400568768,"lng":135.75889885425568,"distance":44,"postalCode":"602-0033","city":"京都市上京区","state":"京都府","country":"Japan"},"categories":[{"id":"4bf58dd8d48988d114951735","name":"Bookstore","pluralName":"Bookstores","shortName":"Bookstore","icon":{"prefix":"https:\/\/foursquare.com\/img\/categories\/shops\/bookstore_","sizes":[32,44,64,88,256],"name":".png"},"primary":true}],"verified":false,"stats":{"checkinsCount":311,"usersCount":81,"tipCount":0},"specials":{"count":0,"items":[]},"hereNow":{"count":0}},{"id":"4e8d80dcb63445c4a52c267d","name":"千成","contact":{},"location":{"lat":35.03136061440192,"lng":135.7566589954633,"distance":352,"country":"Japan"},"categories":[],"verified":false,"stats":{"checkinsCount":1,"usersCount":1,"tipCount":0},"specials":{"count":0,"items":[]},"hereNow":{"count":0}},{"id":"4b7568d7f964a520ea0a2ee3","name":"モスバーガー 烏丸今出川店","contact":{"phone":"0754313350","formattedPhone":"075-431-3350"},"location":{"address":"上京区今出川町329-1","crossStreet":"今出川通室町東入","lat":35.02931769984796,"lng":135.75901418924332,"distance":39,"postalCode":"602-0033","city":"京都市","state":"京都府","country":"Japan"},"categories":[{"id":"4bf58dd8d48988d16c941735","name":"Burger Joint","pluralName":"Burger Joints","shortName":"Burgers","icon":{"prefix":"https:\/\/foursquare.com\/img\/categories\/food\/burger_","sizes":[32,44,64,88,256],"name":".png"},"primary":true}],"verified":false,"stats":{"checkinsCount":171,"usersCount":102,"tipCount":0},"specials":{"count":0,"items":[]},"hereNow":{"count":0}},{"id":"4b672b32f964a5201d3f2be3","name":"松屋 今出川店","contact":{"phone":"0754173006","formattedPhone":"075-417-3006"},"location":{"address":"上京区今出川町332","crossStreet":"今出川通室町東入ル","lat":35.02879496699569,"lng":135.75914561748505,"distance":36,"postalCode":"602-0033","city":"京都市","state":"京都府","country":"Japan"},"categories":[{"id":"4bf58dd8d48988d16e941735","name":"Fast Food Restaurant","pluralName":"Fast Food Restaurants","shortName":"Fast Food","icon":{"prefix":"https:\/\/foursquare.com\/img\/categories\/food\/fastfood_","sizes":[32,44,64,88,256],"name":".png"},"primary":true}],"verified":false,"stats":{"checkinsCount":216,"usersCount":80,"tipCount":0},"specials":{"count":0,"items":[]},"hereNow":{"count":0}},{"id":"4be24644f07b0f475e3ff543","name":"イーサン(タイ料理)","contact":{},"location":{"lat":35.029114,"lng":135.75933059,"distance":3,"country":"Japan"},"categories":[{"id":"4bf58dd8d48988d149941735","name":"Thai Restaurant","pluralName":"Thai Restaurants","shortName":"Thai","icon":{"prefix":"https:\/\/foursquare.com\/img\/categories\/food\/default_","sizes":[32,44,64,88,256],"name":".png"},"primary":true}],"verified":false,"stats":{"checkinsCount":33,"usersCount":26,"tipCount":1},"specials":{"count":0,"items":[]},"hereNow":{"count":0}},{"id":"4c33e4ea16adc928d66fc49c","name":"同志社大学図書館","contact":{"phone":"0752513980","formattedPhone":"075-251-3980"},"location":{"address":"京都府京都市上京区今出川通烏丸東入","lat":35.02957467233542,"lng":135.7599127292633,"distance":75,"postalCode":"602-8580","city":"京都市上京区","state":"京都府","country":"Japan"},"categories":[{"id":"4bf58dd8d48988d1a7941735","name":"College Library","pluralName":"College Libraries","shortName":"Library","icon":{"prefix":"https:\/\/foursquare.com\/img\/categories\/building\/library_","sizes":[32,44,64,88,256],"name":".png"},"primary":true}],"verified":false,"stats":{"checkinsCount":307,"usersCount":72,"tipCount":2},"specials":{"count":0,"items":[]},"hereNow":{"count":1}},{"id":"4d59f9411d4a8cfa4cf592ed","name":"トリオ","contact":{},"location":{"lat":35.02904921491771,"lng":135.7590423704806,"distance":27,"country":"Japan"},"categories":[{"id":"4bf58dd8d48988d111941735","name":"Japanese Restaurant","pluralName":"Japanese Restaurants","shortName":"Japanese","icon":{"prefix":"https:\/\/foursquare.com\/img\/categories\/food\/default_","sizes":[32,44,64,88,256],"name":".png"},"primary":true}],"verified":false,"stats":{"checkinsCount":6,"usersCount":6,"tipCount":0},"specials":{"count":0,"items":[]},"hereNow":{"count":0}},{"id":"4d27b79e77a2a1cd41645bb7","name":"烏丸今出川 バス停","contact":{},"location":{"address":"岡松町\/新北小路町\/玄武町","crossStreet":"市バス59・201・203・洛バス102系統\/京都バス","lat":35.02911124273432,"lng":135.76005689799786,"distance":65,"city":"京都市上京区","state":"京都府","country":"Japan"},"categories":[{"id":"4bf58dd8d48988d1fe931735","name":"Bus Station","pluralName":"Bus Stations","shortName":"Bus Station","icon":{"prefix":"https:\/\/foursquare.com\/img\/categories\/travel\/busstation_","sizes":[32,44,64,88,256],"name":".png"},"primary":true}],"verified":false,"stats":{"checkinsCount":101,"usersCount":66,"tipCount":0},"specials":{"count":0,"items":[]},"hereNow":{"count":0}},{"id":"4c1de1d1b306c928a54266b7","name":"白木屋 今出川駅前店","contact":{"phone":"0754329888","formattedPhone":"075-432-9888"},"location":{"address":"今出川町333 第二高橋ビル3階","crossStreet":"今出川通室町東入ル","lat":35.02884548334161,"lng":135.7591563463211,"distance":31,"postalCode":"602-0033","city":"京都市上京区","state":"京都府","country":"Japan"},"categories":[{"id":"4bf58dd8d48988d111941735","name":"Japanese Restaurant","pluralName":"Japanese Restaurants","shortName":"Japanese","icon":{"prefix":"https:\/\/foursquare.com\/img\/categories\/food\/default_","sizes":[32,44,64,88,256],"name":".png"},"primary":true}],"verified":false,"stats":{"checkinsCount":30,"usersCount":27,"tipCount":0},"specials":{"count":0,"items":[]},"hereNow":{"count":0}},{"id":"4bf22fc378cec928cc40bb86","name":"同志社大学明徳館地下","contact":{},"location":{"lat":35.02918178673714,"lng":135.76055113162548,"distance":110,"country":"Japan"},"categories":[{"id":"4bf58dd8d48988d1a1941735","name":"College Cafeteria","pluralName":"College Cafeterias","shortName":"Cafeteria","icon":{"prefix":"https:\/\/foursquare.com\/img\/categories\/education\/cafeteria_","sizes":[32,44,64,88,256],"name":".png"},"primary":true}],"verified":false,"stats":{"checkinsCount":179,"usersCount":31,"tipCount":2},"specials":{"count":0,"items":[]},"hereNow":{"count":0}},{"id":"4e8bbeb7775bb28051fd9046","name":"セブンイレブン 京都烏丸今出川店","contact":{"phone":"0754118636","formattedPhone":"075-411-8636"},"location":{"address":"上京区今出川町319","lat":35.02928365642364,"lng":135.75859308242798,"distance":72,"city":"京都市","state":"京都府","country":"Japan"},"categories":[{"id":"4d954b0ea243a5684a65b473","name":"Convenience Store","pluralName":"Convenience Stores","shortName":"Convenience Stores","icon":{"prefix":"https:\/\/foursquare.com\/img\/categories\/shops\/default_","sizes":[32,44,64,88,256],"name":".png"},"primary":true}],"verified":false,"stats":{"checkinsCount":45,"usersCount":15,"tipCount":0},"specials":{"count":0,"items":[]},"hereNow":{"count":1}},{"id":"4c7274184bc4236a8235cb7a","name":"とりのすけ今出川","contact":{},"location":{"lat":35.02893,"lng":135.759318,"distance":17,"country":"Japan"},"categories":[{"id":"4bf58dd8d48988d111941735","name":"Japanese Restaurant","pluralName":"Japanese Restaurants","shortName":"Japanese","icon":{"prefix":"https:\/\/foursquare.com\/img\/categories\/food\/default_","sizes":[32,44,64,88,256],"name":".png"},"primary":true}],"verified":false,"stats":{"checkinsCount":19,"usersCount":17,"tipCount":0},"specials":{"count":0,"items":[]},"hereNow":{"count":0}},{"id":"4b566e02f964a5200a1028e3","name":"同志社大学 今出川キャンパス","contact":{"phone":"0752513110","formattedPhone":"075-251-3110"},"location":{"address":"上京区玄武町601","crossStreet":"今出川通烏丸東入","lat":35.02992608639503,"lng":135.76116800308228,"distance":190,"postalCode":"602-8580","city":"京都市","state":"京都府","country":"Japan"},"categories":[{"id":"4bf58dd8d48988d1ae941735","name":"University","pluralName":"Universities","shortName":"University","icon":{"prefix":"https:\/\/foursquare.com\/img\/categories\/education\/default_","sizes":[32,44,64,88,256],"name":".png"},"primary":true}],"verified":false,"stats":{"checkinsCount":1338,"usersCount":521,"tipCount":3},"specials":{"count":0,"items":[]},"hereNow":{"count":0}},{"id":"4b86a885f964a520b39431e3","name":"天下一品 今出川店","contact":{"phone":"0754411610","formattedPhone":"075-441-1610"},"location":{"address":"北小路室町390-1","crossStreet":"室町今出川下る","lat":35.028893803295475,"lng":135.75827658176422,"distance":99,"postalCode":"602-0033","city":"京都市上京区","state":"京都府","country":"Japan"},"categories":[{"id":"4bf58dd8d48988d1d1941735","name":"Ramen or Noodle House","pluralName":"Ramen or Noodle House","shortName":"Ramen \/ Noodles","icon":{"prefix":"https:\/\/foursquare.com\/img\/categories\/food\/ramen_","sizes":[32,44,64,88,256],"name":".png"},"primary":true}],"verified":false,"stats":{"checkinsCount":172,"usersCount":120,"tipCount":1},"specials":{"count":0,"items":[]},"hereNow":{"count":0}},{"id":"4ca58b1af47ea1434f325821","name":"同志社大学 今出川キャンパス 明徳館","contact":{},"location":{"lat":35.03002239,"lng":135.76060256,"distance":155,"country":"Japan"},"categories":[{"id":"4bf58dd8d48988d1ae941735","name":"University","pluralName":"Universities","shortName":"University","icon":{"prefix":"https:\/\/foursquare.com\/img\/categories\/education\/default_","sizes":[32,44,64,88,256],"name":".png"},"primary":true}],"verified":false,"stats":{"checkinsCount":172,"usersCount":65,"tipCount":1},"specials":{"count":0,"items":[]},"hereNow":{"count":0}},{"id":"4c9027c6b6d1a143ada4c10f","name":"同志社大学 今出川キャンパス 至誠館","contact":{},"location":{"lat":35.03007359,"lng":135.760815,"distance":173,"country":"Japan"},"categories":[{"id":"4bf58dd8d48988d1ae941735","name":"University","pluralName":"Universities","shortName":"University","icon":{"prefix":"https:\/\/foursquare.com\/img\/categories\/education\/default_","sizes":[32,44,64,88,256],"name":".png"},"primary":true}],"verified":false,"stats":{"checkinsCount":144,"usersCount":40,"tipCount":0},"specials":{"count":0,"items":[]},"hereNow":{"count":0}},{"id":"4c4ed2fdfb742d7f5dbbe92e","name":"同志社大学 クラーク館","contact":{},"location":{"lat":35.03004608335718,"lng":135.75951443171598,"distance":108,"country":"Japan"},"categories":[{"id":"4bf58dd8d48988d1ae941735","name":"University","pluralName":"Universities","shortName":"University","icon":{"prefix":"https:\/\/foursquare.com\/img\/categories\/education\/default_","sizes":[32,44,64,88,256],"name":".png"},"primary":true}],"verified":false,"stats":{"checkinsCount":36,"usersCount":17,"tipCount":0},"specials":{"count":0,"items":[]},"hereNow":{"count":0}},{"id":"4b8b9d49f964a52071a432e3","name":"モナミ","contact":{},"location":{"lat":35.0299656203822,"lng":135.75919389724731,"distance":99,"country":"Japan"},"categories":[{"id":"4bf58dd8d48988d147941735","name":"Diner","pluralName":"Diners","shortName":"Diner","icon":{"prefix":"https:\/\/foursquare.com\/img\/categories\/food\/default_","sizes":[32,44,64,88,256],"name":".png"},"primary":true}],"verified":false,"stats":{"checkinsCount":21,"usersCount":8,"tipCount":0},"specials":{"count":0,"items":[]},"hereNow":{"count":0}},{"id":"4bf24aced39ad13acb29ab0e","name":"同志社大学 寧静館","contact":{},"location":{"lat":35.03052927458126,"lng":135.76048170905193,"distance":191,"country":"Japan"},"categories":[{"id":"4bf58dd8d48988d1ae941735","name":"University","pluralName":"Universities","shortName":"University","icon":{"prefix":"https:\/\/foursquare.com\/img\/categories\/education\/default_","sizes":[32,44,64,88,256],"name":".png"},"primary":true}],"verified":false,"stats":{"checkinsCount":108,"usersCount":35,"tipCount":0},"specials":{"count":0,"items":[]},"hereNow":{"count":0}},{"id":"4ba6f202f964a520207939e3","name":"芙蓉園","contact":{"phone":"0754313665","formattedPhone":"075-431-3665"},"location":{"address":"上京区今出川通烏丸西入今出川町324","lat":35.028922355982054,"lng":135.75873255729675,"distance":58,"postalCode":"602-0033","city":"京都市","state":"京都府","country":"Japan"},"categories":[{"id":"4bf58dd8d48988d142941735","name":"Asian Restaurant","pluralName":"Asian Restaurants","shortName":"Asian","icon":{"prefix":"https:\/\/foursquare.com\/img\/categories\/food\/asian_","sizes":[32,44,64,88,256],"name":".png"},"primary":true}],"verified":false,"stats":{"checkinsCount":22,"usersCount":18,"tipCount":0},"specials":{"count":0,"items":[]},"hereNow":{"count":0}},{"id":"4cd22a465b5ca35d8cfd85f0","name":"天津閣","contact":{},"location":{"lat":35.028913,"lng":135.759515,"distance":24,"country":"Japan"},"categories":[{"id":"4bf58dd8d48988d145941735","name":"Chinese Restaurant","pluralName":"Chinese Restaurants","shortName":"Chinese","icon":{"prefix":"https:\/\/foursquare.com\/img\/categories\/food\/chinese_","sizes":[32,44,64,88,256],"name":".png"},"primary":true}],"verified":false,"stats":{"checkinsCount":12,"usersCount":6,"tipCount":0},"specials":{"count":0,"items":[]},"hereNow":{"count":0}},{"id":"4eb36f3b02d5f33e91b563ca","name":"京都御苑 乾御門","contact":{},"location":{"lat":35.027671,"lng":135.759504,"distance":157,"country":"Japan"},"categories":[{"id":"4bf58dd8d48988d163941735","name":"Park","pluralName":"Parks","shortName":"Park","icon":{"prefix":"https:\/\/foursquare.com\/img\/categories\/parks_outdoors\/default_","sizes":[32,44,64,88,256],"name":".png"},"primary":true}],"verified":false,"stats":{"checkinsCount":43,"usersCount":37,"tipCount":0},"specials":{"count":0,"items":[]},"hereNow":{"count":0}},{"id":"4f1597f96d86be251c38bc59","name":"CAFE CIAO PRESSO (カフェ チャオプレッソ 同志社大学今出川キャンパス店)","contact":{"phone":"0752228545","formattedPhone":"075-222-8545"},"location":{"address":"上京区新北小路町603","crossStreet":"同志社大学 明徳館 1F","lat":35.029816269663705,"lng":135.76040357351303,"distance":126,"postalCode":"602-0892","city":"京都市","state":"京都府","country":"Japan"},"categories":[{"id":"4bf58dd8d48988d16d941735","name":"Café","pluralName":"Cafés","shortName":"Café","icon":{"prefix":"https:\/\/foursquare.com\/img\/categories\/food\/cafe_","sizes":[32,44,64,88,256],"name":".png"},"primary":true}],"verified":false,"stats":{"checkinsCount":1,"usersCount":1,"tipCount":0},"specials":{"count":0,"items":[]},"hereNow":{"count":0}},{"id":"4c96f1a5f244b1f706cd381d","name":"ヒーリンフィーリン烏丸今出川店","contact":{},"location":{"address":"日本","lat":35.02909175,"lng":135.7593382,"distance":1,"country":"Japan"},"categories":[{"id":"4bf58dd8d48988d1f0941735","name":"Internet Cafe","pluralName":"Internet Cafes","shortName":"Internet Cafe","icon":{"prefix":"https:\/\/foursquare.com\/img\/categories\/shops\/default_","sizes":[32,44,64,88,256],"name":".png"},"primary":true}],"verified":false,"stats":{"checkinsCount":3,"usersCount":2,"tipCount":0},"specials":{"count":0,"items":[]},"hereNow":{"count":0}},{"id":"4de9b2fb18386283a3d20ce5","name":"京都御所 今出川門","contact":{},"location":{"address":"京都御苑","lat":35.02895969409559,"lng":135.76234817504883,"distance":274,"city":"京都市上京区","state":"京都府","country":"Japan"},"categories":[{"id":"4bf58dd8d48988d131941735","name":"Religious Center","pluralName":"Religious Centers","shortName":"Religious","icon":{"prefix":"https:\/\/foursquare.com\/img\/categories\/building\/religious_","sizes":[32,44,64,88,256],"name":".png"},"primary":true}],"verified":false,"stats":{"checkinsCount":97,"usersCount":84,"tipCount":0},"specials":{"count":0,"items":[]},"hereNow":{"count":0}},{"id":"4ea6392de300a8628e798641","name":"カフェ・ド りゅーと","contact":{},"location":{"lat":35.028928,"lng":135.757491,"distance":169,"city":"京都市","state":"京都府","country":"Japan"},"categories":[{"id":"4bf58dd8d48988d16d941735","name":"Café","pluralName":"Cafés","shortName":"Café","icon":{"prefix":"https:\/\/foursquare.com\/img\/categories\/food\/cafe_","sizes":[32,44,64,88,256],"name":".png"},"primary":true}],"verified":false,"stats":{"checkinsCount":4,"usersCount":1,"tipCount":1},"specials":{"count":0,"items":[]},"hereNow":{"count":0}},{"id":"4bbf17cc30c99c7401965411","name":"寒梅館","contact":{"phone":"0752513120","formattedPhone":"075-251-3120"},"location":{"address":"上京区今出川通り烏丸東入","crossStreet":"同志社大学 室町キャンパス","lat":35.0316304231507,"lng":135.7588291168213,"distance":287,"postalCode":"602-8580","city":"京都市","state":"京都府","country":"Japan"},"categories":[{"id":"4bf58dd8d48988d1af941735","name":"College Auditorium","pluralName":"College Auditoriums","shortName":"Auditorium","icon":{"prefix":"https:\/\/foursquare.com\/img\/categories\/education\/default_","sizes":[32,44,64,88,256],"name":".png"},"primary":true}],"verified":false,"stats":{"checkinsCount":394,"usersCount":179,"tipCount":1},"specials":{"count":0,"items":[]},"hereNow":{"count":0}},{"id":"4bad87d9f964a52046593be3","name":"センボンカリー","contact":{"phone":"0754418411","formattedPhone":"075-441-8411"},"location":{"address":"上京区築山南半町234","crossStreet":"室町通今出川上ル","lat":35.029708649123855,"lng":135.7578393816948,"distance":153,"postalCode":"602-0034","city":"京都市","state":"京都府","country":"Japan"},"categories":[{"id":"4bf58dd8d48988d1c4941735","name":"Restaurant","pluralName":"Restaurants","shortName":"Other - Food","icon":{"prefix":"https:\/\/foursquare.com\/img\/categories\/food\/default_","sizes":[32,44,64,88,256],"name":".png"},"primary":true}],"verified":false,"stats":{"checkinsCount":44,"usersCount":22,"tipCount":1},"specials":{"count":0,"items":[]},"hereNow":{"count":0}},{"id":"4bbf185630c99c74bd965411","name":"同志社大学 今出川キャンパス 扶桑館","contact":{},"location":{"address":"上京区玄武町601","crossStreet":"今出川通り烏丸東入","lat":35.030552038946276,"lng":135.76099634170532,"distance":222,"postalCode":"602-8580","city":"京都市","state":"京都府","country":"Japan"},"categories":[{"id":"4bf58dd8d48988d198941735","name":"College Academic Building","pluralName":"College Academic Buildings","shortName":"Academic Building","icon":{"prefix":"https:\/\/foursquare.com\/img\/categories\/education\/default_","sizes":[32,44,64,88,256],"name":".png"},"primary":true}],"verified":false,"stats":{"checkinsCount":169,"usersCount":38,"tipCount":1},"specials":{"count":0,"items":[]},"hereNow":{"count":0}}]}}
