{"meta":{"code":200},"notifications":[{"type":"notificationTray","item":{"unreadCount":23}}],"response":{"venues":[{"id":"4b71ff2df964a52026692de3","name":"新風館","contact":{"phone":"0752136688","formattedPhone":"075-213-6688"},"location":{"address":"場之町586-2","lat":35.00952399866156,"lng":135.76011657714844,"distance":150,"postalCode":"604-8172","city":"京都市中京区","state":"京都府","country":"Japan"},"categories":[{"id":"4bf58dd8d48988d1fd941735","name":"Mall","pluralName":"Malls","shortName":"Mall","icon":{"prefix":"https:\/\/foursquare.com\/img\/categories\/shops\/default_","sizes":[32,44,64,88,256],"name":".png"},"primary":true}],"verified":false,"stats":{"checkinsCount":1261,"usersCount":679,"tipCount":7},"specials":{"count":0,"items":[]},"hereNow":{"count":1}},{"id":"4e8439ef4690ba768c112e9a","name":"烏丸御池 バス停","contact":{},"location":{"address":"中京区 二条殿町・仲保利町・虎屋町・龍池町","crossStreet":"市バス・京都バス","lat":35.010815754629576,"lng":135.7596606016159,"distance":1,"city":"京都市","state":"京都府","country":"Japan"},"categories":[{"id":"4bf58dd8d48988d1fe931735","name":"Bus Station","pluralName":"Bus Stations","shortName":"Bus Station","icon":{"prefix":"https:\/\/foursquare.com\/img\/categories\/travel\/busstation_","sizes":[32,44,64,88,256],"name":".png"},"primary":true}],"verified":false,"stats":{"checkinsCount":44,"usersCount":22,"tipCount":0},"specials":{"count":0,"items":[]},"hereNow":{"count":0}},{"id":"4dde314bd4c01aeee8f6c976","name":"SIZUYA 烏丸御池店","contact":{"phone":"0752117205","formattedPhone":"075-211-7205"},"location":{"address":"中京区虎屋町地先","crossStreet":"地下鉄烏丸御池駅構内","lat":35.01077724415307,"lng":135.75965526371954,"distance":5,"city":"京都市","state":"京都府","country":"Japan"},"categories":[{"id":"4bf58dd8d48988d16a941735","name":"Bakery","pluralName":"Bakeries","shortName":"Bakery","icon":{"prefix":"https:\/\/foursquare.com\/img\/categories\/food\/bakery_","sizes":[32,44,64,88,256],"name":".png"},"primary":true}],"verified":false,"stats":{"checkinsCount":90,"usersCount":30,"tipCount":0},"specials":{"count":0,"items":[]},"hereNow":{"count":0}},{"id":"4cb16ec0eb65b1f7b8e774cd","name":"auショップ 烏丸御池","contact":{},"location":{"lat":35.01070127196435,"lng":135.76006054760714,"distance":38,"country":"Japan"},"categories":[{"id":"4bf58dd8d48988d1ff941735","name":"Miscellaneous Shop","pluralName":"Miscellaneous Shops","shortName":"Other - Shop","icon":{"prefix":"https:\/\/foursquare.com\/img\/categories\/shops\/default_","sizes":[32,44,64,88,256],"name":".png"},"primary":true}],"verified":false,"stats":{"checkinsCount":26,"usersCount":13,"tipCount":0},"specials":{"count":0,"items":[]},"hereNow":{"count":0}},{"id":"4e8e817f2c5b20a681d377bd","name":"セブンイレブン 烏丸御池店","contact":{"phone":"0752555228","formattedPhone":"075-255-5228"},"location":{"address":"中京区虎屋町566-1","crossStreet":"烏丸通御池下る","lat":35.01040714015172,"lng":135.75929313898087,"distance":57,"postalCode":"604-8171","city":"京都市","state":"京都府","country":"Japan"},"categories":[{"id":"4d954b0ea243a5684a65b473","name":"Convenience Store","pluralName":"Convenience Stores","shortName":"Convenience Stores","icon":{"prefix":"https:\/\/foursquare.com\/img\/categories\/shops\/default_","sizes":[32,44,64,88,256],"name":".png"},"primary":true}],"verified":false,"stats":{"checkinsCount":109,"usersCount":25,"tipCount":0},"specials":{"count":0,"items":[]},"hereNow":{"count":0}},{"id":"4f619857e4b00c2a00632fd8","name":"積水ハウス株式会社 SHIC PLAZA 住まいの情報館","contact":{},"location":{"lat":35.01094,"lng":135.759828,"distance":19,"country":"Japan"},"categories":[{"id":"4bf58dd8d48988d1ff931735","name":"Convention Center","pluralName":"Convention Centers","shortName":"Convention Center","icon":{"prefix":"https:\/\/foursquare.com\/img\/categories\/building\/conventioncenter_","sizes":[32,44,64,88,256],"name":".png"},"primary":true}],"verified":false,"stats":{"checkinsCount":1,"usersCount":1,"tipCount":0},"specials":{"count":0,"items":[]},"hereNow":{"count":0}},{"id":"4edea33fe5e8c91177c4e503","name":"烏丸御池遺跡・平安京跡","contact":{},"location":{"address":"中京区","crossStreet":"烏丸通御池東北角","lat":35.01109695050388,"lng":135.75990200042725,"distance":37,"city":"京都市","state":"京都府","country":"Japan"},"categories":[{"id":"4deefb944765f83613cdba6e","name":"Historic Site","pluralName":"Historic Sites","shortName":"Historic Site","icon":{"prefix":"https:\/\/foursquare.com\/img\/categories\/arts_entertainment\/museum_","sizes":[32,44,64,88,256],"name":".png"},"primary":true}],"verified":false,"stats":{"checkinsCount":24,"usersCount":7,"tipCount":1},"specials":{"count":0,"items":[]},"hereNow":{"count":0}},{"id":"4ec645fc29c22cc60ae0b184","name":"京都バス 烏丸御池","contact":{},"location":{"lat":35.01078939246678,"lng":135.75966596603394,"distance":3,"city":"京都市","state":"京都府","country":"Japan"},"categories":[{"id":"4bf58dd8d48988d1fe931735","name":"Bus Station","pluralName":"Bus Stations","shortName":"Bus Station","icon":{"prefix":"https:\/\/foursquare.com\/img\/categories\/travel\/busstation_","sizes":[32,44,64,88,256],"name":".png"},"primary":true}],"verified":false,"stats":{"checkinsCount":2,"usersCount":2,"tipCount":0},"specials":{"count":0,"items":[]},"hereNow":{"count":0}},{"id":"4b6fe6e3f964a5207cff2ce3","name":"いきいきうどん 京都店","contact":{"phone":"0752548677","formattedPhone":"075-254-8677"},"location":{"address":"中京区御池通室町東入籠池町448 伊と幸ビル1F","crossStreet":"烏丸御池","lat":35.011090359986646,"lng":135.75830340385437,"distance":127,"postalCode":"604-8176","city":"京都市","state":"京都府","country":"Japan"},"categories":[{"id":"4bf58dd8d48988d1d1941735","name":"Ramen or Noodle House","pluralName":"Ramen or Noodle House","shortName":"Ramen \/ Noodles","icon":{"prefix":"https:\/\/foursquare.com\/img\/categories\/food\/ramen_","sizes":[32,44,64,88,256],"name":".png"},"primary":true}],"verified":false,"stats":{"checkinsCount":428,"usersCount":85,"tipCount":4},"specials":{"count":0,"items":[]},"hereNow":{"count":0}},{"id":"4ea4effa8b81a02f8aa21e11","name":"Dai's弁当","contact":{},"location":{"lat":35.010982,"lng":135.760055,"distance":39,"country":"Japan"},"categories":[{"id":"4bf58dd8d48988d1cb941735","name":"Food Truck","pluralName":"Food Trucks","shortName":"Street Food","icon":{"prefix":"https:\/\/foursquare.com\/img\/categories\/food\/streetfood_","sizes":[32,44,64,88,256],"name":".png"},"primary":true}],"verified":false,"stats":{"checkinsCount":16,"usersCount":7,"tipCount":0},"specials":{"count":0,"items":[]},"hereNow":{"count":0}},{"id":"4b628843f964a520924a2ae3","name":"京都国際マンガミュージアム","contact":{},"location":{"address":"中京区金吹町452","crossStreet":"烏丸通御池上ル (元龍池小学校)","lat":35.01184009410166,"lng":135.75900218518063,"distance":128,"city":"京都市","state":"京都府","country":"Japan"},"categories":[{"id":"4bf58dd8d48988d18f941735","name":"Art Museum","pluralName":"Art Museums","shortName":"Art Museum","icon":{"prefix":"https:\/\/foursquare.com\/img\/categories\/arts_entertainment\/museum_art_","sizes":[32,44,64,88,256],"name":".png"},"primary":true}],"verified":false,"stats":{"checkinsCount":671,"usersCount":537,"tipCount":7},"specials":{"count":0,"items":[]},"hereNow":{"count":0}},{"id":"4b6feb48f964a52008002de3","name":"サークルK 烏丸御池店","contact":{"phone":"0752135538","formattedPhone":"075-213-5538"},"location":{"address":"中京区虎屋町577番地2","crossStreet":"烏丸通御池下る","lat":35.010103973252285,"lng":135.75989663600922,"distance":82,"postalCode":"604-8171","city":"京都市","state":"京都府","country":"Japan"},"categories":[{"id":"4bf58dd8d48988d1ff941735","name":"Miscellaneous Shop","pluralName":"Miscellaneous Shops","shortName":"Other - Shop","icon":{"prefix":"https:\/\/foursquare.com\/img\/categories\/shops\/default_","sizes":[32,44,64,88,256],"name":".png"},"primary":true}],"verified":false,"stats":{"checkinsCount":142,"usersCount":40,"tipCount":1},"specials":{"count":0,"items":[]},"hereNow":{"count":0}},{"id":"4b9adb06f964a5208edc35e3","name":"ハートンホテル京都","contact":{},"location":{"address":"船屋町405","crossStreet":"東洞院通御池上ル","lat":35.01154433066023,"lng":135.76083807933563,"distance":133,"city":"京都市中京区","state":"京都府","country":"Japan"},"categories":[{"id":"4bf58dd8d48988d1fa931735","name":"Hotel","pluralName":"Hotels","shortName":"Hotel","icon":{"prefix":"https:\/\/foursquare.com\/img\/categories\/travel\/hotel_","sizes":[32,44,64,88,256],"name":".png"},"primary":true}],"verified":false,"stats":{"checkinsCount":245,"usersCount":115,"tipCount":2},"specials":{"count":0,"items":[]},"hereNow":{"count":0}},{"id":"4f631074e4b041039c5ae690","name":"明治安田生命京都ビル","contact":{},"location":{"lat":35.01115846197252,"lng":135.75932264328003,"distance":48,"country":"Japan"},"categories":[{"id":"4bf58dd8d48988d130941735","name":"Building","pluralName":"Buildings","shortName":"Other - Buildings","icon":{"prefix":"https:\/\/foursquare.com\/img\/categories\/building\/default_","sizes":[32,44,64,88,256],"name":".png"},"primary":true}],"verified":false,"stats":{"checkinsCount":2,"usersCount":1,"tipCount":0},"specials":{"count":0,"items":[]},"hereNow":{"count":0}},{"id":"4c678925e1da1b8d28899ec3","name":"ローソン 御池笹屋町店","contact":{"phone":"0752577408","formattedPhone":"075-257-7408","twitter":"akiko_lawson"},"location":{"address":"中京区笹屋町436-2","crossStreet":"東洞院通御池下ル","lat":35.01056751059336,"lng":135.7610285282135,"distance":127,"postalCode":"604-8161","city":"京都市","state":"京都府","country":"Japan"},"categories":[{"id":"4d954b0ea243a5684a65b473","name":"Convenience Store","pluralName":"Convenience Stores","shortName":"Convenience Stores","icon":{"prefix":"https:\/\/foursquare.com\/img\/categories\/shops\/default_","sizes":[32,44,64,88,256],"name":".png"},"primary":true}],"verified":true,"stats":{"checkinsCount":90,"usersCount":34,"tipCount":0},"specials":{"count":0,"items":[]},"hereNow":{"count":0}},{"id":"4d9cf4db83f36ea86e92ad94","name":"井門明治安田生命ビル","contact":{},"location":{"address":"虎屋町566-1","crossStreet":"井門明治安田生命ビル","lat":35.01052577037169,"lng":135.75934410095215,"distance":44,"city":"京都市中京区","state":"京都府","country":"Japan"},"categories":[{"id":"4bf58dd8d48988d123951735","name":"Smoke Shop","pluralName":"Smoke Shops","shortName":"Tobacco & Cigars","icon":{"prefix":"https:\/\/foursquare.com\/img\/categories\/shops\/tobacco_","sizes":[32,44,64,88,256],"name":".png"},"primary":true}],"verified":false,"stats":{"checkinsCount":150,"usersCount":15,"tipCount":0},"specials":{"count":0,"items":[]},"hereNow":{"count":0}},{"id":"4bb2ef624019a5934d7137b8","name":"スポーツ館ミツハシ 京都烏丸御池本店","contact":{"phone":"0752546750","formattedPhone":"075-254-6750"},"location":{"address":"東洞院御池北東角","lat":35.01113649359618,"lng":135.76122969388962,"distance":146,"city":"京都市中京区","state":"京都府","country":"Japan"},"categories":[{"id":"4bf58dd8d48988d1f2941735","name":"Sporting Goods Shop","pluralName":"Sporting Goods Shops","shortName":"Sporting Goods","icon":{"prefix":"https:\/\/foursquare.com\/img\/categories\/shops\/sports_outdoors_","sizes":[32,44,64,88,256],"name":".png"},"primary":true}],"verified":false,"stats":{"checkinsCount":238,"usersCount":113,"tipCount":1},"specials":{"count":0,"items":[]},"hereNow":{"count":0}},{"id":"4b7665c0f964a520e64a2ee3","name":"やまや 烏丸御池店","contact":{"phone":"0752544733","formattedPhone":"075-254-4733"},"location":{"address":"中京区場之町592","crossStreet":"烏丸通三条上る メディナ烏丸御池1F","lat":35.00959210195158,"lng":135.75944066047668,"distance":138,"postalCode":"6048172","city":"京都市","state":"京都府","country":"Japan"},"categories":[{"id":"4bf58dd8d48988d186941735","name":"Liquor Store","pluralName":"Liquor Stores","shortName":"Liquor Store","icon":{"prefix":"https:\/\/foursquare.com\/img\/categories\/shops\/default_","sizes":[32,44,64,88,256],"name":".png"},"primary":true}],"verified":false,"stats":{"checkinsCount":285,"usersCount":69,"tipCount":4},"specials":{"count":0,"items":[]},"hereNow":{"count":0}},{"id":"4e8111f5e5fa56294ca80314","name":"日本アジア証券","contact":{},"location":{"lat":35.010887793610316,"lng":135.7602364167688,"distance":52,"country":"Japan"},"categories":[{"id":"4d4b7105d754a06375d81259","name":"Professional & Other Places","pluralName":"Professional & Other Places","shortName":"Professional & Other Places","icon":{"prefix":"https:\/\/foursquare.com\/img\/categories\/building\/default_","sizes":[32,44,64,88,256],"name":".png"},"primary":true}],"verified":false,"stats":{"checkinsCount":11,"usersCount":2,"tipCount":0},"specials":{"count":0,"items":[]},"hereNow":{"count":0}},{"id":"4bd432a59854d13abe2dff4d","name":"あさきぬ","contact":{},"location":{"lat":35.010094,"lng":135.75914,"distance":94,"country":"Japan"},"categories":[],"verified":false,"stats":{"checkinsCount":21,"usersCount":10,"tipCount":1},"specials":{"count":0,"items":[]},"hereNow":{"count":0}},{"id":"4ede9d9be5e8c91177c3f68a","name":"梅田雲濱邸址","contact":{},"location":{"address":"中京区","crossStreet":"烏丸通御池上る東側","lat":35.011632977461446,"lng":135.7598054409027,"distance":90,"city":"京都","state":"京都","country":"Japan"},"categories":[{"id":"4deefb944765f83613cdba6e","name":"Historic Site","pluralName":"Historic Sites","shortName":"Historic Site","icon":{"prefix":"https:\/\/foursquare.com\/img\/categories\/arts_entertainment\/museum_","sizes":[32,44,64,88,256],"name":".png"},"primary":true}],"verified":false,"stats":{"checkinsCount":2,"usersCount":1,"tipCount":1},"specials":{"count":0,"items":[]},"hereNow":{"count":0}},{"id":"4cc7e9727722bfb7213da2fa","name":"高木神経科医院","contact":{"phone":"0752220450","formattedPhone":"075-222-0450"},"location":{"address":"二条殿町５４６","lat":35.011209497391725,"lng":135.7595422001696,"distance":44,"city":"京都市中京区","state":"京都府","country":"Japan"},"categories":[{"id":"4bf58dd8d48988d177941735","name":"Doctor's Office","pluralName":"Doctor's Offices","shortName":"Doctor's Office","icon":{"prefix":"https:\/\/foursquare.com\/img\/categories\/building\/medical_","sizes":[32,44,64,88,256],"name":".png"},"primary":true}],"verified":false,"stats":{"checkinsCount":10,"usersCount":3,"tipCount":0},"specials":{"count":0,"items":[]},"hereNow":{"count":0}},{"id":"4c96c70182b56dcb2fb9e4aa","name":"Bum Sports","contact":{},"location":{"lat":35.011827313206766,"lng":135.75943575451868,"distance":113,"country":"Japan"},"categories":[{"id":"4bf58dd8d48988d1f2941735","name":"Sporting Goods Shop","pluralName":"Sporting Goods Shops","shortName":"Sporting Goods","icon":{"prefix":"https:\/\/foursquare.com\/img\/categories\/shops\/sports_outdoors_","sizes":[32,44,64,88,256],"name":".png"},"primary":true}],"verified":false,"stats":{"checkinsCount":12,"usersCount":5,"tipCount":0},"specials":{"count":0,"items":[]},"hereNow":{"count":0}},{"id":"4bb2f20b14cfd13ab68d15ab","name":"ドラッグユタカ 烏丸三条店","contact":{"phone":"0752127699","formattedPhone":"075-212-7699"},"location":{"address":"中京区場之町590","crossStreet":"烏丸通姉小路下る","lat":35.00969974897179,"lng":135.75933873653412,"distance":128,"postalCode":"604-8172","city":"京都市","state":"京都府","country":"Japan"},"categories":[{"id":"4bf58dd8d48988d10f951735","name":"Drugstore or Pharmacy","pluralName":"Drugstores or Pharmacies","shortName":"Pharmacy","icon":{"prefix":"https:\/\/foursquare.com\/img\/categories\/shops\/drugstore_","sizes":[32,44,64,88,256],"name":".png"},"primary":true}],"verified":false,"stats":{"checkinsCount":81,"usersCount":29,"tipCount":0},"specials":{"count":0,"items":[]},"hereNow":{"count":0}},{"id":"4e66ecc618a8bf0571633457","name":"タージマハール","contact":{},"location":{"lat":35.00945387586055,"lng":135.75769100535027,"distance":236,"city":"京都市中京区","state":"京都府","country":"Japan"},"categories":[{"id":"4bf58dd8d48988d10f941735","name":"Indian Restaurant","pluralName":"Indian Restaurants","shortName":"Indian","icon":{"prefix":"https:\/\/foursquare.com\/img\/categories\/food\/indian_","sizes":[32,44,64,88,256],"name":".png"},"primary":true}],"verified":false,"stats":{"checkinsCount":2,"usersCount":2,"tipCount":0},"specials":{"count":0,"items":[]},"hereNow":{"count":0}},{"id":"4b74c91bf964a520f3f12de3","name":"魚菜酒房くさび","contact":{"phone":"0752227770","formattedPhone":"075-222-7770"},"location":{"address":"両替町通御池下ル柿本町404-6","lat":35.01007761086009,"lng":135.75862526893616,"distance":126,"postalCode":"604-8173","city":"京都市中京区","state":"京都府","country":"Japan"},"categories":[{"id":"4bf58dd8d48988d111941735","name":"Japanese Restaurant","pluralName":"Japanese Restaurants","shortName":"Japanese","icon":{"prefix":"https:\/\/foursquare.com\/img\/categories\/food\/default_","sizes":[32,44,64,88,256],"name":".png"},"primary":true}],"verified":false,"stats":{"checkinsCount":110,"usersCount":11,"tipCount":3},"specials":{"count":0,"items":[]},"hereNow":{"count":0}},{"id":"4d3fc313cb84b60c502b80ab","name":"すき家 烏丸押小路店","contact":{},"location":{"address":"烏丸御池上ル二条殿町538","crossStreet":"ヤサカ烏丸御池ビル1階","lat":35.012151426422655,"lng":135.75990736484528,"distance":149,"city":"京都市中京区","state":"京都府","country":"Japan"},"categories":[{"id":"4bf58dd8d48988d16e941735","name":"Fast Food Restaurant","pluralName":"Fast Food Restaurants","shortName":"Fast Food","icon":{"prefix":"https:\/\/foursquare.com\/img\/categories\/food\/fastfood_","sizes":[32,44,64,88,256],"name":".png"},"primary":true}],"verified":false,"stats":{"checkinsCount":99,"usersCount":55,"tipCount":1},"specials":{"count":0,"items":[]},"hereNow":{"count":0}},{"id":"4ec0a04a30f82a2e13805664","name":"カラスマオイケ・カレー カリカリ","contact":{"phone":"0752113450","formattedPhone":"075-211-3450"},"location":{"address":"仲保利町191-4","crossStreet":"上原ビル B1F","lat":35.01108816314743,"lng":135.76071739196777,"distance":100,"city":"京都市中京区","state":"京都府","country":"Japan"},"categories":[{"id":"4bf58dd8d48988d1c7941735","name":"Snack Place","pluralName":"Snack Places","shortName":"Snacks","icon":{"prefix":"https:\/\/foursquare.com\/img\/categories\/food\/default_","sizes":[32,44,64,88,256],"name":".png"},"primary":true}],"verified":false,"stats":{"checkinsCount":6,"usersCount":3,"tipCount":0},"specials":{"count":0,"items":[]},"hereNow":{"count":0}},{"id":"4e4c9129d4c083e9648c93d0","name":"抹茶屋本店","contact":{},"location":{"lat":35.010719,"lng":135.760361,"distance":64,"country":"Japan"},"categories":[{"id":"4bf58dd8d48988d111941735","name":"Japanese Restaurant","pluralName":"Japanese Restaurants","shortName":"Japanese","icon":{"prefix":"https:\/\/foursquare.com\/img\/categories\/food\/default_","sizes":[32,44,64,88,256],"name":".png"},"primary":true}],"verified":false,"stats":{"checkinsCount":8,"usersCount":2,"tipCount":0},"specials":{"count":0,"items":[]},"hereNow":{"count":0}},{"id":"4d4368ee14aa8cfa2f575a3d","name":"LIXIL京都ショールーム-INAX-","contact":{"phone":"0752311716","formattedPhone":"075-231-1716"},"location":{"address":"龍池町448-1","lat":35.011110131536775,"lng":135.7586306333542,"distance":99,"city":"京都市中京区","state":"京都府","country":"Japan"},"categories":[{"id":"4bf58dd8d48988d124941735","name":"Office","pluralName":"Offices","shortName":"Corporate \/ Office","icon":{"prefix":"https:\/\/foursquare.com\/img\/categories\/building\/default_","sizes":[32,44,64,88,256],"name":".png"},"primary":true}],"verified":false,"stats":{"checkinsCount":6,"usersCount":5,"tipCount":0},"hereNow":{"count":0}}]}}
