{"meta":{"code":200},"response":{"venues":[{"id":"4c09fb756071a593a4e9de32","name":"AGスクエア大津店","contact":{},"location":{"lat":35.00377,"lng":135.88324945,"distance":2238,"country":"Japan"},"categories":[{"id":"4bf58dd8d48988d1e1931735","name":"Arcade","pluralName":"Arcades","shortName":"Arcade","icon":{"prefix":"https:\/\/foursquare.com\/img\/categories_v2\/arts_entertainment\/arcade_","suffix":".png"},"primary":true}],"verified":false,"stats":{"checkinsCount":187,"usersCount":39,"tipCount":0},"likes":{"count":0,"groups":[]},"specials":{"count":0,"items":[]},"hereNow":{"count":0,"groups":[]}},{"id":"4bc991920687ef3b8723dacc","name":"西武大津ショッピングセンター","contact":{"phone":"+81775210111","formattedPhone":"+81 77-521-0111"},"location":{"address":"におの浜2-3-1","lat":35.004238131628554,"lng":135.8818405866623,"distance":2242,"postalCode":"520-8580","city":"大津市","state":"滋賀県","country":"Japan"},"categories":[{"id":"4bf58dd8d48988d1f6941735","name":"Department Store","pluralName":"Department Stores","shortName":"Department Store","icon":{"prefix":"https:\/\/foursquare.com\/img\/categories_v2\/shops\/departmentstore_","suffix":".png"},"primary":true}],"verified":false,"stats":{"checkinsCount":973,"usersCount":195,"tipCount":0},"likes":{"count":0,"groups":[]},"specials":{"count":0,"items":[]},"hereNow":{"count":0,"groups":[]}},{"id":"4b60ee86f964a52012022ae3","name":"大津京駅","contact":{},"location":{"address":"皇子が丘2-8-1","crossStreet":"JR湖西線","lat":35.02444220765243,"lng":135.8572769165039,"distance":3215,"postalCode":"520-0025","city":"大津市","state":"滋賀県","country":"Japan"},"categories":[{"id":"4bf58dd8d48988d129951735","name":"Train Station","pluralName":"Train Stations","shortName":"Train Station","icon":{"prefix":"https:\/\/foursquare.com\/img\/categories_v2\/travel\/trainstation_","suffix":".png"},"primary":true}],"verified":false,"stats":{"checkinsCount":2679,"usersCount":427,"tipCount":6},"likes":{"count":0,"groups":[]},"specials":{"count":0,"items":[]},"hereNow":{"count":0,"groups":[]}},{"id":"4cda09b3fc97370441f5c505","name":"石場駅","contact":{},"location":{"address":"松本2-15-6","crossStreet":"京阪石山坂本線","lat":35.004988960859606,"lng":135.8753851801157,"distance":2486,"city":"大津市","state":"滋賀県","country":"Japan"},"categories":[{"id":"4bf58dd8d48988d129951735","name":"Train Station","pluralName":"Train Stations","shortName":"Train Station","icon":{"prefix":"https:\/\/foursquare.com\/img\/categories_v2\/travel\/trainstation_","suffix":".png"},"primary":true}],"verified":false,"stats":{"checkinsCount":861,"usersCount":87,"tipCount":1},"likes":{"count":0,"groups":[]},"specials":{"count":0,"items":[]},"hereNow":{"count":0,"groups":[]}},{"id":"4b7646ebf964a52050462ee3","name":"Starbucks Coffee 大津パルコ店","contact":{"phone":"+81775277107","formattedPhone":"+81 77-527-7107","twitter":"Starbucks"},"location":{"address":"打出浜14-30","crossStreet":"大津パルコサテライト館 1F","lat":35.00419419115289,"lng":135.88014408946037,"distance":2317,"postalCode":"520-0806","city":"大津市","state":"滋賀県","country":"Japan"},"categories":[{"id":"4bf58dd8d48988d1e0931735","name":"Coffee Shop","pluralName":"Coffee Shops","shortName":"Coffee Shop","icon":{"prefix":"https:\/\/foursquare.com\/img\/categories_v2\/food\/coffeeshop_","suffix":".png"},"primary":true}],"verified":false,"stats":{"checkinsCount":660,"usersCount":167,"tipCount":2},"likes":{"count":0,"groups":[]},"specials":{"count":0,"items":[]},"hereNow":{"count":0,"groups":[]}},{"id":"4c10c6d3ce57c928075282d2","name":"マックスバリュ 膳所店","contact":{"phone":"+81775260232","formattedPhone":"+81 77-526-0232"},"location":{"address":"におの浜3-1-14","lat":35.00484890179651,"lng":135.88325142860413,"distance":2127,"postalCode":"520-0801","city":"大津市","state":"滋賀県","country":"Japan"},"categories":[{"id":"4bf58dd8d48988d118951735","name":"Grocery Store","pluralName":"Grocery Stores","shortName":"Grocery Store","icon":{"prefix":"https:\/\/foursquare.com\/img\/categories_v2\/shops\/food_grocery_","suffix":".png"},"primary":true}],"verified":false,"stats":{"checkinsCount":543,"usersCount":78,"tipCount":0},"likes":{"count":0,"groups":[]},"specials":{"count":0,"items":[]},"hereNow":{"count":0,"groups":[]}},{"id":"4be64095cf200f476870143c","name":"大津PARCO","contact":{"phone":"+81775277111","formattedPhone":"+81 77-527-7111"},"location":{"address":"打出浜14-30","lat":35.00453253220681,"lng":135.8792281150818,"distance":2327,"postalCode":"5200806","city":"大津市","state":"滋賀県","country":"Japan"},"categories":[{"id":"4bf58dd8d48988d1fd941735","name":"Mall","pluralName":"Malls","shortName":"Mall","icon":{"prefix":"https:\/\/foursquare.com\/img\/categories_v2\/shops\/mall_","suffix":".png"},"primary":true}],"verified":false,"stats":{"checkinsCount":1233,"usersCount":387,"tipCount":0},"likes":{"count":0,"groups":[]},"specials":{"count":0,"items":[]},"hereNow":{"count":0,"groups":[]}},{"id":"4b8f5353f964a5207e5133e3","name":"大津プリンスホテル","contact":{"phone":"+81775211111","formattedPhone":"+81 77-521-1111"},"location":{"address":"におの浜4-7-7","lat":35.00509990943742,"lng":135.889128819108,"distance":1950,"postalCode":"520-8520","city":"大津市","state":"滋賀県","country":"Japan"},"categories":[{"id":"4bf58dd8d48988d1fa931735","name":"Hotel","pluralName":"Hotels","shortName":"Hotel","icon":{"prefix":"https:\/\/foursquare.com\/img\/categories_v2\/travel\/hotel_","suffix":".png"},"primary":true}],"verified":false,"stats":{"checkinsCount":411,"usersCount":276,"tipCount":2},"url":"http:\/\/www.princehotels.co.jp\/otsu\/","likes":{"count":0,"groups":[]},"specials":{"count":0,"items":[]},"hereNow":{"count":0,"groups":[]}},{"id":"4be346e7b02ec9b6f6154fc0","name":"錦駅","contact":{},"location":{"address":"昭和町2-8","crossStreet":"京阪石山坂本線","lat":34.997497386813066,"lng":135.8858934044838,"distance":2836,"city":"大津市","state":"滋賀県","country":"Japan"},"categories":[{"id":"4bf58dd8d48988d129951735","name":"Train Station","pluralName":"Train Stations","shortName":"Train Station","icon":{"prefix":"https:\/\/foursquare.com\/img\/categories_v2\/travel\/trainstation_","suffix":".png"},"primary":true}],"verified":false,"stats":{"checkinsCount":616,"usersCount":27,"tipCount":1},"likes":{"count":0,"groups":[]},"specials":{"count":0,"items":[]},"hereNow":{"count":0,"groups":[]}},{"id":"4c54f0a706901b8d3420994c","name":"マクドナルド 柳が崎店","contact":{"phone":"+81775264938","formattedPhone":"+81 77-526-4938"},"location":{"address":"松山町9-35","lat":35.027659439155556,"lng":135.86495876312256,"distance":2574,"postalCode":"520-0024","city":"大津市","state":"滋賀県","country":"Japan"},"categories":[{"id":"4bf58dd8d48988d16c941735","name":"Burger Joint","pluralName":"Burger Joints","shortName":"Burgers","icon":{"prefix":"https:\/\/foursquare.com\/img\/categories_v2\/food\/burger_","suffix":".png"},"primary":true}],"verified":false,"stats":{"checkinsCount":234,"usersCount":52,"tipCount":3},"likes":{"count":0,"groups":[]},"specials":{"count":0,"items":[]},"hereNow":{"count":0,"groups":[]}},{"id":"4d93d3b145ae54811eb9f7eb","name":"におの浜 ふれあいスポーツセンター","contact":{"phone":"+81775273553","formattedPhone":"+81 77-527-3553"},"location":{"address":"におの浜四丁目2-40","lat":35.00543769749794,"lng":135.88592290878296,"distance":1980,"postalCode":"520-0801","city":"大津市","state":"滋賀県","country":"Japan"},"categories":[{"id":"4bf58dd8d48988d175941735","name":"Gym \/ Fitness Center","pluralName":"Gyms or Fitness Centers","shortName":"Gym \/ Fitness","icon":{"prefix":"https:\/\/foursquare.com\/img\/categories_v2\/building\/gym_","suffix":".png"},"primary":true}],"verified":false,"stats":{"checkinsCount":93,"usersCount":11,"tipCount":2},"likes":{"count":0,"groups":[]},"specials":{"count":0,"items":[]},"hereNow":{"count":0,"groups":[]}},{"id":"4bd9119d0115c9b6526a7680","name":"大津湖岸なぎさ公園","contact":{},"location":{"address":"由美浜","lat":35.00130285598954,"lng":135.8919632434845,"distance":2349,"city":"大津市","state":"滋賀県","country":"Japan"},"categories":[{"id":"4bf58dd8d48988d163941735","name":"Park","pluralName":"Parks","shortName":"Park","icon":{"prefix":"https:\/\/foursquare.com\/img\/categories_v2\/parks_outdoors\/park_","suffix":".png"},"primary":true}],"verified":false,"stats":{"checkinsCount":254,"usersCount":87,"tipCount":1},"likes":{"count":0,"groups":[]},"specials":{"count":0,"items":[]},"hereNow":{"count":0,"groups":[]}},{"id":"4bcaa3a2511f95219f46b0c7","name":"矢橋帰帆島公園","contact":{},"location":{"lat":35.00757314485931,"lng":135.91375350952148,"distance":2548,"city":"草津市","state":"滋賀県","country":"Japan"},"categories":[{"id":"4bf58dd8d48988d1e7941735","name":"Playground","pluralName":"Playgrounds","shortName":"Playground","icon":{"prefix":"https:\/\/foursquare.com\/img\/categories_v2\/parks_outdoors\/playground_","suffix":".png"},"primary":true}],"verified":false,"stats":{"checkinsCount":318,"usersCount":155,"tipCount":3},"likes":{"count":0,"groups":[]},"specials":{"count":0,"items":[]},"hereNow":{"count":0,"groups":[]}},{"id":"4eca413bbe7ba4fc71a249ec","name":"ホンダカーズ滋賀東  大津東店","contact":{"phone":"+81120252746","formattedPhone":"+81 120-252-746"},"location":{"address":"日本","lat":35.00225644,"lng":135.88898965,"distance":2265,"city":"大津市","state":"滋賀県","country":"Japan"},"categories":[{"id":"4bf58dd8d48988d124951735","name":"Automotive Shop","pluralName":"Automotive Shops","shortName":"Automotive","icon":{"prefix":"https:\/\/foursquare.com\/img\/categories_v2\/shops\/automotive_","suffix":".png"},"primary":true}],"verified":false,"stats":{"checkinsCount":45,"usersCount":6,"tipCount":0},"likes":{"count":0,"groups":[]},"specials":{"count":0,"items":[]},"hereNow":{"count":0,"groups":[]}},{"id":"4bcaaa5f3740b7132a536165","name":"水環境科学館","contact":{},"location":{"lat":35.01101518496292,"lng":135.9170038360022,"distance":2571,"country":"Japan"},"categories":[{"id":"4bf58dd8d48988d191941735","name":"Science Museum","pluralName":"Science Museums","shortName":"Science Museum","icon":{"prefix":"https:\/\/foursquare.com\/img\/categories_v2\/arts_entertainment\/museum_science_","suffix":".png"},"primary":true}],"verified":false,"stats":{"checkinsCount":90,"usersCount":12,"tipCount":0},"likes":{"count":0,"groups":[]},"specials":{"count":0,"items":[]},"hereNow":{"count":0,"groups":[]}},{"id":"4bfb93f5bbb7c92868470843","name":"カレーハウスCoCo壱番屋 大津におの浜店","contact":{},"location":{"address":"におの浜3-1-7","lat":35.004207373298065,"lng":135.88338017463684,"distance":2188,"postalCode":"520-0801","city":"大津市","state":"滋賀県","country":"Japan"},"categories":[{"id":"4bf58dd8d48988d1c4941735","name":"Restaurant","pluralName":"Restaurants","shortName":"Other - Food","icon":{"prefix":"https:\/\/foursquare.com\/img\/categories_v2\/food\/default_","suffix":".png"},"primary":true}],"verified":false,"stats":{"checkinsCount":46,"usersCount":27,"tipCount":0},"likes":{"count":0,"groups":[]},"specials":{"count":0,"items":[]},"hereNow":{"count":0,"groups":[]}},{"id":"4dde4e16b0fbc2c4eeff6afd","name":"北山田漁港","contact":{},"location":{"lat":35.02963507338513,"lng":135.91365089437963,"distance":2092,"postalCode":"525-0061","city":"草津市","state":"滋賀県","country":"Japan"},"categories":[{"id":"4bf58dd8d48988d161941735","name":"Lake","pluralName":"Lakes","shortName":"Lake \/ Pond","icon":{"prefix":"https:\/\/foursquare.com\/img\/categories_v2\/parks_outdoors\/lake_","suffix":".png"},"primary":true}],"verified":false,"stats":{"checkinsCount":10,"usersCount":8,"tipCount":0},"likes":{"count":0,"groups":[]},"specials":{"count":0,"items":[]},"hereNow":{"count":0,"groups":[]}},{"id":"4d0d9020bdbfa35d21906a72","name":"滋賀県立体育館 本館","contact":{"phone":"+81775240221","formattedPhone":"+81 77-524-0221"},"location":{"address":"におの浜4-2-12","lat":35.00505102617167,"lng":135.88722109794617,"distance":1990,"postalCode":"520-0801","city":"大津市","state":"滋賀県","country":"Japan"},"categories":[{"id":"4bf58dd8d48988d1b2941735","name":"College Gym","pluralName":"College Gyms","shortName":"Gym \/ Fitness","icon":{"prefix":"https:\/\/foursquare.com\/img\/categories_v2\/building\/gym_","suffix":".png"},"primary":true}],"verified":false,"stats":{"checkinsCount":66,"usersCount":38,"tipCount":1},"likes":{"count":0,"groups":[]},"specials":{"count":0,"items":[]},"hereNow":{"count":0,"groups":[]}},{"id":"4f793592e4b0a174b0ec3dcb","name":"滋賀リビング新聞社","contact":{},"location":{"lat":35.00461844846759,"lng":135.88329521286738,"distance":2149,"country":"Japan"},"categories":[{"id":"4bf58dd8d48988d1ff941735","name":"Miscellaneous Shop","pluralName":"Miscellaneous Shops","shortName":"Other - Shop","icon":{"prefix":"https:\/\/foursquare.com\/img\/categories_v2\/shops\/default_","suffix":".png"},"primary":true}],"verified":false,"stats":{"checkinsCount":6,"usersCount":3,"tipCount":0},"likes":{"count":0,"groups":[]},"specials":{"count":0,"items":[]},"hereNow":{"count":0,"groups":[]}},{"id":"4ece2903a17c6864e4d8dbf5","name":"関西電力株式会社 滋賀営業所","contact":{"phone":"+81775222611","formattedPhone":"+81 77-522-2611"},"location":{"address":"におの浜4丁目1番51号","lat":35.00258155936999,"lng":135.88590681552887,"distance":2286,"postalCode":"520-8570","city":"大津市","state":"滋賀県","country":"Japan"},"categories":[{"id":"4bf58dd8d48988d122951735","name":"Electronics Store","pluralName":"Electronics Stores","shortName":"Electronics","icon":{"prefix":"https:\/\/foursquare.com\/img\/categories_v2\/shops\/technology_","suffix":".png"},"primary":true}],"verified":false,"stats":{"checkinsCount":10,"usersCount":4,"tipCount":0},"likes":{"count":0,"groups":[]},"specials":{"count":0,"items":[]},"hereNow":{"count":0,"groups":[]}},{"id":"4e1596da1f6e29fb7d511af0","name":"滋賀県立武道館","contact":{},"location":{"lat":35.0048067338423,"lng":135.88672463782132,"distance":2027,"country":"Japan"},"categories":[{"id":"4bf58dd8d48988d101941735","name":"Martial Arts Dojo","pluralName":"Martial Arts Dojos","shortName":"Martial Arts","icon":{"prefix":"https:\/\/foursquare.com\/img\/categories_v2\/shops\/gym_martialarts_","suffix":".png"},"primary":true}],"verified":false,"stats":{"checkinsCount":31,"usersCount":11,"tipCount":0},"likes":{"count":0,"groups":[]},"specials":{"count":0,"items":[]},"hereNow":{"count":0,"groups":[]}},{"id":"4bd909e6e914a5931a8e55fa","name":"湖岸緑地","contact":{},"location":{"lat":35.02739587144383,"lng":135.9155559539795,"distance":2176,"country":"Japan"},"categories":[{"id":"4bf58dd8d48988d161941735","name":"Lake","pluralName":"Lakes","shortName":"Lake \/ Pond","icon":{"prefix":"https:\/\/foursquare.com\/img\/categories_v2\/parks_outdoors\/lake_","suffix":".png"},"primary":true}],"verified":false,"stats":{"checkinsCount":40,"usersCount":33,"tipCount":0},"likes":{"count":0,"groups":[]},"specials":{"count":0,"items":[]},"hereNow":{"count":0,"groups":[]}},{"id":"4dbfa5fd4df0f8fd6b8b3cbd","name":"大津湖岸なぎさ公園 なぎさのプロムナード","contact":{},"location":{"address":"におの浜","lat":35.0066064883501,"lng":135.8828866481781,"distance":1963,"city":"大津市","state":"滋賀県","country":"Japan"},"categories":[{"id":"4bf58dd8d48988d1e2941735","name":"Beach","pluralName":"Beaches","shortName":"Beach","icon":{"prefix":"https:\/\/foursquare.com\/img\/categories_v2\/parks_outdoors\/beach_","suffix":".png"},"primary":true}],"verified":false,"stats":{"checkinsCount":23,"usersCount":18,"tipCount":0},"likes":{"count":0,"groups":[]},"specials":{"count":0,"items":[]},"hereNow":{"count":0,"groups":[]}},{"id":"4dba20474df0cac21ae8eda5","name":"ニューヨーク","contact":{},"location":{"lat":35.00508455935521,"lng":135.88898428048995,"distance":1954,"country":"Japan"},"categories":[{"id":"4bf58dd8d48988d1cc941735","name":"Steakhouse","pluralName":"Steakhouses","shortName":"Steakhouse","icon":{"prefix":"https:\/\/foursquare.com\/img\/categories_v2\/food\/steakhouse_","suffix":".png"},"primary":true}],"verified":false,"stats":{"checkinsCount":9,"usersCount":7,"tipCount":0},"likes":{"count":0,"groups":[]},"specials":{"count":0,"items":[]},"hereNow":{"count":0,"groups":[]}},{"id":"4f654987e4b08383b2710078","name":"Chatelaine","contact":{},"location":{"lat":35.00701,"lng":135.88919,"distance":1739,"city":"Out","country":"Japan"},"categories":[{"id":"4bf58dd8d48988d16d941735","name":"Café","pluralName":"Cafés","shortName":"Café","icon":{"prefix":"https:\/\/foursquare.com\/img\/categories_v2\/food\/cafe_","suffix":".png"},"primary":true}],"verified":false,"stats":{"checkinsCount":1,"usersCount":1,"tipCount":0},"likes":{"count":0,"groups":[]},"specials":{"count":0,"items":[]},"hereNow":{"count":0,"groups":[]}},{"id":"4b7f3cf0f964a520682130e3","name":"ホンダカーズ 滋賀中央 大津中店","contact":{},"location":{"lat":35.00248928247547,"lng":135.88690795004368,"distance":2274,"country":"Japan"},"categories":[{"id":"4bf58dd8d48988d124951735","name":"Automotive Shop","pluralName":"Automotive Shops","shortName":"Automotive","icon":{"prefix":"https:\/\/foursquare.com\/img\/categories_v2\/shops\/automotive_","suffix":".png"},"primary":true}],"verified":false,"stats":{"checkinsCount":33,"usersCount":8,"tipCount":0},"likes":{"count":0,"groups":[]},"specials":{"count":0,"items":[]},"hereNow":{"count":0,"groups":[]}},{"id":"4ee47069d5fb9fd7876c0916","name":"シュテルン大津","contact":{"phone":"+81775215111","formattedPhone":"+81 77-521-5111"},"location":{"address":"におの浜4丁目6-28","lat":35.00249807075563,"lng":135.88632255792618,"distance":2285,"postalCode":"520-0801","city":"大津市","state":"滋賀県","country":"Japan"},"categories":[{"id":"4eb1c1623b7b52c0e1adc2ec","name":"Car Dealership","pluralName":"Car Dealerships","shortName":"Car Dealer","icon":{"prefix":"https:\/\/foursquare.com\/img\/categories_v2\/shops\/automotive_","suffix":".png"},"primary":true}],"verified":false,"stats":{"checkinsCount":9,"usersCount":4,"tipCount":0},"likes":{"count":0,"groups":[]},"specials":{"count":0,"items":[]},"hereNow":{"count":0,"groups":[]}},{"id":"4e4069f818a875a006a11e0a","name":"湖岸緑地 帰帆島－２","contact":{},"location":{"lat":35.010354,"lng":135.909669,"distance":2063,"country":"Japan"},"categories":[{"id":"4bf58dd8d48988d15f941735","name":"Field","pluralName":"Fields","shortName":"Field","icon":{"prefix":"https:\/\/foursquare.com\/img\/categories_v2\/parks_outdoors\/field_","suffix":".png"},"primary":true}],"verified":false,"stats":{"checkinsCount":13,"usersCount":11,"tipCount":0},"likes":{"count":0,"groups":[]},"specials":{"count":0,"items":[]},"hereNow":{"count":0,"groups":[]}},{"id":"4c6edbde9c6d6dcbc3c1cd7a","name":"セブンイレブン 大津木下町店","contact":{"phone":"+81775237115","formattedPhone":"+81 77-523-7115"},"location":{"address":"木下町18-27","lat":34.99956712698869,"lng":135.89200884103775,"distance":2542,"postalCode":"520-0812","city":"大津市","state":"滋賀県","country":"Japan"},"categories":[{"id":"4d954b0ea243a5684a65b473","name":"Convenience Store","pluralName":"Convenience Stores","shortName":"Convenience Stores","icon":{"prefix":"https:\/\/foursquare.com\/img\/categories_v2\/shops\/conveniencestore_","suffix":".png"},"primary":true}],"verified":false,"stats":{"checkinsCount":47,"usersCount":34,"tipCount":0},"likes":{"count":0,"groups":[]},"specials":{"count":0,"items":[]},"hereNow":{"count":0,"groups":[]}},{"id":"4bf5bd1f94b2a5934d39acee","name":"フレンドマート 大津西の庄店","contact":{"phone":"+81775012761","formattedPhone":"+81 77-501-2761"},"location":{"address":"西の庄20番1号","lat":35.00091177089643,"lng":135.88887333869934,"distance":2414,"postalCode":"520-0818","city":"大津市","state":"滋賀県","country":"Japan"},"categories":[{"id":"4bf58dd8d48988d118951735","name":"Grocery Store","pluralName":"Grocery Stores","shortName":"Grocery Store","icon":{"prefix":"https:\/\/foursquare.com\/img\/categories_v2\/shops\/food_grocery_","suffix":".png"},"primary":true}],"verified":false,"stats":{"checkinsCount":44,"usersCount":14,"tipCount":0},"likes":{"count":0,"groups":[]},"specials":{"count":0,"items":[]},"hereNow":{"count":0,"groups":[]}},{"id":"4bdba6213904a5935d9d4b9e","name":"来来亭 西大津店","contact":{"phone":"+81775255518","formattedPhone":"+81 77-525-5518"},"location":{"address":"柳が崎4番7号","lat":35.02757048514786,"lng":135.86539328098297,"distance":2534,"postalCode":"520-0022","city":"大津市","state":"滋賀県","country":"Japan"},"categories":[{"id":"4bf58dd8d48988d1d1941735","name":"Ramen \/  Noodle House","pluralName":"Ramen \/  Noodle House","shortName":"Ramen \/ Noodles","icon":{"prefix":"https:\/\/foursquare.com\/img\/categories_v2\/food\/ramen_","suffix":".png"},"primary":true}],"verified":false,"stats":{"checkinsCount":121,"usersCount":48,"tipCount":3},"likes":{"count":0,"groups":[]},"specials":{"count":0,"items":[]},"hereNow":{"count":0,"groups":[]}},{"id":"4d4e2134122b5481304e824f","name":"渚庵","contact":{},"location":{"lat":35.003959,"lng":135.887615,"distance":2100,"country":"Japan"},"categories":[{"id":"4bf58dd8d48988d111941735","name":"Japanese Restaurant","pluralName":"Japanese Restaurants","shortName":"Japanese","icon":{"prefix":"https:\/\/foursquare.com\/img\/categories_v2\/food\/japanese_","suffix":".png"},"primary":true}],"verified":false,"stats":{"checkinsCount":14,"usersCount":12,"tipCount":1},"likes":{"count":0,"groups":[]},"specials":{"count":0,"items":[]},"hereNow":{"count":0,"groups":[]}},{"id":"4b89ec7df964a5208f5632e3","name":"ドイツレストラン ヴュルツブルク","contact":{"phone":"+81775263500","formattedPhone":"+81 77-526-3500"},"location":{"address":"由美浜5","lat":35.00128527917156,"lng":135.89166283607483,"distance":2352,"city":"大津市","state":"滋賀県","country":"Japan"},"categories":[{"id":"4bf58dd8d48988d10d941735","name":"German Restaurant","pluralName":"German Restaurants","shortName":"German","icon":{"prefix":"https:\/\/foursquare.com\/img\/categories_v2\/food\/german_","suffix":".png"},"primary":true}],"verified":false,"stats":{"checkinsCount":105,"usersCount":39,"tipCount":2},"likes":{"count":0,"groups":[]},"specials":{"count":0,"items":[]},"hereNow":{"count":0,"groups":[]}},{"id":"4cac3e59f47ea143e66e8f21","name":"でん大津店","contact":{},"location":{"lat":35.0262890279634,"lng":135.8650446376379,"distance":2536,"country":"Japan"},"categories":[],"verified":false,"stats":{"checkinsCount":16,"usersCount":11,"tipCount":0},"likes":{"count":0,"groups":[]},"specials":{"count":0,"items":[]},"hereNow":{"count":0,"groups":[]}},{"id":"4dd87f808877f11510057b88","name":"コーヒーショップ マルモラーダ","contact":{},"location":{"address":"におの浜4ｰ7ｰ7","crossStreet":"大津プリンスホテル1F","lat":35.005626,"lng":135.889803,"distance":1883,"city":"大津市","state":"滋賀県","country":"Japan"},"categories":[],"verified":false,"stats":{"checkinsCount":11,"usersCount":4,"tipCount":0},"likes":{"count":0,"groups":[]},"specials":{"count":0,"items":[]},"hereNow":{"count":0,"groups":[]}},{"id":"4f01a7b2b8f787cad2ba520d","name":"サンケイリビング新聞社大津支局","contact":{},"location":{"lat":35.00461645245351,"lng":135.8832812926486,"distance":2150,"city":"大津市","country":"Japan"},"categories":[{"id":"4bf58dd8d48988d124941735","name":"Office","pluralName":"Offices","shortName":"Corporate \/ Office","icon":{"prefix":"https:\/\/foursquare.com\/img\/categories_v2\/building\/default_","suffix":".png"},"primary":true}],"verified":false,"stats":{"checkinsCount":4,"usersCount":1,"tipCount":0},"likes":{"count":0,"groups":[]},"hereNow":{"count":0,"groups":[]}},{"id":"4e6876e045dd6cc5bd0133da","name":"ミンティアが打った場所","contact":{},"location":{"lat":35.00657032265436,"lng":135.88273376724922,"distance":1973,"country":"Japan"},"categories":[{"id":"4d4b7104d754a06370d81259","name":"Arts & Entertainment","pluralName":"Arts & Entertainment","shortName":"Arts & Entertainment","icon":{"prefix":"https:\/\/foursquare.com\/img\/categories_v2\/arts_entertainment\/default_","suffix":".png"},"primary":true}],"verified":false,"stats":{"checkinsCount":15,"usersCount":7,"tipCount":0},"likes":{"count":0,"groups":[]},"specials":{"count":0,"items":[]},"hereNow":{"count":0,"groups":[]}},{"id":"4ebe41f02c5b252c18ebd474","name":"ボーセジョール","contact":{},"location":{"lat":35.005471,"lng":135.889066,"distance":1910,"country":"Japan"},"categories":[{"id":"4bf58dd8d48988d10c941735","name":"French Restaurant","pluralName":"French Restaurants","shortName":"French","icon":{"prefix":"https:\/\/foursquare.com\/img\/categories_v2\/food\/french_","suffix":".png"},"primary":true}],"verified":false,"stats":{"checkinsCount":2,"usersCount":2,"tipCount":0},"likes":{"count":0,"groups":[]},"specials":{"count":0,"items":[]},"hereNow":{"count":0,"groups":[]}},{"id":"4ce889c0b99754810a55fd44","name":"柳が崎","contact":{},"location":{"lat":35.02805478912971,"lng":135.86550056934357,"distance":2537,"country":"Japan"},"categories":[],"verified":false,"stats":{"checkinsCount":18,"usersCount":13,"tipCount":0},"likes":{"count":0,"groups":[]},"specials":{"count":0,"items":[]},"hereNow":{"count":0,"groups":[]}},{"id":"4be1546fa7380f47adb219b0","name":"名代とんかつ かつくら 大津店","contact":{"phone":"+81775254551","formattedPhone":"+81 77-525-4551"},"location":{"address":"木下町9-20","lat":34.99794781243311,"lng":135.89366108179092,"distance":2724,"city":"大津市","state":"滋賀県","country":"Japan"},"categories":[{"id":"4bf58dd8d48988d111941735","name":"Japanese Restaurant","pluralName":"Japanese Restaurants","shortName":"Japanese","icon":{"prefix":"https:\/\/foursquare.com\/img\/categories_v2\/food\/japanese_","suffix":".png"},"primary":true}],"verified":false,"stats":{"checkinsCount":127,"usersCount":50,"tipCount":0},"likes":{"count":0,"groups":[]},"specials":{"count":0,"items":[]},"hereNow":{"count":0,"groups":[]}},{"id":"4e68353914954826ad97dedd","name":"鑫縁","contact":{},"location":{"lat":34.99952793475499,"lng":135.89202398550404,"distance":2546,"country":"Japan"},"categories":[{"id":"4bf58dd8d48988d145941735","name":"Chinese Restaurant","pluralName":"Chinese Restaurants","shortName":"Chinese","icon":{"prefix":"https:\/\/foursquare.com\/img\/categories_v2\/food\/chinese_","suffix":".png"},"primary":true}],"verified":false,"stats":{"checkinsCount":8,"usersCount":6,"tipCount":0},"likes":{"count":0,"groups":[]},"specials":{"count":0,"items":[]},"hereNow":{"count":0,"groups":[]}},{"id":"4e9d29629a5262f981035c04","name":"大津プリンスホテル コンベンションセンター 淡海","contact":{},"location":{"lat":35.00471998821618,"lng":135.888951796133,"distance":1994,"state":"滋賀県","country":"Japan"},"categories":[{"id":"4bf58dd8d48988d1ff931735","name":"Convention Center","pluralName":"Convention Centers","shortName":"Convention Center","icon":{"prefix":"https:\/\/foursquare.com\/img\/categories_v2\/building\/conventioncenter_","suffix":".png"},"primary":true}],"verified":false,"stats":{"checkinsCount":22,"usersCount":18,"tipCount":1},"likes":{"count":0,"groups":[]},"specials":{"count":0,"items":[]},"hereNow":{"count":0,"groups":[]}},{"id":"4e0edf761838f62321c9d866","name":"パナソニックリゾート","contact":{},"location":{"lat":35.028378027460334,"lng":135.91712863422745,"distance":2344,"city":"草津市","state":"滋賀県","country":"Japan"},"categories":[],"verified":false,"stats":{"checkinsCount":8,"usersCount":8,"tipCount":0},"likes":{"count":0,"groups":[]},"specials":{"count":0,"items":[]},"hereNow":{"count":0,"groups":[]}},{"id":"4be3736cb02ec9b651b34fc0","name":"株式会社エフエム滋賀","contact":{"phone":"+81775270814","formattedPhone":"+81 77-527-0814"},"location":{"address":"西の庄19-10","lat":35.00202789644187,"lng":135.88827252388,"distance":2300,"postalCode":"520-0818","city":"大津市","state":"滋賀県","country":"Japan"},"categories":[{"id":"4bf58dd8d48988d1e5931735","name":"Music Venue","pluralName":"Music Venues","shortName":"Music Venue","icon":{"prefix":"https:\/\/foursquare.com\/img\/categories_v2\/arts_entertainment\/musicvenue_","suffix":".png"},"primary":true}],"verified":false,"stats":{"checkinsCount":24,"usersCount":11,"tipCount":0},"url":"http:\/\/www.e-radio.co.jp\/","likes":{"count":0,"groups":[]},"specials":{"count":0,"items":[]},"hereNow":{"count":0,"groups":[]}},{"id":"4eb8e018a17cab61287ee5ac","name":"ピッカーウォッシュ 西武大津店","contact":{"phone":"+81775213596","formattedPhone":"+81 77-521-3596"},"location":{"address":"におの浜2-3-1","crossStreet":"西武ショッピングセンター　第二駐車場３F","lat":35.00530587793293,"lng":135.88236093521118,"distance":2114,"postalCode":"520-0801","city":"大津市","state":"滋賀県","country":"Japan"},"categories":[{"id":"4bf58dd8d48988d124951735","name":"Automotive Shop","pluralName":"Automotive Shops","shortName":"Automotive","icon":{"prefix":"https:\/\/foursquare.com\/img\/categories_v2\/shops\/automotive_","suffix":".png"},"primary":true}],"verified":false,"stats":{"checkinsCount":1,"usersCount":1,"tipCount":0},"likes":{"count":0,"groups":[]},"specials":{"count":0,"items":[]},"hereNow":{"count":0,"groups":[]}},{"id":"4fcb2501e4b0c4b6a67a2738","name":"びわこマリーナ","contact":{},"location":{"address":"際川","lat":35.03302029459168,"lng":135.87098203876343,"distance":2287,"country":"Japan"},"categories":[{"id":"4bf58dd8d48988d193941735","name":"Water Park","pluralName":"Water Parks","shortName":"Water Park","icon":{"prefix":"https:\/\/foursquare.com\/img\/categories_v2\/arts_entertainment\/waterpark_","suffix":".png"},"primary":true}],"verified":false,"stats":{"checkinsCount":2,"usersCount":1,"tipCount":0},"likes":{"count":0,"groups":[]},"specials":{"count":0,"items":[]},"hereNow":{"count":0,"groups":[]}},{"id":"4fbcabbde4b03c163a584077","name":"京都大学大学院工学研究科附属 流域圏総合環境質研究センター","contact":{},"location":{"address":"大津市由美浜","lat":35.002362,"lng":135.890001,"distance":2242,"state":"滋賀県","country":"Japan"},"categories":[{"id":"4bf58dd8d48988d1a5941735","name":"College Lab","pluralName":"College Labs","shortName":"Lab","icon":{"prefix":"https:\/\/foursquare.com\/img\/categories_v2\/education\/lab_","suffix":".png"},"primary":true}],"verified":false,"stats":{"checkinsCount":1,"usersCount":1,"tipCount":0},"likes":{"count":0,"groups":[]},"specials":{"count":0,"items":[]},"hereNow":{"count":0,"groups":[]}},{"id":"4df2e1426284fefe8fc09bbf","name":"中国料理 李芳","contact":{"phone":"+81775215547","formattedPhone":"+81 77-521-5547"},"location":{"address":"におの浜4ｰ7ｰ7","crossStreet":"大津プリンスホテル1F","lat":35.004936782020984,"lng":135.88916301727295,"distance":1967,"postalCode":"520-8520","city":"大津市","state":"滋賀県","country":"Japan"},"categories":[],"verified":false,"stats":{"checkinsCount":7,"usersCount":6,"tipCount":0},"likes":{"count":0,"groups":[]},"specials":{"count":0,"items":[]},"hereNow":{"count":0,"groups":[]}},{"id":"4e4deba7b0fb088f3c072cbe","name":"大津プリンスホテル港 ミシガンクルーズ","contact":{},"location":{"address":"におの浜4-7-7","crossStreet":"大津プリンスホテル港","lat":35.00607042845333,"lng":135.8881437778473,"distance":1860,"city":"大津市","state":"滋賀県","country":"Japan"},"categories":[{"id":"4bf58dd8d48988d12d951735","name":"Boat or Ferry","pluralName":"Boats or Ferries","shortName":"Boat \/ Ferry","icon":{"prefix":"https:\/\/foursquare.com\/img\/categories_v2\/travel\/ferry_","suffix":".png"},"primary":true}],"verified":false,"stats":{"checkinsCount":7,"usersCount":6,"tipCount":0},"likes":{"count":0,"groups":[]},"specials":{"count":0,"items":[]},"hereNow":{"count":0,"groups":[]}},{"id":"4d93c914484d6ea8c8588330","name":"エクスプレス大津SS","contact":{},"location":{"address":"日本","lat":34.99943825,"lng":135.89236249,"distance":2556,"country":"Japan"},"categories":[{"id":"4bf58dd8d48988d113951735","name":"Gas Station \/ Garage","pluralName":"Gas Stations \/ Garages","shortName":"Gas Station \/ Garage","icon":{"prefix":"https:\/\/foursquare.com\/img\/categories_v2\/shops\/gas_","suffix":".png"},"primary":true}],"verified":false,"stats":{"checkinsCount":29,"usersCount":10,"tipCount":0},"likes":{"count":0,"groups":[]},"specials":{"count":0,"items":[]},"hereNow":{"count":0,"groups":[]}}]}}
