{"meta":{"code":200},"notifications":[{"type":"notificationTray","item":{"unreadCount":23}}],"response":{"venues":[{"id":"4ea4e72edab4725270f74718","name":"ちゃあしゅうや亀王 四条烏丸店","contact":{"phone":"0753653177","formattedPhone":"075-365-3177"},"location":{"address":"二帖半敷町641","crossStreet":"烏丸綾小路下る","lat":35.002299235686266,"lng":135.75946882367134,"distance":10,"city":"京都市下京区","state":"京都府","country":"Japan"},"categories":[{"id":"4bf58dd8d48988d1d1941735","name":"Ramen or Noodle House","pluralName":"Ramen or Noodle House","shortName":"Ramen \/ Noodles","icon":{"prefix":"https:\/\/foursquare.com\/img\/categories\/food\/ramen_","sizes":[32,44,64,88,256],"name":".png"},"primary":true}],"verified":false,"stats":{"checkinsCount":46,"usersCount":27,"tipCount":1},"specials":{"count":0,"items":[]},"hereNow":{"count":0}},{"id":"4b59a244f964a5200a9028e3","name":"Starbucks Coffee からすま京都ホテル店","contact":{"phone":"0753445232","formattedPhone":"075-344-5232","twitter":"Starbucks"},"location":{"address":"下京区二帖半敷町652","crossStreet":"烏丸通綾小路下ル からすま京都ホテル","lat":35.00186970634567,"lng":135.75941920280457,"distance":52,"postalCode":"600-8412","city":"京都市","state":"京都府","country":"Japan"},"categories":[{"id":"4bf58dd8d48988d1e0931735","name":"Coffee Shop","pluralName":"Coffee Shops","shortName":"Coffee Shop","icon":{"prefix":"https:\/\/foursquare.com\/img\/categories\/food\/coffeeshop_","sizes":[32,44,64,88,256],"name":".png"},"primary":true}],"verified":false,"stats":{"checkinsCount":893,"usersCount":322,"tipCount":6},"specials":{"count":0,"items":[]},"hereNow":{"count":0}},{"id":"4ca58bd95a1e9521d92b8ace","name":"成城石井 四条烏丸店","contact":{"phone":"0753423577","formattedPhone":"075-342-3577"},"location":{"address":"二帖半敷町地先","crossStreet":"地下鉄四条駅B2F","lat":35.001860097625396,"lng":135.7594079861271,"distance":53,"postalCode":"600-8412","city":"京都市下京区","state":"京都府","country":"Japan"},"categories":[{"id":"4bf58dd8d48988d118951735","name":"Grocery or Supermarket","pluralName":"Grocery or Supermarkets","shortName":"Grocery Store","icon":{"prefix":"https:\/\/foursquare.com\/img\/categories\/shops\/food_grocery_","sizes":[32,44,64,88,256],"name":".png"},"primary":true}],"verified":false,"stats":{"checkinsCount":298,"usersCount":97,"tipCount":1},"specials":{"count":0,"items":[]},"hereNow":{"count":0}},{"id":"4d8c0fa32146721e9a67fb53","name":"番屋","contact":{},"location":{"lat":35.00237064060103,"lng":135.75934410095215,"distance":22,"country":"Japan"},"categories":[{"id":"4bf58dd8d48988d11c941735","name":"Sake Bar","pluralName":"Sake Bars","shortName":"Sake Bar","icon":{"prefix":"https:\/\/foursquare.com\/img\/categories\/nightlife\/sake_","sizes":[32,44,64,88,256],"name":".png"},"primary":true}],"verified":false,"stats":{"checkinsCount":23,"usersCount":14,"tipCount":0},"specials":{"count":0,"items":[]},"hereNow":{"count":0}},{"id":"4e460c1ca809fb2fa3e689f7","name":"たんとと和くら 烏丸店","contact":{"phone":"0753441555","formattedPhone":"075-344-1555"},"location":{"address":"二帖半敷町643-1","crossStreet":"小町ジュエリー烏丸ビル1F\/烏丸通綾小路下ル","lat":35.00235196547551,"lng":135.75941249728203,"distance":15,"city":"京都市下京区","state":"京都府","country":"Japan"},"categories":[{"id":"4bf58dd8d48988d147941735","name":"Diner","pluralName":"Diners","shortName":"Diner","icon":{"prefix":"https:\/\/foursquare.com\/img\/categories\/food\/default_","sizes":[32,44,64,88,256],"name":".png"},"primary":true}],"verified":false,"stats":{"checkinsCount":15,"usersCount":12,"tipCount":0},"specials":{"count":0,"items":[]},"hereNow":{"count":0}},{"id":"4b59a13ff964a520cf8f28e3","name":"COCON KARASUMA","contact":{"phone":"0753523800","formattedPhone":"075-352-3800"},"location":{"address":"水銀屋町620","crossStreet":"烏丸通四条下ル","lat":35.00309127748352,"lng":135.75932800769806,"distance":89,"city":"京都市下京区","state":"京都府","country":"Japan"},"categories":[{"id":"4bf58dd8d48988d130941735","name":"Building","pluralName":"Buildings","shortName":"Other - Buildings","icon":{"prefix":"https:\/\/foursquare.com\/img\/categories\/building\/default_","sizes":[32,44,64,88,256],"name":".png"},"primary":true}],"verified":false,"stats":{"checkinsCount":1421,"usersCount":627,"tipCount":3},"specials":{"count":0,"items":[]},"hereNow":{"count":0}},{"id":"4c4ebd53db2c20a1b05ee174","name":"からすま京都ホテル (Karasuma Kyoto Hotel)","contact":{"phone":"0753710111","formattedPhone":"075-371-0111"},"location":{"address":"下京区烏丸通四条下ル","lat":35.001922436411725,"lng":135.75924217700958,"distance":53,"postalCode":"600-8412","city":"京都市","state":"京都府","country":"Japan"},"categories":[{"id":"4bf58dd8d48988d1fa931735","name":"Hotel","pluralName":"Hotels","shortName":"Hotel","icon":{"prefix":"https:\/\/foursquare.com\/img\/categories\/travel\/hotel_","sizes":[32,44,64,88,256],"name":".png"},"primary":true}],"verified":false,"stats":{"checkinsCount":228,"usersCount":143,"tipCount":2},"specials":{"count":0,"items":[]},"hereNow":{"count":0}},{"id":"4ed8d7a3cc215fbf081c99a9","name":"鈴屋大人偶講学旧地の石碑","contact":{},"location":{"lat":35.0025586766104,"lng":135.75985691044136,"distance":36,"city":"京都","country":"Japan"},"categories":[{"id":"4deefb944765f83613cdba6e","name":"Historic Site","pluralName":"Historic Sites","shortName":"Historic Site","icon":{"prefix":"https:\/\/foursquare.com\/img\/categories\/arts_entertainment\/museum_","sizes":[32,44,64,88,256],"name":".png"},"primary":true}],"verified":false,"stats":{"checkinsCount":19,"usersCount":6,"tipCount":1},"specials":{"count":0,"items":[]},"hereNow":{"count":0}},{"id":"4b71ff2df964a52026692de3","name":"新風館","contact":{"phone":"0752136688","formattedPhone":"075-213-6688"},"location":{"address":"場之町586-2","lat":35.00952399866156,"lng":135.76011657714844,"distance":803,"postalCode":"604-8172","city":"京都市中京区","state":"京都府","country":"Japan"},"categories":[{"id":"4bf58dd8d48988d1fd941735","name":"Mall","pluralName":"Malls","shortName":"Mall","icon":{"prefix":"https:\/\/foursquare.com\/img\/categories\/shops\/default_","sizes":[32,44,64,88,256],"name":".png"},"primary":true}],"verified":false,"stats":{"checkinsCount":1261,"usersCount":679,"tipCount":7},"specials":{"count":0,"items":[]},"hereNow":{"count":1}},{"id":"4b750c3af964a5202efc2de3","name":"大原簿記法律専門学校京都校","contact":{"phone":"0753441341","formattedPhone":"075-344-1341"},"location":{"address":"二帖半敷町651","crossStreet":"烏丸通綾小路下る","lat":35.001678,"lng":135.759656,"distance":71,"postalCode":"600-8412","city":"京都市下京区","state":"京都府","country":"Japan"},"categories":[{"id":"4bf58dd8d48988d1a8941735","name":"General College & University","pluralName":"General Colleges & Universities","shortName":"Other - Education","icon":{"prefix":"https:\/\/foursquare.com\/img\/categories\/education\/default_","sizes":[32,44,64,88,256],"name":".png"},"primary":true}],"verified":false,"stats":{"checkinsCount":270,"usersCount":36,"tipCount":0},"specials":{"count":0,"items":[]},"hereNow":{"count":0}},{"id":"4e7af1f0b61c3d363065335b","name":"TAC京都校 4F喫煙所","contact":{},"location":{"lat":35.00255842452958,"lng":135.75898220614934,"distance":60,"country":"Japan"},"categories":[{"id":"4d4b7105d754a06372d81259","name":"College & University","pluralName":"Colleges & Universities","shortName":"College & Education","icon":{"prefix":"https:\/\/foursquare.com\/img\/categories\/education\/default_","sizes":[32,44,64,88,256],"name":".png"},"primary":true}],"verified":false,"stats":{"checkinsCount":8,"usersCount":3,"tipCount":0},"specials":{"count":0,"items":[]},"hereNow":{"count":0}},{"id":"4c88bed71052370446aec2f1","name":"HUB 四条烏丸店","contact":{"phone":"0753534858","formattedPhone":"075-353-4858"},"location":{"address":"水銀屋町620.","crossStreet":"COCON烏丸 B1","lat":35.003045139336706,"lng":135.75945541262627,"distance":81,"postalCode":"600-8411","city":"京都市下京区","state":"京都府","country":"Japan"},"categories":[{"id":"4bf58dd8d48988d11b941735","name":"Pub","pluralName":"Pubs","shortName":"Pub","icon":{"prefix":"https:\/\/foursquare.com\/img\/categories\/nightlife\/pub_","sizes":[32,44,64,88,256],"name":".png"},"primary":true}],"verified":false,"stats":{"checkinsCount":330,"usersCount":112,"tipCount":0},"specials":{"count":0,"items":[]},"hereNow":{"count":0}},{"id":"4ca69d18b7106dcba62160a5","name":"コトチカ四条","contact":{},"location":{"address":"下京区","crossStreet":"地下鉄四条駅構内","lat":35.003267041613974,"lng":135.75967669487,"distance":106,"city":"京都市","state":"京都府","country":"Japan"},"categories":[{"id":"4bf58dd8d48988d1fd941735","name":"Mall","pluralName":"Malls","shortName":"Mall","icon":{"prefix":"https:\/\/foursquare.com\/img\/categories\/shops\/default_","sizes":[32,44,64,88,256],"name":".png"},"primary":true}],"verified":false,"stats":{"checkinsCount":393,"usersCount":109,"tipCount":4},"specials":{"count":0,"items":[]},"hereNow":{"count":0}},{"id":"4c6cca93e6b7b1f74c23a88e","name":"kara-S","contact":{"phone":"075343520844","formattedPhone":"075343520844","twitter":"karaS_staff"},"location":{"address":"下京区水銀屋町620","crossStreet":"烏丸通四条下ル","lat":35.002979,"lng":135.759448,"distance":74,"postalCode":"600-8411","city":"京都市","state":"京都府","country":"Japan"},"categories":[{"id":"4bf58dd8d48988d1e2931735","name":"Art Gallery","pluralName":"Art Galleries","shortName":"Art Gallery","icon":{"prefix":"https:\/\/foursquare.com\/img\/categories\/arts_entertainment\/artgallery_","sizes":[32,44,64,88,256],"name":".png"},"primary":true}],"verified":false,"stats":{"checkinsCount":123,"usersCount":78,"tipCount":1},"specials":{"count":0,"items":[]},"hereNow":{"count":0}},{"id":"4b64088af964a520289c2ae3","name":"京都シネマ","contact":{"phone":"0753534723","formattedPhone":"075-353-4723","twitter":"kyotocinema"},"location":{"address":"下京区水銀屋町６２０","crossStreet":"烏丸通四条下ル COCON烏丸 3F","lat":35.003044,"lng":135.759429,"distance":81,"postalCode":"600-8411","city":"京都市","state":"京都府","country":"Japan"},"categories":[{"id":"4bf58dd8d48988d17f941735","name":"Movie Theater","pluralName":"Movie Theaters","shortName":"Movie Theater","icon":{"prefix":"https:\/\/foursquare.com\/img\/categories\/arts_entertainment\/movietheater_","sizes":[32,44,64,88,256],"name":".png"},"primary":true}],"verified":false,"stats":{"checkinsCount":437,"usersCount":198,"tipCount":6},"specials":{"count":0,"items":[]},"hereNow":{"count":0}},{"id":"4cb568acb315a0933c5f9476","name":"クリスピークリームドーナツ 四条烏丸店","contact":{"phone":"0753422367","formattedPhone":"075-342-2367"},"location":{"address":"下京区二帖半敷町地先","crossStreet":"地下鉄四条駅構内Kotochika 四条 B1F","lat":35.003179159595945,"lng":135.75974106788635,"distance":96,"city":"京都市","state":"京都府","country":"Japan"},"categories":[{"id":"4bf58dd8d48988d148941735","name":"Donut Shop","pluralName":"Donut Shops","shortName":"Donuts","icon":{"prefix":"https:\/\/foursquare.com\/img\/categories\/food\/bagels_","sizes":[32,44,64,88,256],"name":".png"},"primary":true}],"verified":false,"stats":{"checkinsCount":303,"usersCount":179,"tipCount":5},"specials":{"count":0,"items":[]},"hereNow":{"count":1}},{"id":"4b6019bef964a520dcd529e3","name":"TAC京都校","contact":{"phone":"0753511122","formattedPhone":"075-351-1122"},"location":{"address":"下京区童侍者町159−1","crossStreet":"綾小路通烏丸西入","lat":35.002737551026414,"lng":135.75888007879257,"distance":79,"postalCode":"600-8421","city":"京都市","state":"京都府","country":"Japan"},"categories":[{"id":"4bf58dd8d48988d13b941735","name":"School","pluralName":"Schools","shortName":"School","icon":{"prefix":"https:\/\/foursquare.com\/img\/categories\/building\/default_","sizes":[32,44,64,88,256],"name":".png"},"primary":true}],"verified":false,"stats":{"checkinsCount":108,"usersCount":16,"tipCount":0},"url":"http:\/\/www.tac-school.co.jp\/","specials":{"count":0,"items":[]},"hereNow":{"count":0}},{"id":"4d0abf396c51a143322ea635","name":"CAFE STAZIONE","contact":{"phone":"0753538002","formattedPhone":"075-353-8002"},"location":{"address":"下京区二帖半敷町地先","crossStreet":"Kotochika四条B2F","lat":35.00286717766957,"lng":135.75973570346832,"distance":62,"city":"京都市","state":"京都府","country":"Japan"},"categories":[{"id":"4bf58dd8d48988d16d941735","name":"Café","pluralName":"Cafés","shortName":"Café","icon":{"prefix":"https:\/\/foursquare.com\/img\/categories\/food\/cafe_","sizes":[32,44,64,88,256],"name":".png"},"primary":true}],"verified":false,"stats":{"checkinsCount":104,"usersCount":40,"tipCount":3},"specials":{"count":0,"items":[]},"hereNow":{"count":0}},{"id":"4e168b282271881f204dc3f2","name":"滋賀銀行 京都支店","contact":{"phone":"0753518641","formattedPhone":"075-351-8641"},"location":{"address":"下京区水銀屋町630","crossStreet":"烏丸通四条下ル","lat":35.002707,"lng":135.759339,"distance":48,"city":"京都市","state":"京都府","country":"Japan"},"categories":[{"id":"4bf58dd8d48988d10a951735","name":"Bank","pluralName":"Banks","shortName":"Bank \/ Financial","icon":{"prefix":"https:\/\/foursquare.com\/img\/categories\/shops\/financial_","sizes":[32,44,64,88,256],"name":".png"},"primary":true}],"verified":false,"stats":{"checkinsCount":31,"usersCount":6,"tipCount":0},"specials":{"count":0,"items":[]},"hereNow":{"count":0}},{"id":"4e505ec4ae6051db8ddabde4","name":"四条烏丸 バス停 京都バスのりば","contact":{},"location":{"crossStreet":"京都バス45・51・71・72・73・75系統","lat":35.00282433498821,"lng":135.75951509177685,"distance":56,"city":"京都市","state":"京都府","country":"Japan"},"categories":[{"id":"4bf58dd8d48988d1fe931735","name":"Bus Station","pluralName":"Bus Stations","shortName":"Bus Station","icon":{"prefix":"https:\/\/foursquare.com\/img\/categories\/travel\/busstation_","sizes":[32,44,64,88,256],"name":".png"},"primary":true}],"verified":false,"stats":{"checkinsCount":43,"usersCount":15,"tipCount":1},"specials":{"count":0,"items":[]},"hereNow":{"count":0}},{"id":"4b9855f3f964a520853c35e3","name":"カフェベローチェ 烏丸仏光寺店","contact":{},"location":{"address":"下京区上柳町310","crossStreet":"太陽生命京都ビル1Ｆ","lat":35.00139733132163,"lng":135.7598778605461,"distance":106,"postalCode":"600-8099","city":"京都市","state":"京都府","country":"Japan"},"categories":[{"id":"4bf58dd8d48988d16d941735","name":"Café","pluralName":"Cafés","shortName":"Café","icon":{"prefix":"https:\/\/foursquare.com\/img\/categories\/food\/cafe_","sizes":[32,44,64,88,256],"name":".png"},"primary":true}],"verified":false,"stats":{"checkinsCount":374,"usersCount":109,"tipCount":3},"specials":{"count":0,"items":[]},"hereNow":{"count":0}},{"id":"4b8fa6eef964a5208b5b33e3","name":"天天有 四条烏丸店","contact":{},"location":{"address":"下京区水銀屋町620","crossStreet":"烏丸通四条下ル COCON烏丸 B1F","lat":35.003172,"lng":135.75972143,"distance":95,"city":"京都市","state":"京都府","country":"Japan"},"categories":[{"id":"4bf58dd8d48988d1d1941735","name":"Ramen or Noodle House","pluralName":"Ramen or Noodle House","shortName":"Ramen \/ Noodles","icon":{"prefix":"https:\/\/foursquare.com\/img\/categories\/food\/ramen_","sizes":[32,44,64,88,256],"name":".png"},"primary":true}],"verified":false,"stats":{"checkinsCount":212,"usersCount":131,"tipCount":1},"specials":{"count":0,"items":[]},"hereNow":{"count":1}},{"id":"4b598671f964a520258b28e3","name":"株式会社ゆめみ京都オフィス","contact":{},"location":{"lat":35.003264,"lng":135.759461,"distance":105,"country":"Japan"},"categories":[],"verified":false,"stats":{"checkinsCount":106,"usersCount":15,"tipCount":0},"specials":{"count":0,"items":[]},"hereNow":{"count":0}},{"id":"4f420f0dd5fbe7236fa90c71","name":"地下鉄四条駅 証明書発行コーナー","contact":{"phone":"0753433782","formattedPhone":"075-343-3782"},"location":{"address":"下京区二帖半敷町","crossStreet":"地下鉄四条駅構内 定期券売場横","lat":35.00171591012562,"lng":135.75968742370605,"distance":67,"city":"京都市","state":"京都府","country":"Japan"},"categories":[{"id":"4bf58dd8d48988d129941735","name":"City Hall","pluralName":"City Halls","shortName":"City Hall","icon":{"prefix":"https:\/\/foursquare.com\/img\/categories\/building\/default_","sizes":[32,44,64,88,256],"name":".png"},"primary":true}],"verified":false,"stats":{"checkinsCount":8,"usersCount":4,"tipCount":1},"specials":{"count":0,"items":[]},"hereNow":{"count":0}},{"id":"4be4c9bbbcef2d7fce1f03e5","name":"SOHOLM CAFE","contact":{"phone":"0753535644","formattedPhone":"075-353-5644"},"location":{"address":"烏丸通四条下る水銀屋町620","crossStreet":"COCON KARASUMA 2F","lat":35.002950665907306,"lng":135.7593011856079,"distance":74,"postalCode":"600-8411","city":"京都市下京区","state":"京都府","country":"Japan"},"categories":[{"id":"4bf58dd8d48988d16d941735","name":"Café","pluralName":"Cafés","shortName":"Café","icon":{"prefix":"https:\/\/foursquare.com\/img\/categories\/food\/cafe_","sizes":[32,44,64,88,256],"name":".png"},"primary":true}],"verified":false,"stats":{"checkinsCount":107,"usersCount":91,"tipCount":1},"specials":{"count":0,"items":[]},"hereNow":{"count":0}},{"id":"4ef46f4a61af302a97b16755","name":"居楽屋 笑笑 烏丸駅前店","contact":{"phone":"0753444288","formattedPhone":"075-344-4288"},"location":{"address":"下京区烏丸通仏光寺上ル二畳半屋敷町661","crossStreet":"ツカキスクエア　Ｂ１Ｆ","lat":35.001628026441516,"lng":135.7593896985054,"distance":78,"city":"京都市","state":"京都府","country":"Japan"},"categories":[{"id":"4bf58dd8d48988d11a941735","name":"Other Nightlife","pluralName":"Other Nightlife","shortName":"Other - Nightlife","icon":{"prefix":"https:\/\/foursquare.com\/img\/categories\/nightlife\/default_","sizes":[32,44,64,88,256],"name":".png"},"primary":true}],"verified":false,"stats":{"checkinsCount":9,"usersCount":7,"tipCount":0},"specials":{"count":0,"items":[]},"hereNow":{"count":0}},{"id":"4ef57e980cd689475ad9d009","name":"ツカキスクエア","contact":{},"location":{"address":"下京区二帖半敷町661","crossStreet":"烏丸仏光寺上ル","lat":35.001636814814184,"lng":135.7593870162964,"distance":77,"postalCode":"600-8412","city":"京都市","state":"京都府","country":"Japan"},"categories":[{"id":"4bf58dd8d48988d130941735","name":"Building","pluralName":"Buildings","shortName":"Other - Buildings","icon":{"prefix":"https:\/\/foursquare.com\/img\/categories\/building\/default_","sizes":[32,44,64,88,256],"name":".png"},"primary":true}],"verified":false,"stats":{"checkinsCount":8,"usersCount":3,"tipCount":0},"specials":{"count":0,"items":[]},"hereNow":{"count":0}},{"id":"4e869b090aafe7a08168f055","name":"志津屋 SIZUYA 四条烏丸店","contact":{"phone":"0753436710","formattedPhone":"075-343-6710"},"location":{"address":"二帖半敷町地先","crossStreet":"地下鉄四条駅構内","lat":35.00284458021162,"lng":135.759333937162,"distance":62,"postalCode":"600-8412","city":"京都市下京区","state":"京都府","country":"Japan"},"categories":[{"id":"4bf58dd8d48988d16a941735","name":"Bakery","pluralName":"Bakeries","shortName":"Bakery","icon":{"prefix":"https:\/\/foursquare.com\/img\/categories\/food\/bakery_","sizes":[32,44,64,88,256],"name":".png"},"primary":true}],"verified":false,"stats":{"checkinsCount":10,"usersCount":6,"tipCount":0},"specials":{"count":0,"items":[]},"hereNow":{"count":0}},{"id":"4c997e36eaa5a1431b7fc4e4","name":"Lisn","contact":{},"location":{"lat":35.00254050728532,"lng":135.75897295010512,"distance":60,"city":"Kyoto","state":"Kyoto Prefecture","country":"Japan"},"categories":[{"id":"4bf58dd8d48988d1ff941735","name":"Miscellaneous Shop","pluralName":"Miscellaneous Shops","shortName":"Other - Shop","icon":{"prefix":"https:\/\/foursquare.com\/img\/categories\/shops\/default_","sizes":[32,44,64,88,256],"name":".png"},"primary":true}],"verified":false,"stats":{"checkinsCount":10,"usersCount":4,"tipCount":1},"specials":{"count":0,"items":[]},"hereNow":{"count":0}},{"id":"4c37ea6293db0f4753ca2092","name":"ACTUS 京都店","contact":{"phone":"0753540011","formattedPhone":"075-354-0011"},"location":{"address":"水銀屋町620","crossStreet":"烏丸通四条下ル、COCON烏丸","lat":35.0031659772851,"lng":135.75938165187836,"distance":96,"postalCode":"600-8411","city":"京都市下京区","state":"京都府","country":"Japan"},"categories":[{"id":"4bf58dd8d48988d1f8941735","name":"Furniture or Home Store","pluralName":"Furniture or Home Stores","shortName":"Furniture \/ Home","icon":{"prefix":"https:\/\/foursquare.com\/img\/categories\/shops\/furniture_","sizes":[32,44,64,88,256],"name":".png"},"primary":true}],"verified":false,"stats":{"checkinsCount":128,"usersCount":83,"tipCount":1},"specials":{"count":0,"items":[]},"hereNow":{"count":0}}]}}
