{"meta":{"code":200},"response":{"venues":[{"id":"4d108771c3dc370498913974","name":"セブンイレブン 山科勧修寺店","contact":{"phone":"+81755731118","formattedPhone":"+81 75-573-1118"},"location":{"address":"山科区勧修寺御所内町22-1","lat":34.95770074292539,"lng":135.81066012382507,"city":"京都市","state":"京都府","country":"Japan"},"categories":[{"id":"4d954b0ea243a5684a65b473","name":"Convenience Store","pluralName":"Convenience Stores","shortName":"Convenience Stores","icon":{"prefix":"https:\/\/foursquare.com\/img\/categories_v2\/shops\/conveniencestore_","suffix":".png"},"primary":true}],"verified":false,"stats":{"checkinsCount":76,"usersCount":18,"tipCount":1},"likes":{"count":0,"groups":[]},"specials":{"count":0,"items":[]},"hereNow":{"count":0,"groups":[]}},{"id":"4f2e17c7e4b0bd78b793d07e","name":"京都市立醍醐西小学校","contact":{"phone":"+81755720221","formattedPhone":"+81 75-572-0221"},"location":{"address":"日本","lat":34.953189849853516,"lng":135.81202697753906,"city":"京都市","state":"京都府","country":"Japan"},"categories":[{"id":"4bf58dd8d48988d13b941735","name":"School","pluralName":"Schools","shortName":"School","icon":{"prefix":"https:\/\/foursquare.com\/img\/categories_v2\/building\/school_","suffix":".png"},"primary":true}],"verified":false,"stats":{"checkinsCount":2,"usersCount":2,"tipCount":0},"likes":{"count":0,"groups":[]},"specials":{"count":0,"items":[]},"hereNow":{"count":0,"groups":[]}},{"id":"4f337efbe4b0befff0231c7b","name":"JAVA ノーブラシ洗車 伏見醍醐店","contact":{},"location":{"lat":34.954841356377244,"lng":135.81134461955315,"city":"京都市伏見区","state":"京都府","country":"Japan"},"categories":[{"id":"4f04ae1f2fb6e1c99f3db0ba","name":"Car Wash","pluralName":"Car Wash","shortName":"Car Wash","icon":{"prefix":"https:\/\/foursquare.com\/img\/categories_v2\/shops\/carwash_","suffix":".png"},"primary":true}],"verified":false,"stats":{"checkinsCount":2,"usersCount":2,"tipCount":0},"likes":{"count":0,"groups":[]},"specials":{"count":0,"items":[]},"hereNow":{"count":0,"groups":[]}},{"id":"4dcacc8b7d8bc0c0b8862c49","name":"自宅","contact":{},"location":{"isFuzzed":true,"lat":34.95635730834241,"lng":135.81373767782313,"city":"京都市伏見区醍醐折戸町8番地1","state":"京都府","country":"Japan"},"categories":[{"id":"4bf58dd8d48988d103941735","name":"Home (private)","pluralName":"Homes (private)","shortName":"Home","icon":{"prefix":"https:\/\/foursquare.com\/img\/categories_v2\/building\/home_","suffix":".png"},"primary":true}],"verified":false,"stats":{"checkinsCount":2,"usersCount":2,"tipCount":0},"likes":{"count":0,"groups":[]},"hereNow":{"count":0,"groups":[]}},{"id":"4fb5af60e4b033224625c00c","name":"新山科浄水場","contact":{},"location":{"lat":34.957908630371094,"lng":135.8157501220703,"country":"Japan"},"categories":[{"id":"4bf58dd8d48988d130941735","name":"Building","pluralName":"Buildings","shortName":"Other - Buildings","icon":{"prefix":"https:\/\/foursquare.com\/img\/categories_v2\/building\/default_","suffix":".png"},"primary":true}],"verified":false,"stats":{"checkinsCount":2,"usersCount":1,"tipCount":0},"likes":{"count":0,"groups":[]},"specials":{"count":0,"items":[]},"hereNow":{"count":0,"groups":[]}},{"id":"4d7211cebce5721ea952c815","name":"スギ薬局 醍醐店","contact":{},"location":{"address":"醍醐川久保町43","lat":34.95566368103027,"lng":135.81213533878326,"city":"京都市伏見区","state":"京都府","country":"Japan"},"categories":[{"id":"4bf58dd8d48988d10f951735","name":"Drugstore \/ Pharmacy","pluralName":"Drugstores \/ Pharmacies","shortName":"Pharmacy","icon":{"prefix":"https:\/\/foursquare.com\/img\/categories_v2\/shops\/pharmacy_","suffix":".png"},"primary":true}],"verified":false,"stats":{"checkinsCount":26,"usersCount":10,"tipCount":0},"likes":{"count":0,"groups":[]},"specials":{"count":0,"items":[]},"hereNow":{"count":0,"groups":[]}},{"id":"4dfd7c8f149599f28fcea442","name":"萬寿亭 橘","contact":{"phone":"+81755727001","formattedPhone":"+81 75-572-7001"},"location":{"address":"山科区小野御霊町49","lat":34.955615,"lng":135.811904,"city":"京都市","state":"京都府","country":"Japan"},"categories":[{"id":"4bf58dd8d48988d111941735","name":"Japanese Restaurant","pluralName":"Japanese Restaurants","shortName":"Japanese","icon":{"prefix":"https:\/\/foursquare.com\/img\/categories_v2\/food\/japanese_","suffix":".png"},"primary":true}],"verified":false,"stats":{"checkinsCount":1,"usersCount":1,"tipCount":0},"likes":{"count":0,"groups":[]},"specials":{"count":0,"items":[]},"hereNow":{"count":0,"groups":[]}},{"id":"4d86e53240a7a35d3ef43dbe","name":"ちきりやガーデン","contact":{},"location":{"address":"京都府京都市山科区勧修寺閑林寺８５−１","lat":34.955523,"lng":135.811589,"city":"Kyoto","state":"Kyoto Prefecture","country":"Japan"},"categories":[{"id":"4bf58dd8d48988d11b951735","name":"Flower Shop","pluralName":"Flower Shops","shortName":"Flower Shop","icon":{"prefix":"https:\/\/foursquare.com\/img\/categories_v2\/shops\/flowershop_","suffix":".png"},"primary":true}],"verified":false,"stats":{"checkinsCount":1,"usersCount":1,"tipCount":0},"likes":{"count":0,"groups":[]},"specials":{"count":0,"items":[]},"hereNow":{"count":0,"groups":[]}},{"id":"4de60d75ae607cf3446b0434","name":"活魚料理 大将","contact":{"phone":"+81755722804","formattedPhone":"+81 75-572-2804"},"location":{"address":"勧修寺東出町43","crossStreet":"ニュープラザ小野1F","lat":34.957693,"lng":135.812734,"postalCode":"607-8216","city":"京都市山科区","state":"京都府","country":"Japan"},"categories":[{"id":"4bf58dd8d48988d111941735","name":"Japanese Restaurant","pluralName":"Japanese Restaurants","shortName":"Japanese","icon":{"prefix":"https:\/\/foursquare.com\/img\/categories_v2\/food\/japanese_","suffix":".png"},"primary":true}],"verified":false,"stats":{"checkinsCount":1,"usersCount":1,"tipCount":0},"likes":{"count":0,"groups":[]},"specials":{"count":0,"items":[]},"hereNow":{"count":0,"groups":[]}},{"id":"4bb1ea56f964a5206baa3ce3","name":"ラーメン横綱 醍醐店","contact":{"phone":"+81755734527","formattedPhone":"+81 75-573-4527"},"location":{"address":"醍醐川久保町23-13","lat":34.955097947337336,"lng":135.81207633018494,"postalCode":"601-1378","city":"京都市伏見区","state":"京都府","country":"Japan"},"categories":[{"id":"4bf58dd8d48988d1d1941735","name":"Ramen \/  Noodle House","pluralName":"Ramen \/  Noodle House","shortName":"Ramen \/ Noodles","icon":{"prefix":"https:\/\/foursquare.com\/img\/categories_v2\/food\/ramen_","suffix":".png"},"primary":true}],"verified":false,"stats":{"checkinsCount":128,"usersCount":63,"tipCount":1},"likes":{"count":0,"groups":[]},"specials":{"count":0,"items":[]},"hereNow":{"count":0,"groups":[]}},{"id":"4f719ceee4b077eb93408105","name":"医療法人松寿会共和病院","contact":{},"location":{"lat":34.95509536989675,"lng":135.81159480783754,"country":"Japan"},"categories":[{"id":"4bf58dd8d48988d104941735","name":"Medical Center","pluralName":"Medical Centers","shortName":"Medical","icon":{"prefix":"https:\/\/foursquare.com\/img\/categories_v2\/building\/medical_","suffix":".png"},"primary":true}],"verified":false,"stats":{"checkinsCount":17,"usersCount":1,"tipCount":0},"likes":{"count":0,"groups":[]},"specials":{"count":0,"items":[]},"hereNow":{"count":0,"groups":[]}},{"id":"4d415f6caae1b1f7ae648ff5","name":"餃子の王将 醍醐店","contact":{},"location":{"address":"醍醐川久保町21-7","lat":34.953910834066015,"lng":135.811727643013,"postalCode":"601-1378","city":"京都市伏見区","state":"京都府","country":"Japan"},"categories":[{"id":"4bf58dd8d48988d145941735","name":"Chinese Restaurant","pluralName":"Chinese Restaurants","shortName":"Chinese","icon":{"prefix":"https:\/\/foursquare.com\/img\/categories_v2\/food\/chinese_","suffix":".png"},"primary":true}],"verified":false,"stats":{"checkinsCount":37,"usersCount":11,"tipCount":0},"likes":{"count":0,"groups":[]},"specials":{"count":0,"items":[]},"hereNow":{"count":0,"groups":[]}},{"id":"4d15793de190721e52410f21","name":"ガスト 京都醍醐店","contact":{"phone":"+81755752246","formattedPhone":"+81 75-575-2246"},"location":{"address":"伏見区醍醐川久保町26-9","lat":34.95445822732171,"lng":135.81148624420166,"postalCode":"601-1378","city":"京都市","state":"京都府","country":"Japan"},"categories":[{"id":"4bf58dd8d48988d1c4941735","name":"Restaurant","pluralName":"Restaurants","shortName":"Other - Food","icon":{"prefix":"https:\/\/foursquare.com\/img\/categories_v2\/food\/default_","suffix":".png"},"primary":true}],"verified":false,"stats":{"checkinsCount":20,"usersCount":19,"tipCount":1},"likes":{"count":0,"groups":[]},"specials":{"count":0,"items":[]},"hereNow":{"count":0,"groups":[]}},{"id":"4efd4b45a69d45461b36d4ac","name":"ゴルフパートナー京都醍醐店","contact":{},"location":{"address":"日本","lat":34.95486172830271,"lng":135.81215078649322,"city":"京都市","state":"京都府","country":"Japan"},"categories":[{"id":"4bf58dd8d48988d1f2941735","name":"Sporting Goods Shop","pluralName":"Sporting Goods Shops","shortName":"Sporting Goods","icon":{"prefix":"https:\/\/foursquare.com\/img\/categories_v2\/shops\/sports_outdoors_","suffix":".png"},"primary":true}],"verified":false,"stats":{"checkinsCount":2,"usersCount":2,"tipCount":0},"likes":{"count":0,"groups":[]},"specials":{"count":0,"items":[]},"hereNow":{"count":0,"groups":[]}},{"id":"4b5bacf9f964a520500f29e3","name":"catcafe ねこ家族","contact":{},"location":{"lat":34.954666,"lng":135.811816,"country":"Japan"},"categories":[],"verified":false,"stats":{"checkinsCount":3,"usersCount":3,"tipCount":0},"likes":{"count":0,"groups":[]},"specials":{"count":0,"items":[]},"hereNow":{"count":0,"groups":[]}}]}}
