{"meta":{"code":200},"response":{"venues":[{"id":"4f40a67ae4b015f1baa62fd2","name":"西宇治図書館","contact":{},"location":{"lat":34.888791,"lng":135.775523,"country":"Japan"},"categories":[{"id":"4bf58dd8d48988d1f1931735","name":"General Entertainment","pluralName":"General Entertainment","shortName":"Other - Entertainment","icon":{"prefix":"https:\/\/foursquare.com\/img\/categories_v2\/arts_entertainment\/default_","suffix":".png"},"primary":true}],"verified":false,"stats":{"checkinsCount":1,"usersCount":1,"tipCount":0},"likes":{"count":0,"groups":[]},"specials":{"count":0,"items":[]},"hereNow":{"count":0,"groups":[]}},{"id":"4e186419d4c062b044e73455","name":"りゅう亭","contact":{"phone":"+81774449811","formattedPhone":"+81 774-44-9811"},"location":{"address":"日本","crossStreet":"伊勢田町毛語149-14","lat":34.88705743313571,"lng":135.7744824886322,"postalCode":"611-0043","city":"宇治市","state":"京都府","country":"Japan"},"categories":[{"id":"4bf58dd8d48988d111941735","name":"Japanese Restaurant","pluralName":"Japanese Restaurants","shortName":"Japanese","icon":{"prefix":"https:\/\/foursquare.com\/img\/categories_v2\/food\/japanese_","suffix":".png"},"primary":true}],"verified":false,"stats":{"checkinsCount":1,"usersCount":1,"tipCount":0},"likes":{"count":0,"groups":[]},"specials":{"count":0,"items":[]},"hereNow":{"count":0,"groups":[]}},{"id":"4d32b2cdeefa8cfa6fc339b3","name":"新鮮具味","contact":{},"location":{"lat":34.890004,"lng":135.774025,"country":"Japan"},"categories":[],"verified":false,"stats":{"checkinsCount":1,"usersCount":1,"tipCount":0},"likes":{"count":0,"groups":[]},"specials":{"count":0,"items":[]},"hereNow":{"count":0,"groups":[]}},{"id":"4e55a75345dd0a4826e9a1d8","name":"ファミリーマート 宇治伊勢田北山店","contact":{"phone":"+81774285068","formattedPhone":"+81 774-28-5068"},"location":{"address":"伊勢田町北山2-3","lat":34.88771527994312,"lng":135.77647268772125,"city":"宇治市","state":"京都府","country":"Japan"},"categories":[{"id":"4d954b0ea243a5684a65b473","name":"Convenience Store","pluralName":"Convenience Stores","shortName":"Convenience Stores","icon":{"prefix":"https:\/\/foursquare.com\/img\/categories_v2\/shops\/conveniencestore_","suffix":".png"},"primary":true}],"verified":false,"stats":{"checkinsCount":19,"usersCount":5,"tipCount":0},"likes":{"count":0,"groups":[]},"specials":{"count":0,"items":[]},"hereNow":{"count":0,"groups":[]}},{"id":"4d67794ba800721ea1ab0fb8","name":"ジャンボなかむら 伊勢田店","contact":{},"location":{"address":"日本","lat":34.88662344235493,"lng":135.77609507724156,"city":"宇治市","state":"京都府","country":"Japan"},"categories":[{"id":"4bf58dd8d48988d118951735","name":"Grocery Store","pluralName":"Grocery Stores","shortName":"Grocery Store","icon":{"prefix":"https:\/\/foursquare.com\/img\/categories_v2\/shops\/food_grocery_","suffix":".png"},"primary":true}],"verified":false,"stats":{"checkinsCount":27,"usersCount":4,"tipCount":0},"likes":{"count":0,"groups":[]},"specials":{"count":0,"items":[]},"hereNow":{"count":0,"groups":[]}}]}}
