{"meta":{"code":200},"response":{"venues":[{"id":"4cf223c3899c6ea82be6f4c1","name":"かに道楽 京都伏見店","contact":{},"location":{"lat":34.946243243437216,"lng":135.75222577230343,"country":"Japan"},"categories":[{"id":"4bf58dd8d48988d111941735","name":"Japanese Restaurant","pluralName":"Japanese Restaurants","shortName":"Japanese","icon":{"prefix":"https:\/\/foursquare.com\/img\/categories_v2\/food\/japanese_","suffix":".png"},"primary":true}],"verified":false,"stats":{"checkinsCount":20,"usersCount":16,"tipCount":0},"likes":{"count":0,"groups":[]},"specials":{"count":0,"items":[]},"hereNow":{"count":0,"groups":[]}},{"id":"4e87ea8f8231bf8c8582ec4b","name":"ヤマザキＹショップ 伏見荒木店","contact":{},"location":{"address":"景勝町56-34","lat":34.94539828863336,"lng":135.75511693954468,"city":"京都市伏見区","state":"京都府","country":"Japan"},"categories":[{"id":"4d954b0ea243a5684a65b473","name":"Convenience Store","pluralName":"Convenience Stores","shortName":"Convenience Stores","icon":{"prefix":"https:\/\/foursquare.com\/img\/categories_v2\/shops\/conveniencestore_","suffix":".png"},"primary":true}],"verified":false,"stats":{"checkinsCount":15,"usersCount":4,"tipCount":0},"likes":{"count":0,"groups":[]},"specials":{"count":0,"items":[]},"hereNow":{"count":0,"groups":[]}},{"id":"4cbbdeced78f46887b30c573","name":"京・伏見 三源庵","contact":{},"location":{"lat":34.941918,"lng":135.752801,"country":"Japan"},"categories":[{"id":"4bf58dd8d48988d1d0941735","name":"Dessert Shop","pluralName":"Dessert Shops","shortName":"Desserts","icon":{"prefix":"https:\/\/foursquare.com\/img\/categories_v2\/food\/dessert_","suffix":".png"},"primary":true}],"verified":false,"stats":{"checkinsCount":2,"usersCount":2,"tipCount":0},"likes":{"count":0,"groups":[]},"specials":{"count":0,"items":[]},"hereNow":{"count":0,"groups":[]}},{"id":"4d0c8ff83bbaa14339d736da","name":"リカーマウンテン 新堀川店","contact":{"phone":"+81756056363","formattedPhone":"+81 75-605-6363"},"location":{"address":"北端町52","lat":34.945371905403746,"lng":135.75235426425934,"postalCode":"612-8372","city":"京都市伏見区","state":"京都府","country":"Japan"},"categories":[{"id":"4bf58dd8d48988d186941735","name":"Liquor Store","pluralName":"Liquor Stores","shortName":"Liquor Store","icon":{"prefix":"https:\/\/foursquare.com\/img\/categories_v2\/shops\/food_liquor_","suffix":".png"},"primary":true}],"verified":false,"stats":{"checkinsCount":21,"usersCount":12,"tipCount":1},"likes":{"count":0,"groups":[]},"specials":{"count":0,"items":[]},"hereNow":{"count":0,"groups":[]}},{"id":"4c0f419e7189c928c8d8d9b6","name":"スタジアムモリスポ 伏見店","contact":{"phone":"+81756043000","formattedPhone":"+81 75-604-3000"},"location":{"address":"北端町69","lat":34.94429018568066,"lng":135.75235962867737,"city":"京都市伏見区","state":"京都府","country":"Japan"},"categories":[{"id":"4bf58dd8d48988d1f2941735","name":"Sporting Goods Shop","pluralName":"Sporting Goods Shops","shortName":"Sporting Goods","icon":{"prefix":"https:\/\/foursquare.com\/img\/categories_v2\/shops\/sports_outdoors_","suffix":".png"},"primary":true}],"verified":false,"stats":{"checkinsCount":27,"usersCount":18,"tipCount":0},"url":"http:\/\/www.morispo.co.jp\/info\/stadium_fushimi.html","likes":{"count":0,"groups":[]},"specials":{"count":0,"items":[]},"hereNow":{"count":0,"groups":[]}},{"id":"4f6ab17ee4b0357123a66b1e","name":"PAKET","contact":{},"location":{"lat":34.94482305157305,"lng":135.75205456005938,"city":"伏見区","country":"Japan"},"categories":[{"id":"4bf58dd8d48988d146941735","name":"Deli\/Bodega","pluralName":"Delis\/Bodegas","shortName":"Deli \/ Bodega","icon":{"prefix":"https:\/\/foursquare.com\/img\/categories_v2\/food\/deli_","suffix":".png"},"primary":true}],"verified":false,"stats":{"checkinsCount":4,"usersCount":4,"tipCount":0},"likes":{"count":0,"groups":[]},"specials":{"count":0,"items":[]},"hereNow":{"count":0,"groups":[]}},{"id":"4e0d2aff52b1b27c1b7b1a95","name":"Hattori Motor","contact":{},"location":{"lat":34.943883,"lng":135.75222,"city":"京都市","state":"京都府","country":"Japan"},"categories":[{"id":"4bf58dd8d48988d124951735","name":"Automotive Shop","pluralName":"Automotive Shops","shortName":"Automotive","icon":{"prefix":"https:\/\/foursquare.com\/img\/categories_v2\/shops\/automotive_","suffix":".png"},"primary":true}],"verified":false,"stats":{"checkinsCount":0,"usersCount":0,"tipCount":0},"likes":{"count":0,"groups":[]},"specials":{"count":0,"items":[]},"hereNow":{"count":0,"groups":[]}},{"id":"4f1a4fdbe4b0b4fde826019c","name":"お好み焼き・鉄板焼き いっきゅうさん 新堀川店","contact":{},"location":{"address":"伏見区下鳥羽東芹川46","lat":34.942836,"lng":135.751108,"city":"京都市","country":"Japan"},"categories":[{"id":"4bf58dd8d48988d1df931735","name":"BBQ Joint","pluralName":"BBQ Joints","shortName":"BBQ","icon":{"prefix":"https:\/\/foursquare.com\/img\/categories_v2\/food\/bbq_","suffix":".png"},"primary":true}],"verified":false,"stats":{"checkinsCount":7,"usersCount":7,"tipCount":0},"likes":{"count":0,"groups":[]},"specials":{"count":0,"items":[]},"hereNow":{"count":0,"groups":[]}},{"id":"4cd4f5dfa5b34688f94e8b50","name":"テンポス 京都店","contact":{"phone":"+81756040319","formattedPhone":"+81 75-604-0319"},"location":{"address":"日本","lat":34.9433272,"lng":135.75176143,"country":"Japan"},"categories":[],"verified":false,"stats":{"checkinsCount":14,"usersCount":3,"tipCount":0},"likes":{"count":0,"groups":[]},"specials":{"count":0,"items":[]},"hereNow":{"count":0,"groups":[]}},{"id":"4c21c5617e85c92878f9ba21","name":"宮脇書店 京都店","contact":{},"location":{"lat":34.942617,"lng":135.75185562,"country":"Japan"},"categories":[{"id":"4bf58dd8d48988d114951735","name":"Bookstore","pluralName":"Bookstores","shortName":"Bookstore","icon":{"prefix":"https:\/\/foursquare.com\/img\/categories_v2\/shops\/bookstore_","suffix":".png"},"primary":true}],"verified":false,"stats":{"checkinsCount":72,"usersCount":26,"tipCount":0},"likes":{"count":0,"groups":[]},"specials":{"count":0,"items":[]},"hereNow":{"count":0,"groups":[]}},{"id":"4d25af2e38d0236acea4edb6","name":"なか卯新堀川店","contact":{},"location":{"address":"伏見区毛利町90番","lat":34.94282368513891,"lng":135.75193852186203,"city":"京都市","state":"京都府","country":"Japan"},"categories":[{"id":"4bf58dd8d48988d16e941735","name":"Fast Food Restaurant","pluralName":"Fast Food Restaurants","shortName":"Fast Food","icon":{"prefix":"https:\/\/foursquare.com\/img\/categories_v2\/food\/fastfood_","suffix":".png"},"primary":true}],"verified":false,"stats":{"checkinsCount":57,"usersCount":29,"tipCount":0},"likes":{"count":0,"groups":[]},"specials":{"count":0,"items":[]},"hereNow":{"count":0,"groups":[]}},{"id":"4d288db5068e8cfa8ea3c64c","name":"やきとり一番新堀川店","contact":{"phone":"+81756214194","formattedPhone":"+81 75-621-4194"},"location":{"address":"下鳥羽東芹川町43","lat":34.9432304382924,"lng":135.75125992298126,"postalCode":"612-8395","city":"京都市","country":"Japan"},"categories":[{"id":"4bf58dd8d48988d111941735","name":"Japanese Restaurant","pluralName":"Japanese Restaurants","shortName":"Japanese","icon":{"prefix":"https:\/\/foursquare.com\/img\/categories_v2\/food\/japanese_","suffix":".png"},"primary":true}],"verified":false,"stats":{"checkinsCount":9,"usersCount":3,"tipCount":0},"likes":{"count":0,"groups":[]},"specials":{"count":0,"items":[]},"hereNow":{"count":0,"groups":[]}},{"id":"4dfd9ff3183853f2cb5515fc","name":"パルセスイン 京都","contact":{"phone":"+81756031515","formattedPhone":"+81 75-603-1515"},"location":{"lat":34.9427322,"lng":135.75109509,"city":"京都市伏見区下鳥羽東芹川町45","state":"京都府","country":"Japan"},"categories":[{"id":"4bf58dd8d48988d1fa931735","name":"Hotel","pluralName":"Hotels","shortName":"Hotel","icon":{"prefix":"https:\/\/foursquare.com\/img\/categories_v2\/travel\/hotel_","suffix":".png"},"primary":true}],"verified":false,"stats":{"checkinsCount":8,"usersCount":5,"tipCount":0},"likes":{"count":0,"groups":[]},"specials":{"count":0,"items":[]},"hereNow":{"count":0,"groups":[]}},{"id":"4d1001275584f04d41515516","name":"京セラ本社 kyocera","contact":{},"location":{"address":"竹田鳥羽殿町6","lat":34.94683300431481,"lng":135.75143449924477,"city":"京都市伏見区","state":"京都府","country":"Japan"},"categories":[{"id":"4bf58dd8d48988d124941735","name":"Office","pluralName":"Offices","shortName":"Corporate \/ Office","icon":{"prefix":"https:\/\/foursquare.com\/img\/categories_v2\/building\/default_","suffix":".png"},"primary":true}],"verified":false,"stats":{"checkinsCount":203,"usersCount":96,"tipCount":0},"likes":{"count":0,"groups":[]},"hereNow":{"count":0,"groups":[]}},{"id":"4cc25fd8c844721e2965dc01","name":"韓丼 新堀川本店","contact":{"phone":"+81756058222","formattedPhone":"+81 75-605-8222"},"location":{"address":"竹田藁屋町56","lat":34.94600949774269,"lng":135.75209140777588,"city":"京都市伏見区","state":"京都府","country":"Japan"},"categories":[{"id":"4bf58dd8d48988d113941735","name":"Korean Restaurant","pluralName":"Korean Restaurants","shortName":"Korean","icon":{"prefix":"https:\/\/foursquare.com\/img\/categories_v2\/food\/default_","suffix":".png"},"primary":true}],"verified":false,"stats":{"checkinsCount":197,"usersCount":81,"tipCount":2},"likes":{"count":0,"groups":[]},"specials":{"count":0,"items":[]},"hereNow":{"count":0,"groups":[]}},{"id":"4c78dda6a8683704f8ab0e4d","name":"焼肉 やる気 新堀川店","contact":{"phone":"+81756058200","formattedPhone":"+81 75-605-8200"},"location":{"address":"北端町70","lat":34.9444836650531,"lng":135.75208604335785,"city":"京都市伏見区","state":"京都府","country":"Japan"},"categories":[{"id":"4bf58dd8d48988d1df931735","name":"BBQ Joint","pluralName":"BBQ Joints","shortName":"BBQ","icon":{"prefix":"https:\/\/foursquare.com\/img\/categories_v2\/food\/bbq_","suffix":".png"},"primary":true}],"verified":false,"stats":{"checkinsCount":48,"usersCount":31,"tipCount":0},"likes":{"count":0,"groups":[]},"specials":{"count":0,"items":[]},"hereNow":{"count":0,"groups":[]}},{"id":"4e34d2a414952ff6cbc246c9","name":"テンポス京都店","contact":{},"location":{"lat":34.943944,"lng":135.751945,"country":"Japan"},"categories":[{"id":"4bf58dd8d48988d101951735","name":"Thrift \/ Vintage Store","pluralName":"Thrift \/ Vintage Stores","shortName":"Thrift \/ Vintage","icon":{"prefix":"https:\/\/foursquare.com\/img\/categories_v2\/shops\/default_","suffix":".png"},"primary":true}],"verified":false,"stats":{"checkinsCount":3,"usersCount":1,"tipCount":0},"likes":{"count":0,"groups":[]},"specials":{"count":0,"items":[]},"hereNow":{"count":0,"groups":[]}},{"id":"4d3e7ef0a2e4b1f7a277fb25","name":"酒&業務スーパー 下鳥羽店","contact":{"phone":"+81756127601","formattedPhone":"+81 75-612-7601"},"location":{"address":"竹田松林町58","lat":34.94471671914553,"lng":135.75097560882568,"postalCode":"6128371","city":"京都市伏見区","state":"京都府","country":"Japan"},"categories":[{"id":"4bf58dd8d48988d118951735","name":"Grocery Store","pluralName":"Grocery Stores","shortName":"Grocery Store","icon":{"prefix":"https:\/\/foursquare.com\/img\/categories_v2\/shops\/food_grocery_","suffix":".png"},"primary":true}],"verified":false,"stats":{"checkinsCount":22,"usersCount":9,"tipCount":0},"likes":{"count":0,"groups":[]},"specials":{"count":0,"items":[]},"hereNow":{"count":0,"groups":[]}},{"id":"4d2d7b9688e23704da063ac7","name":"ローソン 伏見新堀川店","contact":{"phone":"+81756114015","formattedPhone":"+81 75-611-4015","twitter":"akiko_lawson"},"location":{"address":"下鳥羽東芹川町39","lat":34.9437482211445,"lng":135.75108289718628,"city":"京都市伏見区","state":"京都府","country":"Japan"},"categories":[{"id":"4d954b0ea243a5684a65b473","name":"Convenience Store","pluralName":"Convenience Stores","shortName":"Convenience Stores","icon":{"prefix":"https:\/\/foursquare.com\/img\/categories_v2\/shops\/conveniencestore_","suffix":".png"},"primary":true}],"verified":true,"stats":{"checkinsCount":57,"usersCount":28,"tipCount":0},"likes":{"count":0,"groups":[]},"specials":{"count":0,"items":[]},"hereNow":{"count":0,"groups":[]}},{"id":"4c6500bc3f69c9b6ba248ad9","name":"お好み焼き\/鉄板焼 どんぐり","contact":{},"location":{"address":"毛利町60","crossStreet":"油小路通(新堀川通)沿い","lat":34.94376251234456,"lng":135.75204849243164,"city":"京都市伏見区","state":"京都府","country":"Japan"},"categories":[{"id":"4bf58dd8d48988d1df931735","name":"BBQ Joint","pluralName":"BBQ Joints","shortName":"BBQ","icon":{"prefix":"https:\/\/foursquare.com\/img\/categories_v2\/food\/bbq_","suffix":".png"},"primary":true}],"verified":false,"stats":{"checkinsCount":25,"usersCount":17,"tipCount":0},"likes":{"count":0,"groups":[]},"specials":{"count":0,"items":[]},"hereNow":{"count":0,"groups":[]}},{"id":"4c7a6379794e224b20556828","name":"はなまるうどん 京都新堀川店","contact":{"phone":"+81756056870","formattedPhone":"+81 75-605-6870"},"location":{"address":"竹田松林町8","lat":34.94598201709937,"lng":135.7504581511897,"city":"京都市伏見区","state":"京都府","country":"Japan"},"categories":[{"id":"4bf58dd8d48988d1d1941735","name":"Ramen \/  Noodle House","pluralName":"Ramen \/  Noodle House","shortName":"Ramen \/ Noodles","icon":{"prefix":"https:\/\/foursquare.com\/img\/categories_v2\/food\/ramen_","suffix":".png"},"primary":true}],"verified":false,"stats":{"checkinsCount":79,"usersCount":35,"tipCount":0},"likes":{"count":0,"groups":[]},"specials":{"count":0,"items":[]},"hereNow":{"count":0,"groups":[]}},{"id":"4bb8347b314e9521f14b489d","name":"業務スーパー 下鳥羽店","contact":{"phone":"+81756127601","formattedPhone":"+81 75-612-7601"},"location":{"address":"竹田松林町58-59","lat":34.9447167,"lng":135.75130435,"city":"京都市伏見区","state":"京都府","country":"Japan"},"categories":[{"id":"4bf58dd8d48988d118951735","name":"Grocery Store","pluralName":"Grocery Stores","shortName":"Grocery Store","icon":{"prefix":"https:\/\/foursquare.com\/img\/categories_v2\/shops\/food_grocery_","suffix":".png"},"primary":true}],"verified":false,"stats":{"checkinsCount":20,"usersCount":8,"tipCount":0},"likes":{"count":0,"groups":[]},"specials":{"count":0,"items":[]},"hereNow":{"count":0,"groups":[]}},{"id":"4d60f451d7206ea84302fbf1","name":"シーホース","contact":{},"location":{"lat":34.94564946260553,"lng":135.75139285365842,"country":"Japan"},"categories":[{"id":"4bf58dd8d48988d145941735","name":"Chinese Restaurant","pluralName":"Chinese Restaurants","shortName":"Chinese","icon":{"prefix":"https:\/\/foursquare.com\/img\/categories_v2\/food\/chinese_","suffix":".png"},"primary":true}],"verified":false,"stats":{"checkinsCount":10,"usersCount":9,"tipCount":0},"likes":{"count":0,"groups":[]},"specials":{"count":0,"items":[]},"hereNow":{"count":0,"groups":[]}},{"id":"4df31794d4c01ff6b2eb3479","name":"どんぐり新堀","contact":{},"location":{"lat":34.943957,"lng":135.751796,"country":"Japan"},"categories":[],"verified":false,"stats":{"checkinsCount":0,"usersCount":0,"tipCount":0},"likes":{"count":0,"groups":[]},"specials":{"count":0,"items":[]},"hereNow":{"count":0,"groups":[]}},{"id":"4e85a90d4901d14ec66f0e63","name":"graphic竹田工場","contact":{},"location":{"lat":34.94335333895266,"lng":135.74983811115717,"country":"Japan"},"categories":[{"id":"4bf58dd8d48988d124941735","name":"Office","pluralName":"Offices","shortName":"Corporate \/ Office","icon":{"prefix":"https:\/\/foursquare.com\/img\/categories_v2\/building\/default_","suffix":".png"},"primary":true}],"verified":false,"stats":{"checkinsCount":5,"usersCount":2,"tipCount":0},"likes":{"count":0,"groups":[]},"hereNow":{"count":0,"groups":[]}},{"id":"4c7f7d16d51ea143b8a45a9f","name":"串八 新堀川店","contact":{"phone":"+81756028228","formattedPhone":"+81 75-602-8228"},"location":{"address":"竹田松林町50","lat":34.945769,"lng":135.751316,"city":"京都市伏見区","state":"京都","country":"Japan"},"categories":[{"id":"4bf58dd8d48988d1c4941735","name":"Restaurant","pluralName":"Restaurants","shortName":"Other - Food","icon":{"prefix":"https:\/\/foursquare.com\/img\/categories_v2\/food\/default_","suffix":".png"},"primary":true}],"verified":false,"stats":{"checkinsCount":47,"usersCount":37,"tipCount":0},"likes":{"count":0,"groups":[]},"specials":{"count":0,"items":[]},"hereNow":{"count":0,"groups":[]}},{"id":"4fc4a634e4b0452621267818","name":"西武運輸　京滋統括支店京都貨物センター","contact":{},"location":{"lat":34.9435920715332,"lng":135.75022888183594,"country":"Japan"},"categories":[{"id":"4eb1bea83b7b6f98df247e06","name":"Factory","pluralName":"Factories","shortName":"Factory","icon":{"prefix":"https:\/\/foursquare.com\/img\/categories_v2\/building\/factory_","suffix":".png"},"primary":true}],"verified":false,"stats":{"checkinsCount":1,"usersCount":1,"tipCount":0},"likes":{"count":0,"groups":[]},"specials":{"count":0,"items":[]},"hereNow":{"count":0,"groups":[]}},{"id":"4c568a3b2308be9ade1c576c","name":"Healin'Feelin'","contact":{},"location":{"lat":34.945673,"lng":135.750008,"country":"Japan"},"categories":[],"verified":false,"stats":{"checkinsCount":25,"usersCount":10,"tipCount":0},"likes":{"count":0,"groups":[]},"specials":{"count":0,"items":[]},"hereNow":{"count":0,"groups":[]}},{"id":"4e4111812271a89dd089082f","name":"パルスプラザ前 バス停","contact":{},"location":{"address":"伏見区 竹田鳥羽殿町・竹田藁屋町","crossStreet":"市バス\/京阪バス","lat":34.94690266832805,"lng":135.75179502367973,"city":"京都市","state":"京都府","country":"Japan"},"categories":[{"id":"4bf58dd8d48988d1fe931735","name":"Bus Station","pluralName":"Bus Stations","shortName":"Bus Station","icon":{"prefix":"https:\/\/foursquare.com\/img\/categories_v2\/travel\/busstation_","suffix":".png"},"primary":true}],"verified":false,"stats":{"checkinsCount":25,"usersCount":14,"tipCount":0},"likes":{"count":0,"groups":[]},"specials":{"count":0,"items":[]},"hereNow":{"count":0,"groups":[]}},{"id":"4da80ec204376c33687e6266","name":"auショップ伏見","contact":{"phone":"+81756018477","formattedPhone":"+81 75-601-8477"},"location":{"address":"竹田鳥羽殿町9","crossStreet":"メモワールビル","lat":34.946112831206605,"lng":135.75119644402093,"postalCode":"612-8450","city":"京都市伏見区","state":"京都府","country":"Japan"},"categories":[{"id":"4f04afc02fb6e1c99f3db0bc","name":"Mobile Phone Shop","pluralName":"Mobile Phone Shops","shortName":"Mobile Phone","icon":{"prefix":"https:\/\/foursquare.com\/img\/categories_v2\/shops\/mobilephoneshop_","suffix":".png"},"primary":true}],"verified":false,"stats":{"checkinsCount":103,"usersCount":6,"tipCount":0},"likes":{"count":0,"groups":[]},"specials":{"count":0,"items":[]},"hereNow":{"count":0,"groups":[]}},{"id":"4dba293ff7b144688ff39186","name":"阪神高速 城南宮南出入口","contact":{},"location":{"address":"竹田鳥羽殿町","crossStreet":"阪神高速 8号京都線","lat":34.94651077375537,"lng":135.7517910003662,"city":"京都市伏見区","state":"京都府","country":"Japan"},"categories":[{"id":"4bf58dd8d48988d1f9931735","name":"Road","pluralName":"Roads","shortName":"Road","icon":{"prefix":"https:\/\/foursquare.com\/img\/categories_v2\/travel\/highway_","suffix":".png"},"primary":true}],"verified":false,"stats":{"checkinsCount":18,"usersCount":8,"tipCount":0},"likes":{"count":0,"groups":[]},"specials":{"count":0,"items":[]},"hereNow":{"count":0,"groups":[]}},{"id":"4d0af5f1b93b224b9e6b49bf","name":"京セラ美術館","contact":{},"location":{"address":"伏見区竹田鳥羽殿町6","crossStreet":"京セラ本社ビル","lat":34.946669070806855,"lng":135.75087904930115,"city":"京都市","state":"京都府","country":"Japan"},"categories":[{"id":"4bf58dd8d48988d18f941735","name":"Art Museum","pluralName":"Art Museums","shortName":"Art Museum","icon":{"prefix":"https:\/\/foursquare.com\/img\/categories_v2\/arts_entertainment\/museum_art_","suffix":".png"},"primary":true}],"verified":false,"stats":{"checkinsCount":24,"usersCount":16,"tipCount":0},"url":"http:\/\/www.kyocera.co.jp\/company\/csr\/facility\/museum\/","likes":{"count":0,"groups":[]},"specials":{"count":0,"items":[]},"hereNow":{"count":0,"groups":[]}},{"id":"4ee9bd8fa17c920d511c43d2","name":"パラグアイ共和国名誉領事館 (Honorary Consulate of the Republic of Paraguay)","contact":{"phone":"+81756027524","formattedPhone":"+81 75-602-7524"},"location":{"address":"竹田鳥羽殿町6","crossStreet":"株式会社京セラ内","lat":34.94675261634971,"lng":135.75078785419464,"postalCode":"612-8501","city":"京都市伏見区","state":"京都府","country":"Japan"},"categories":[{"id":"4bf58dd8d48988d12c951735","name":"Embassy\/Consulate","pluralName":"Embassies\/Consulates","shortName":"Embassy","icon":{"prefix":"https:\/\/foursquare.com\/img\/categories_v2\/travel\/embassy_","suffix":".png"},"primary":true}],"verified":false,"stats":{"checkinsCount":0,"usersCount":0,"tipCount":0},"likes":{"count":0,"groups":[]},"specials":{"count":0,"items":[]},"hereNow":{"count":0,"groups":[]}}]}}
