{"meta":{"code":200},"response":{"venues":[{"id":"4da79aec81541df437ab2d13","name":"京都市立 藤森中学校","contact":{},"location":{"address":"深草池ノ内町55","lat":34.955955296229455,"lng":135.76507329940796,"postalCode":"612-0031","city":"京都市伏見区","state":"京都府","country":"Japan"},"categories":[{"id":"4bf58dd8d48988d13b941735","name":"School","pluralName":"Schools","shortName":"School","icon":{"prefix":"https:\/\/foursquare.com\/img\/categories_v2\/building\/school_","suffix":".png"},"primary":true}],"verified":false,"stats":{"checkinsCount":13,"usersCount":6,"tipCount":0},"likes":{"count":0,"groups":[]},"specials":{"count":0,"items":[]},"hereNow":{"count":0,"groups":[]}},{"id":"4bb07cb4f964a520ea473ce3","name":"京都市青少年科学センター","contact":{"phone":"+81756421601","formattedPhone":"+81 75-642-1601"},"location":{"address":"伏見区深草池ノ内町13","lat":34.95577503387364,"lng":135.7667577266693,"postalCode":"612-0031","city":"京都市","state":"京都府","country":"Japan"},"categories":[{"id":"4bf58dd8d48988d191941735","name":"Science Museum","pluralName":"Science Museums","shortName":"Science Museum","icon":{"prefix":"https:\/\/foursquare.com\/img\/categories_v2\/arts_entertainment\/museum_science_","suffix":".png"},"primary":true}],"verified":false,"stats":{"checkinsCount":65,"usersCount":47,"tipCount":1},"likes":{"count":0,"groups":[]},"specials":{"count":0,"items":[]},"hereNow":{"count":0,"groups":[]}},{"id":"4c9b0290b8e9224be7dc523d","name":"CHOCOLAT FURANSUYA","contact":{},"location":{"address":"日本","lat":34.95466741,"lng":135.76407543,"city":"京都市","state":"京都府","country":"Japan"},"categories":[],"verified":false,"stats":{"checkinsCount":1,"usersCount":1,"tipCount":0},"likes":{"count":0,"groups":[]},"specials":{"count":0,"items":[]},"hereNow":{"count":0,"groups":[]}},{"id":"4f2830ffe5e8940a57ec9347","name":"藤ノ森 バス停","contact":{},"location":{"address":"伏見区深草飯食町","crossStreet":"市バス南8・臨南5系統","lat":34.955498044603026,"lng":135.7685722410679,"city":"京都市","state":"京都府","country":"Japan"},"categories":[{"id":"4bf58dd8d48988d1fe931735","name":"Bus Station","pluralName":"Bus Stations","shortName":"Bus Station","icon":{"prefix":"https:\/\/foursquare.com\/img\/categories_v2\/travel\/busstation_","suffix":".png"},"primary":true}],"verified":false,"stats":{"checkinsCount":0,"usersCount":0,"tipCount":0},"likes":{"count":0,"groups":[]},"specials":{"count":0,"items":[]},"hereNow":{"count":0,"groups":[]}},{"id":"4dd74ca5d4c05d5096e707e5","name":"七瀬川公園","contact":{},"location":{"lat":34.953314,"lng":135.764051,"city":"Kyoto","state":"Kyoto Prefecture","country":"Japan"},"categories":[{"id":"4bf58dd8d48988d163941735","name":"Park","pluralName":"Parks","shortName":"Park","icon":{"prefix":"https:\/\/foursquare.com\/img\/categories_v2\/parks_outdoors\/park_","suffix":".png"},"primary":true}],"verified":false,"stats":{"checkinsCount":9,"usersCount":3,"tipCount":0},"likes":{"count":0,"groups":[]},"specials":{"count":0,"items":[]},"hereNow":{"count":0,"groups":[]}},{"id":"4d9564c3a2c6548167d2a653","name":"テラ・ルネッサンス事務局","contact":{},"location":{"lat":34.953496,"lng":135.764427,"city":"Kyoto","state":"Kyoto Prefecture","country":"Japan"},"categories":[{"id":"4bf58dd8d48988d124941735","name":"Office","pluralName":"Offices","shortName":"Corporate \/ Office","icon":{"prefix":"https:\/\/foursquare.com\/img\/categories_v2\/building\/default_","suffix":".png"},"primary":true}],"verified":false,"stats":{"checkinsCount":1,"usersCount":1,"tipCount":0},"likes":{"count":0,"groups":[]},"hereNow":{"count":0,"groups":[]}},{"id":"4dbce38d6a23e294ba3a6855","name":"いろはラーメン店","contact":{},"location":{"lat":34.952001,"lng":135.763629,"city":"Kyoto","state":"Kyoto Prefecture","country":"Japan"},"categories":[{"id":"4bf58dd8d48988d1d1941735","name":"Ramen \/  Noodle House","pluralName":"Ramen \/  Noodle House","shortName":"Ramen \/ Noodles","icon":{"prefix":"https:\/\/foursquare.com\/img\/categories_v2\/food\/ramen_","suffix":".png"},"primary":true}],"verified":false,"stats":{"checkinsCount":1,"usersCount":1,"tipCount":0},"likes":{"count":0,"groups":[]},"specials":{"count":0,"items":[]},"hereNow":{"count":0,"groups":[]}},{"id":"4f28a244e5e8eae50764d5d0","name":"深草北蓮池町 バス停","contact":{},"location":{"address":"伏見区深草北蓮池町","crossStreet":"市バス南8系統","lat":34.951924579246246,"lng":135.76771058142185,"city":"京都市","state":"京都府","country":"Japan"},"categories":[{"id":"4bf58dd8d48988d1fe931735","name":"Bus Station","pluralName":"Bus Stations","shortName":"Bus Station","icon":{"prefix":"https:\/\/foursquare.com\/img\/categories_v2\/travel\/busstation_","suffix":".png"},"primary":true}],"verified":false,"stats":{"checkinsCount":0,"usersCount":0,"tipCount":0},"likes":{"count":0,"groups":[]},"specials":{"count":0,"items":[]},"hereNow":{"count":0,"groups":[]}},{"id":"4da798ec04376c336874be5e","name":"松広","contact":{},"location":{"lat":34.951991,"lng":135.763431,"city":"Kyoto","state":"Kyoto Prefecture","country":"Japan"},"categories":[],"verified":false,"stats":{"checkinsCount":1,"usersCount":1,"tipCount":0},"likes":{"count":0,"groups":[]},"specials":{"count":0,"items":[]},"hereNow":{"count":0,"groups":[]}},{"id":"4dfefe781495f702193507b8","name":"ティールーム マヒシャ","contact":{},"location":{"lat":34.953198,"lng":135.767964,"country":"Japan"},"categories":[],"verified":false,"stats":{"checkinsCount":0,"usersCount":0,"tipCount":0},"likes":{"count":0,"groups":[]},"specials":{"count":0,"items":[]},"hereNow":{"count":0,"groups":[]}}]}}
