{"meta":{"code":200},"response":{"venues":[{"id":"4f114fdde4b0d59e1fd86ceb","name":"hokkaido 高田屋","contact":{},"location":{"address":"伏見区東組町698","lat":34.938179840949886,"lng":135.76347622795618,"country":"Japan"},"categories":[{"id":"4bf58dd8d48988d111941735","name":"Japanese Restaurant","pluralName":"Japanese Restaurants","shortName":"Japanese","icon":{"prefix":"https:\/\/foursquare.com\/img\/categories_v2\/food\/japanese_","suffix":".png"},"primary":true}],"verified":false,"stats":{"checkinsCount":5,"usersCount":4,"tipCount":0},"likes":{"count":0,"groups":[]},"specials":{"count":0,"items":[]},"hereNow":{"count":0,"groups":[]}},{"id":"4f0e5ff9e4b08f66995942dc","name":"宝酒造","contact":{},"location":{"address":"京都市伏見区竹中町","lat":34.93746634164327,"lng":135.7623144989019,"country":"Japan"},"categories":[{"id":"4eb1bea83b7b6f98df247e06","name":"Factory","pluralName":"Factories","shortName":"Factory","icon":{"prefix":"https:\/\/foursquare.com\/img\/categories_v2\/building\/factory_","suffix":".png"},"primary":true}],"verified":false,"stats":{"checkinsCount":5,"usersCount":4,"tipCount":0},"likes":{"count":0,"groups":[]},"specials":{"count":0,"items":[]},"hereNow":{"count":0,"groups":[]}},{"id":"4e2672442271e4f307581b61","name":"竹藤魚店","contact":{},"location":{"lat":34.939843237274154,"lng":135.7630828105635,"city":"京都市","state":"京都府","country":"Japan"},"categories":[{"id":"4d4b7105d754a06374d81259","name":"Food","pluralName":"Food","shortName":"Food","icon":{"prefix":"https:\/\/foursquare.com\/img\/categories_v2\/food\/default_","suffix":".png"},"primary":true}],"verified":false,"stats":{"checkinsCount":13,"usersCount":2,"tipCount":0},"likes":{"count":0,"groups":[]},"specials":{"count":0,"items":[]},"hereNow":{"count":0,"groups":[]}},{"id":"4e994bb661af89f39e262810","name":"朝日理容","contact":{},"location":{"lat":34.938626,"lng":135.764278,"country":"Japan"},"categories":[{"id":"4bf58dd8d48988d110951735","name":"Salon \/ Barbershop","pluralName":"Salons \/ Barbershops","shortName":"Salon \/ Barbershop","icon":{"prefix":"https:\/\/foursquare.com\/img\/categories_v2\/shops\/salon_barber_","suffix":".png"},"primary":true}],"verified":false,"stats":{"checkinsCount":3,"usersCount":2,"tipCount":0},"likes":{"count":0,"groups":[]},"specials":{"count":0,"items":[]},"hereNow":{"count":0,"groups":[]}},{"id":"4efc27ec49017b4da56a893d","name":"理容朝日","contact":{},"location":{"address":"京町南7丁目","lat":34.938681,"lng":135.764222,"city":"京都市伏見区","state":"京都府","country":"Japan"},"categories":[{"id":"4bf58dd8d48988d130941735","name":"Building","pluralName":"Buildings","shortName":"Other - Buildings","icon":{"prefix":"https:\/\/foursquare.com\/img\/categories_v2\/building\/default_","suffix":".png"},"primary":true}],"verified":false,"stats":{"checkinsCount":1,"usersCount":1,"tipCount":0},"likes":{"count":0,"groups":[]},"specials":{"count":0,"items":[]},"hereNow":{"count":0,"groups":[]}},{"id":"4bede531e24d20a13b317214","name":"ゲベッケン 丹波橋店","contact":{},"location":{"address":"両替町10-223-1","lat":34.93977627030529,"lng":135.7642364501953,"city":"京都市伏見区","state":"京都府","country":"Japan"},"categories":[{"id":"4bf58dd8d48988d16a941735","name":"Bakery","pluralName":"Bakeries","shortName":"Bakery","icon":{"prefix":"https:\/\/foursquare.com\/img\/categories_v2\/food\/bakery_","suffix":".png"},"primary":true}],"verified":false,"stats":{"checkinsCount":11,"usersCount":7,"tipCount":0},"likes":{"count":0,"groups":[]},"specials":{"count":0,"items":[]},"hereNow":{"count":0,"groups":[]}},{"id":"4d01ef6d3c89b60cf00f648f","name":"my Home","contact":{},"location":{"isFuzzed":true,"lat":34.94359343136303,"lng":135.7663158721512,"city":"Kyoto","state":"Japan","country":"Japan"},"categories":[{"id":"4bf58dd8d48988d103941735","name":"Home (private)","pluralName":"Homes (private)","shortName":"Home","icon":{"prefix":"https:\/\/foursquare.com\/img\/categories_v2\/building\/home_","suffix":".png"},"primary":true}],"verified":false,"stats":{"checkinsCount":7,"usersCount":1,"tipCount":0},"likes":{"count":0,"groups":[]},"hereNow":{"count":0,"groups":[]}},{"id":"4ee89981991154b31c4101c5","name":"ゼニヤ薬局","contact":{},"location":{"address":"京都市伏見区","lat":34.93985463306355,"lng":135.76434638619463,"country":"Japan"},"categories":[{"id":"4bf58dd8d48988d10f951735","name":"Drugstore \/ Pharmacy","pluralName":"Drugstores \/ Pharmacies","shortName":"Pharmacy","icon":{"prefix":"https:\/\/foursquare.com\/img\/categories_v2\/shops\/pharmacy_","suffix":".png"},"primary":true}],"verified":false,"stats":{"checkinsCount":1,"usersCount":1,"tipCount":0},"likes":{"count":0,"groups":[]},"specials":{"count":0,"items":[]},"hereNow":{"count":0,"groups":[]}},{"id":"4d66fd0bf23f3704775cc233","name":"キンシ正宗","contact":{"phone":"+81756115201","formattedPhone":"+81 75-611-5201"},"location":{"address":"伏見区新町11-337-1","lat":34.940343,"lng":135.762452,"city":"京都市","state":"京都府","country":"Japan"},"categories":[{"id":"4bf58dd8d48988d1ff941735","name":"Miscellaneous Shop","pluralName":"Miscellaneous Shops","shortName":"Other - Shop","icon":{"prefix":"https:\/\/foursquare.com\/img\/categories_v2\/shops\/default_","suffix":".png"},"primary":true}],"verified":false,"stats":{"checkinsCount":120,"usersCount":16,"tipCount":0},"likes":{"count":0,"groups":[]},"specials":{"count":0,"items":[]},"hereNow":{"count":0,"groups":[]}},{"id":"4cc78e1e73fd6dcb34f21686","name":"ハッピーテラダ伏見店","contact":{"phone":"+81756045722","formattedPhone":"+81 75-604-5722"},"location":{"address":"下板橋町639","lat":34.93986864378111,"lng":135.76230987055592,"postalCode":"612-0073","city":"京都市伏見区","state":"京都府","country":"Japan"},"categories":[{"id":"4bf58dd8d48988d118951735","name":"Grocery Store","pluralName":"Grocery Stores","shortName":"Grocery Store","icon":{"prefix":"https:\/\/foursquare.com\/img\/categories_v2\/shops\/food_grocery_","suffix":".png"},"primary":true}],"verified":false,"stats":{"checkinsCount":88,"usersCount":12,"tipCount":1},"likes":{"count":0,"groups":[]},"specials":{"count":0,"items":[]},"hereNow":{"count":0,"groups":[]}},{"id":"4efaa391775b54cdb74f9236","name":"松永歯科","contact":{},"location":{"address":"伏見区新町10-364-1","lat":34.94047885519158,"lng":135.7624718629324,"postalCode":"612-8081","city":"京都市","state":"京都府","country":"Japan"},"categories":[{"id":"4bf58dd8d48988d178941735","name":"Dentist's Office","pluralName":"Dentist's Offices","shortName":"Dentist's Office","icon":{"prefix":"https:\/\/foursquare.com\/img\/categories_v2\/building\/medical_dentist_","suffix":".png"},"primary":true}],"verified":false,"stats":{"checkinsCount":2,"usersCount":1,"tipCount":0},"likes":{"count":0,"groups":[]},"specials":{"count":0,"items":[]},"hereNow":{"count":0,"groups":[]}},{"id":"4efaa541722e3406121f4da2","name":"村山ミシン","contact":{},"location":{"address":"新町10丁目379-1","lat":34.94053075346848,"lng":135.7624903763819,"city":"京都市伏見区","state":"京都府","country":"Japan"},"categories":[{"id":"4bf58dd8d48988d130941735","name":"Building","pluralName":"Buildings","shortName":"Other - Buildings","icon":{"prefix":"https:\/\/foursquare.com\/img\/categories_v2\/building\/default_","suffix":".png"},"primary":true}],"verified":false,"stats":{"checkinsCount":2,"usersCount":1,"tipCount":0},"likes":{"count":0,"groups":[]},"specials":{"count":0,"items":[]},"hereNow":{"count":0,"groups":[]}},{"id":"4efaa2edd3e354f0bfff56cf","name":"松永医院","contact":{},"location":{"address":"新町10丁目364","lat":34.9404741766472,"lng":135.76249963310934,"city":"京都市伏見区","state":"京都府","country":"Japan"},"categories":[{"id":"4bf58dd8d48988d196941735","name":"Hospital","pluralName":"Hospitals","shortName":"Hospital","icon":{"prefix":"https:\/\/foursquare.com\/img\/categories_v2\/building\/medical_hospital_","suffix":".png"},"primary":true}],"verified":false,"stats":{"checkinsCount":2,"usersCount":1,"tipCount":0},"likes":{"count":0,"groups":[]},"specials":{"count":0,"items":[]},"hereNow":{"count":0,"groups":[]}},{"id":"4cfb41432d80a143c1914ad8","name":"Lunch Box","contact":{"phone":"+81120307015","formattedPhone":"+81 120-307-015"},"location":{"address":"伏見区京町5-77-7","lat":34.940174,"lng":135.762312,"city":"京都市","state":"京都府","country":"Japan"},"categories":[{"id":"4bf58dd8d48988d1d0941735","name":"Dessert Shop","pluralName":"Dessert Shops","shortName":"Desserts","icon":{"prefix":"https:\/\/foursquare.com\/img\/categories_v2\/food\/dessert_","suffix":".png"},"primary":true}],"verified":false,"stats":{"checkinsCount":3,"usersCount":3,"tipCount":1},"likes":{"count":0,"groups":[]},"specials":{"count":0,"items":[]},"hereNow":{"count":0,"groups":[]}},{"id":"4ef5812f490124bf97debc54","name":"Niryo","contact":{},"location":{"address":"京都市伏見区深草出羽屋敷町23","lat":34.94047005655744,"lng":135.76248111965626,"postalCode":"6120088","city":"京都市","state":"京都府","country":"Japan"},"categories":[{"id":"4bf58dd8d48988d106951735","name":"Men's Store","pluralName":"Men's Stores","shortName":"Men's Store","icon":{"prefix":"https:\/\/foursquare.com\/img\/categories_v2\/shops\/apparel_men_","suffix":".png"},"primary":true}],"verified":false,"stats":{"checkinsCount":1,"usersCount":1,"tipCount":0},"likes":{"count":0,"groups":[]},"specials":{"count":0,"items":[]},"hereNow":{"count":0,"groups":[]}},{"id":"4efe68f87ee5f14f39186bf7","name":"美好乃","contact":{},"location":{"address":"京都府京都市伏見区","lat":34.93978437110613,"lng":135.7617128176946,"country":"Japan"},"categories":[{"id":"4bf58dd8d48988d117951735","name":"Candy Store","pluralName":"Candy Stores","shortName":"Candy Store","icon":{"prefix":"https:\/\/foursquare.com\/img\/categories_v2\/shops\/candystore_","suffix":".png"},"primary":true}],"verified":false,"stats":{"checkinsCount":1,"usersCount":1,"tipCount":0},"likes":{"count":0,"groups":[]},"specials":{"count":0,"items":[]},"hereNow":{"count":0,"groups":[]}}]}}
