{"meta":{"code":200},"response":{"venues":[{"id":"4b7c8d6ff964a520949a2fe3","name":"セブンイレブン 宇治木幡店","contact":{"phone":"+81774312455","formattedPhone":"+81 774-31-2455"},"location":{"address":"木幡正中46-11","lat":34.928638830974386,"lng":135.7999849319458,"postalCode":"611-0002","city":"宇治市","state":"京都府","country":"Japan"},"categories":[{"id":"4bf58dd8d48988d1ff941735","name":"Miscellaneous Shop","pluralName":"Miscellaneous Shops","shortName":"Other - Shop","icon":{"prefix":"https:\/\/foursquare.com\/img\/categories_v2\/shops\/default_","suffix":".png"},"primary":true}],"verified":false,"stats":{"checkinsCount":113,"usersCount":30,"tipCount":0},"likes":{"count":0,"groups":[]},"specials":{"count":0,"items":[]},"hereNow":{"count":0,"groups":[]}},{"id":"4ef5737e29c2683187ceef58","name":"パークノヴァ松ヶ崎","contact":{"twitter":"agriculture301"},"location":{"isFuzzed":true,"lat":35.050070079663634,"lng":135.78527893998063,"city":"京都","state":"京都","country":"Japan"},"categories":[{"id":"4bf58dd8d48988d103941735","name":"Home (private)","pluralName":"Homes (private)","shortName":"Home","icon":{"prefix":"https:\/\/foursquare.com\/img\/categories_v2\/building\/home_","suffix":".png"},"primary":true}],"verified":false,"stats":{"checkinsCount":1,"usersCount":1,"tipCount":0},"likes":{"count":0,"groups":[]},"hereNow":{"count":0,"groups":[]}},{"id":"4e06c6f0d22d658532a2568a","name":"パナソニック　エレクトロニックデバイス株式会社","contact":{},"location":{"lat":34.926233225050396,"lng":135.79577529387876,"city":"宇治市","state":"京都府","country":"Japan"},"categories":[],"verified":false,"stats":{"checkinsCount":54,"usersCount":11,"tipCount":0},"likes":{"count":0,"groups":[]},"specials":{"count":0,"items":[]},"hereNow":{"count":0,"groups":[]}},{"id":"4f3e259be4b0efcb51aaa276","name":"グリーンパーク京阪木幡駅前","contact":{},"location":{"address":"京都府宇治市","lat":34.92611901552509,"lng":135.7962014024396,"country":"Japan"},"categories":[{"id":"4bf58dd8d48988d113951735","name":"Gas Station \/ Garage","pluralName":"Gas Stations \/ Garages","shortName":"Gas Station \/ Garage","icon":{"prefix":"https:\/\/foursquare.com\/img\/categories_v2\/shops\/gas_","suffix":".png"},"primary":true}],"verified":false,"stats":{"checkinsCount":13,"usersCount":1,"tipCount":0},"likes":{"count":0,"groups":[]},"specials":{"count":0,"items":[]},"hereNow":{"count":0,"groups":[]}},{"id":"4bdbff972a3a0f47d241b1b6","name":"マクドナルド木幡店","contact":{"phone":"+81774382540","formattedPhone":"+81 774-38-2540"},"location":{"address":"木幡東中24-38","lat":34.92656729838982,"lng":135.79988837242126,"postalCode":"611-0002","city":"宇治市","state":"京都府","country":"Japan"},"categories":[{"id":"4bf58dd8d48988d16c941735","name":"Burger Joint","pluralName":"Burger Joints","shortName":"Burgers","icon":{"prefix":"https:\/\/foursquare.com\/img\/categories_v2\/food\/burger_","suffix":".png"},"primary":true}],"verified":false,"stats":{"checkinsCount":135,"usersCount":42,"tipCount":1},"likes":{"count":0,"groups":[]},"specials":{"count":0,"items":[]},"hereNow":{"count":0,"groups":[]}},{"id":"4c0f49c3d64c0f47d892295d","name":"京アニショップ","contact":{},"location":{"address":"木幡内畑町34-11 ハイショップビル2F","lat":34.92558649083347,"lng":135.7954627275467,"postalCode":"661-0002","city":"宇治市","state":"京都府","country":"Japan"},"categories":[{"id":"4bf58dd8d48988d1fb941735","name":"Hobby Shop","pluralName":"Hobby Shops","shortName":"Hobbies","icon":{"prefix":"https:\/\/foursquare.com\/img\/categories_v2\/shops\/hobbyshop_","suffix":".png"},"primary":true}],"verified":false,"stats":{"checkinsCount":451,"usersCount":274,"tipCount":3},"likes":{"count":0,"groups":[]},"specials":{"count":0,"items":[]},"hereNow":{"count":0,"groups":[]}},{"id":"4d9b3e0c8e3dd7cece7a5cfe","name":"宇治市立木幡幼稚園","contact":{"phone":"+81774399292","formattedPhone":"+81 774-39-9292"},"location":{"address":"木幡檜尾47-1","lat":34.9264954,"lng":135.8002322,"postalCode":"611-0002","city":"宇治市","state":"京都府","country":"Japan"},"categories":[{"id":"4bf58dd8d48988d13b941735","name":"School","pluralName":"Schools","shortName":"School","icon":{"prefix":"https:\/\/foursquare.com\/img\/categories_v2\/building\/school_","suffix":".png"},"primary":true}],"verified":false,"stats":{"checkinsCount":3,"usersCount":1,"tipCount":0},"likes":{"count":0,"groups":[]},"specials":{"count":0,"items":[]},"hereNow":{"count":0,"groups":[]}},{"id":"4b70a427f964a52008272de3","name":"ジョリーパスタ 木幡店","contact":{},"location":{"address":"木幡正中46-21","lat":34.92917979583913,"lng":135.79998761415482,"city":"宇治市","state":"京都府","country":"Japan"},"categories":[],"verified":false,"stats":{"checkinsCount":26,"usersCount":15,"tipCount":0},"likes":{"count":0,"groups":[]},"specials":{"count":0,"items":[]},"hereNow":{"count":0,"groups":[]}},{"id":"4b70a45af964a52013272de3","name":"京都三丘園","contact":{},"location":{"lat":34.929376,"lng":135.80003,"country":"Japan"},"categories":[],"verified":false,"stats":{"checkinsCount":5,"usersCount":2,"tipCount":0},"likes":{"count":0,"groups":[]},"specials":{"count":0,"items":[]},"hereNow":{"count":0,"groups":[]}},{"id":"4b58db44f964a5200c6f28e3","name":"京阪 木幡駅 (Kowata Sta.)","contact":{},"location":{"address":"木幡西中23","lat":34.92578387260437,"lng":135.79607963562012,"postalCode":"611-0002","city":"宇治市","state":"京都府","country":"Japan"},"categories":[{"id":"4bf58dd8d48988d129951735","name":"Train Station","pluralName":"Train Stations","shortName":"Train Station","icon":{"prefix":"https:\/\/foursquare.com\/img\/categories_v2\/travel\/trainstation_","suffix":".png"},"primary":true}],"verified":false,"stats":{"checkinsCount":639,"usersCount":173,"tipCount":2},"likes":{"count":0,"groups":[]},"specials":{"count":0,"items":[]},"hereNow":{"count":1,"groups":[{"type":"others","name":"Other people here","count":1,"items":[]}]}},{"id":"4e7da44ef79002948141949f","name":"京屋ホルモン","contact":{},"location":{"lat":34.92574368,"lng":135.79577562,"city":"宇治市","state":"京都府","country":"Japan"},"categories":[{"id":"4bf58dd8d48988d113941735","name":"Korean Restaurant","pluralName":"Korean Restaurants","shortName":"Korean","icon":{"prefix":"https:\/\/foursquare.com\/img\/categories_v2\/food\/default_","suffix":".png"},"primary":true}],"verified":false,"stats":{"checkinsCount":6,"usersCount":2,"tipCount":0},"likes":{"count":0,"groups":[]},"specials":{"count":0,"items":[]},"hereNow":{"count":0,"groups":[]}},{"id":"4ed9f90f6da1642c5c2d8b90","name":"いなかもん","contact":{},"location":{"address":"木幡内畑34-11","lat":34.925773183454375,"lng":135.79553908316288,"city":"京都府宇治市","country":"Japan"},"categories":[{"id":"4bf58dd8d48988d116941735","name":"Bar","pluralName":"Bars","shortName":"Bar","icon":{"prefix":"https:\/\/foursquare.com\/img\/categories_v2\/nightlife\/bar_","suffix":".png"},"primary":true}],"verified":false,"stats":{"checkinsCount":3,"usersCount":2,"tipCount":0},"likes":{"count":0,"groups":[]},"specials":{"count":0,"items":[]},"hereNow":{"count":0,"groups":[]}},{"id":"4c0f4f06c6cf76b0371e8251","name":"セブンイレブン 宇治京阪木幡駅前店","contact":{"phone":"+81774330663","formattedPhone":"+81 774-33-0663"},"location":{"address":"木幡内畑34-9","lat":34.92552546486377,"lng":135.79574167728424,"postalCode":"661-0002","city":"京都市","state":"宇治市","country":"Japan"},"categories":[{"id":"4d954b0ea243a5684a65b473","name":"Convenience Store","pluralName":"Convenience Stores","shortName":"Convenience Stores","icon":{"prefix":"https:\/\/foursquare.com\/img\/categories_v2\/shops\/conveniencestore_","suffix":".png"},"primary":true}],"verified":false,"stats":{"checkinsCount":64,"usersCount":17,"tipCount":0},"likes":{"count":0,"groups":[]},"specials":{"count":0,"items":[]},"hereNow":{"count":0,"groups":[]}},{"id":"4b6e4417f964a52023b52ce3","name":"ドラッグユタカ 宇治木幡店","contact":{},"location":{"lat":34.92582678794861,"lng":135.79607963562012,"country":"Japan"},"categories":[],"verified":false,"stats":{"checkinsCount":31,"usersCount":7,"tipCount":0},"likes":{"count":0,"groups":[]},"specials":{"count":0,"items":[]},"hereNow":{"count":0,"groups":[]}},{"id":"4b734b1df964a520d1a62de3","name":"ファミリーマート 宇治木幡店","contact":{"phone":"+81774381708","formattedPhone":"+81 774-38-1708"},"location":{"address":"木幡東中54","lat":34.92612747582344,"lng":135.79937875270844,"city":"宇治市","state":"京都府","country":"Japan"},"categories":[{"id":"4d954b0ea243a5684a65b473","name":"Convenience Store","pluralName":"Convenience Stores","shortName":"Convenience Stores","icon":{"prefix":"https:\/\/foursquare.com\/img\/categories_v2\/shops\/conveniencestore_","suffix":".png"},"primary":true}],"verified":false,"stats":{"checkinsCount":50,"usersCount":17,"tipCount":0},"likes":{"count":0,"groups":[]},"specials":{"count":0,"items":[]},"hereNow":{"count":0,"groups":[]}},{"id":"4da78e7443a12d0c263cbaab","name":"コルトバ","contact":{},"location":{"lat":34.925613,"lng":135.796074,"city":"Uji","state":"Kyoto Prefecture","country":"Japan"},"categories":[{"id":"4bf58dd8d48988d16d941735","name":"Café","pluralName":"Cafés","shortName":"Café","icon":{"prefix":"https:\/\/foursquare.com\/img\/categories_v2\/food\/cafe_","suffix":".png"},"primary":true}],"verified":false,"stats":{"checkinsCount":26,"usersCount":8,"tipCount":1},"likes":{"count":0,"groups":[]},"specials":{"count":0,"items":[]},"hereNow":{"count":0,"groups":[]}},{"id":"4dd9beb32271c5d36d74117e","name":"京都銀行 木幡支店","contact":{"phone":"+81774327111","formattedPhone":"+81 774-32-7111"},"location":{"address":"木幡内畑3-1","lat":34.9253544819502,"lng":135.79671800136566,"postalCode":"611-0002","city":"宇治市","state":"京都府","country":"Japan"},"categories":[{"id":"4bf58dd8d48988d10a951735","name":"Bank","pluralName":"Banks","shortName":"Bank \/ Financial","icon":{"prefix":"https:\/\/foursquare.com\/img\/categories_v2\/shops\/financial_","suffix":".png"},"primary":true}],"verified":false,"stats":{"checkinsCount":18,"usersCount":5,"tipCount":0},"likes":{"count":0,"groups":[]},"specials":{"count":0,"items":[]},"hereNow":{"count":0,"groups":[]}},{"id":"4ed9956377c8274efc3077f7","name":"木幡郵便局","contact":{},"location":{"lat":34.92487091524697,"lng":135.7972342683202,"country":"Japan"},"categories":[{"id":"4bf58dd8d48988d172941735","name":"Post Office","pluralName":"Post Offices","shortName":"Post Office","icon":{"prefix":"https:\/\/foursquare.com\/img\/categories_v2\/building\/postoffice_","suffix":".png"},"primary":true}],"verified":false,"stats":{"checkinsCount":39,"usersCount":4,"tipCount":0},"likes":{"count":0,"groups":[]},"specials":{"count":0,"items":[]},"hereNow":{"count":0,"groups":[]}},{"id":"4ddfab15ae60c015c09b782a","name":"food&bar gigio","contact":{},"location":{"lat":34.925425,"lng":135.7959508895874,"city":"宇治市","state":"京都府","country":"Japan"},"categories":[{"id":"4bf58dd8d48988d147941735","name":"Diner","pluralName":"Diners","shortName":"Diner","icon":{"prefix":"https:\/\/foursquare.com\/img\/categories_v2\/food\/diner_","suffix":".png"},"primary":true}],"verified":false,"stats":{"checkinsCount":32,"usersCount":3,"tipCount":0},"likes":{"count":0,"groups":[]},"specials":{"count":0,"items":[]},"hereNow":{"count":0,"groups":[]}},{"id":"4d4c9ad0cca5f04dcd808080","name":"宇治市立木幡保育所","contact":{},"location":{"lat":34.925647,"lng":135.796425,"country":"Japan"},"categories":[{"id":"4bf58dd8d48988d1a8941735","name":"General College & University","pluralName":"General Colleges & Universities","shortName":"Other - Education","icon":{"prefix":"https:\/\/foursquare.com\/img\/categories_v2\/education\/other_","suffix":".png"},"primary":true}],"verified":false,"stats":{"checkinsCount":5,"usersCount":2,"tipCount":0},"likes":{"count":0,"groups":[]},"specials":{"count":0,"items":[]},"hereNow":{"count":0,"groups":[]}},{"id":"4b6e444bf964a52035b52ce3","name":"ことぶきや","contact":{},"location":{"lat":34.92527861160435,"lng":135.79633712768555,"country":"Japan"},"categories":[],"verified":false,"stats":{"checkinsCount":41,"usersCount":2,"tipCount":0},"likes":{"count":0,"groups":[]},"specials":{"count":0,"items":[]},"hereNow":{"count":0,"groups":[]}},{"id":"4d48da3ff53c8cfadd051147","name":"許波多神社","contact":{},"location":{"address":"木幡東中1","lat":34.92679160699087,"lng":135.79889059066772,"city":"宇治市","state":"京都府","country":"Japan"},"categories":[{"id":"4eb1d80a4b900d56c88a45ff","name":"Shrine","pluralName":"Shrines","shortName":"Shrine","icon":{"prefix":"https:\/\/foursquare.com\/img\/categories_v2\/building\/religious_shrine_","suffix":".png"},"primary":true}],"verified":false,"stats":{"checkinsCount":35,"usersCount":27,"tipCount":1},"likes":{"count":0,"groups":[]},"specials":{"count":0,"items":[]},"hereNow":{"count":0,"groups":[]}},{"id":"4f3e25f8e4b02744e45c3aab","name":"京都中央信用金庫 木幡支店","contact":{},"location":{"lat":34.92553849368576,"lng":135.79719721444926,"country":"Japan"},"categories":[{"id":"4bf58dd8d48988d10a951735","name":"Bank","pluralName":"Banks","shortName":"Bank \/ Financial","icon":{"prefix":"https:\/\/foursquare.com\/img\/categories_v2\/shops\/financial_","suffix":".png"},"primary":true}],"verified":false,"stats":{"checkinsCount":8,"usersCount":1,"tipCount":0},"likes":{"count":0,"groups":[]},"specials":{"count":0,"items":[]},"hereNow":{"count":0,"groups":[]}},{"id":"4ee747a74fc654475f4aee5b","name":"宇治陵 36号","contact":{},"location":{"address":"木幡","lat":34.92683119079799,"lng":135.79831928014755,"city":"宇治市","state":"京都府","country":"Japan"},"categories":[{"id":"4bf58dd8d48988d15c941735","name":"Cemetery","pluralName":"Cemeteries","shortName":"Cemetery","icon":{"prefix":"https:\/\/foursquare.com\/img\/categories_v2\/parks_outdoors\/cemetery_","suffix":".png"},"primary":true}],"verified":false,"stats":{"checkinsCount":0,"usersCount":0,"tipCount":0},"likes":{"count":0,"groups":[]},"specials":{"count":0,"items":[]},"hereNow":{"count":0,"groups":[]}},{"id":"4d9b3ae58e3dd7ce1a5f5cfe","name":"宇治市立木幡中学校","contact":{"phone":"+81774399174","formattedPhone":"+81 774-39-9174"},"location":{"address":"木幡内畑34","lat":34.92522349187698,"lng":135.79898046459726,"postalCode":"611-0002","city":"宇治市","state":"京都府","country":"Japan"},"categories":[{"id":"4bf58dd8d48988d13b941735","name":"School","pluralName":"Schools","shortName":"School","icon":{"prefix":"https:\/\/foursquare.com\/img\/categories_v2\/building\/school_","suffix":".png"},"primary":true}],"verified":false,"stats":{"checkinsCount":3,"usersCount":2,"tipCount":0},"likes":{"count":0,"groups":[]},"specials":{"count":0,"items":[]},"hereNow":{"count":0,"groups":[]}},{"id":"4ee747e74fc654475f4af488","name":"宇治陵 37号","contact":{},"location":{"address":"木幡","lat":34.92457928163471,"lng":135.797588378191,"city":"宇治市","state":"京都府","country":"Japan"},"categories":[{"id":"4bf58dd8d48988d15c941735","name":"Cemetery","pluralName":"Cemeteries","shortName":"Cemetery","icon":{"prefix":"https:\/\/foursquare.com\/img\/categories_v2\/parks_outdoors\/cemetery_","suffix":".png"},"primary":true}],"verified":false,"stats":{"checkinsCount":0,"usersCount":0,"tipCount":0},"likes":{"count":0,"groups":[]},"specials":{"count":0,"items":[]},"hereNow":{"count":0,"groups":[]}}]}}
