{"meta":{"code":200},"response":{"venues":[{"id":"4c6658049cb82d7fc26e90d2","name":"中国料理 西海 城陽店","contact":{},"location":{"address":"日本","lat":34.85457693,"lng":135.77900965,"country":"Japan"},"categories":[{"id":"4bf58dd8d48988d145941735","name":"Chinese Restaurant","pluralName":"Chinese Restaurants","shortName":"Chinese","icon":{"prefix":"https:\/\/foursquare.com\/img\/categories_v2\/food\/chinese_","suffix":".png"},"primary":true}],"verified":false,"stats":{"checkinsCount":35,"usersCount":15,"tipCount":0},"likes":{"count":0,"groups":[]},"specials":{"count":0,"items":[]},"hereNow":{"count":0,"groups":[]}},{"id":"4e12c4a01f6e671dd9f37b3a","name":"城陽市立寺田小学校","contact":{},"location":{"address":"寺田北山田2","lat":34.85631097343035,"lng":135.7801902294159,"postalCode":"6100121","city":"城陽市","state":"京都府","country":"Japan"},"categories":[{"id":"4bf58dd8d48988d13b941735","name":"School","pluralName":"Schools","shortName":"School","icon":{"prefix":"https:\/\/foursquare.com\/img\/categories_v2\/building\/school_","suffix":".png"},"primary":true}],"verified":false,"stats":{"checkinsCount":29,"usersCount":4,"tipCount":0},"likes":{"count":0,"groups":[]},"specials":{"count":0,"items":[]},"hereNow":{"count":0,"groups":[]}},{"id":"4dcf90c61f6eb122709792bc","name":"寺田交番","contact":{"phone":"+81774533323","formattedPhone":"+81 774-53-3323"},"location":{"address":"寺田高田40-6","lat":34.8540285169156,"lng":135.7798147201538,"city":"城陽市","state":"京都府","country":"Japan"},"categories":[{"id":"4bf58dd8d48988d12e941735","name":"Police Station","pluralName":"Police Stations","shortName":"Police Station","icon":{"prefix":"https:\/\/foursquare.com\/img\/categories_v2\/building\/government_policestation_","suffix":".png"},"primary":true}],"verified":false,"stats":{"checkinsCount":75,"usersCount":3,"tipCount":0},"likes":{"count":0,"groups":[]},"specials":{"count":0,"items":[]},"hereNow":{"count":0,"groups":[]}},{"id":"4b628dd8f964a520364b2ae3","name":"城陽駅 (Joyo Sta.)","contact":{},"location":{"address":"寺田林ノ口7","lat":34.85612609020658,"lng":135.7807695865631,"city":"城陽市","state":"京都府","country":"Japan"},"categories":[{"id":"4bf58dd8d48988d129951735","name":"Train Station","pluralName":"Train Stations","shortName":"Train Station","icon":{"prefix":"https:\/\/foursquare.com\/img\/categories_v2\/travel\/trainstation_","suffix":".png"},"primary":true}],"verified":false,"stats":{"checkinsCount":643,"usersCount":125,"tipCount":3},"likes":{"count":0,"groups":[]},"specials":{"count":0,"items":[]},"hereNow":{"count":0,"groups":[]}},{"id":"4d19c362302da1cd7f70cc93","name":"創作和食DIVE","contact":{},"location":{"lat":34.854047983870096,"lng":135.77990082951592,"country":"Japan"},"categories":[],"verified":false,"stats":{"checkinsCount":2,"usersCount":2,"tipCount":0},"likes":{"count":0,"groups":[]},"specials":{"count":0,"items":[]},"hereNow":{"count":0,"groups":[]}},{"id":"4ea2a31c7ee52a35dcf7ffe7","name":"居酒屋将軍","contact":{},"location":{"lat":34.85438919067383,"lng":135.78201293945312,"country":"Japan"},"categories":[{"id":"4bf58dd8d48988d1f9941735","name":"Food & Drink Shop","pluralName":"Food & Drink Shops","shortName":"Food & Drink","icon":{"prefix":"https:\/\/foursquare.com\/img\/categories_v2\/shops\/foodanddrink_","suffix":".png"},"primary":true}],"verified":false,"stats":{"checkinsCount":1,"usersCount":1,"tipCount":0},"likes":{"count":0,"groups":[]},"specials":{"count":0,"items":[]},"hereNow":{"count":0,"groups":[]}},{"id":"4c9c3c380e9bb1f7f232d25f","name":"彩 レンタルスペース","contact":{},"location":{"lat":34.85414077035592,"lng":135.78223943710327,"city":"城陽市","state":"京都府","country":"Japan"},"categories":[{"id":"4bf58dd8d48988d1e2931735","name":"Art Gallery","pluralName":"Art Galleries","shortName":"Art Gallery","icon":{"prefix":"https:\/\/foursquare.com\/img\/categories_v2\/arts_entertainment\/artgallery_","suffix":".png"},"primary":true}],"verified":false,"stats":{"checkinsCount":1,"usersCount":1,"tipCount":0},"likes":{"count":0,"groups":[]},"specials":{"count":0,"items":[]},"hereNow":{"count":0,"groups":[]}},{"id":"4deb47b788774880e332c2a7","name":"マルマン酒店","contact":{},"location":{"address":"寺田北山田９２−４","lat":34.85691404201017,"lng":135.78047454357147,"city":"城陽市","state":"京都府","country":"Japan"},"categories":[{"id":"4bf58dd8d48988d186941735","name":"Liquor Store","pluralName":"Liquor Stores","shortName":"Liquor Store","icon":{"prefix":"https:\/\/foursquare.com\/img\/categories_v2\/shops\/food_liquor_","suffix":".png"},"primary":true}],"verified":false,"stats":{"checkinsCount":51,"usersCount":1,"tipCount":0},"likes":{"count":0,"groups":[]},"specials":{"count":0,"items":[]},"hereNow":{"count":0,"groups":[]}},{"id":"4dfdaf5c62846d918b989f29","name":"ベルジュバンス谷美容室","contact":{},"location":{"lat":34.856759,"lng":135.780151,"city":"Joyo","state":"Kyoto Prefecture","country":"Japan"},"categories":[{"id":"4bf58dd8d48988d110951735","name":"Salon \/ Barbershop","pluralName":"Salons \/ Barbershops","shortName":"Salon \/ Barbershop","icon":{"prefix":"https:\/\/foursquare.com\/img\/categories_v2\/shops\/salon_barber_","suffix":".png"},"primary":true}],"verified":false,"stats":{"checkinsCount":56,"usersCount":1,"tipCount":0},"likes":{"count":0,"groups":[]},"specials":{"count":0,"items":[]},"hereNow":{"count":0,"groups":[]}},{"id":"4ddccbfae4cdb993eab1fe83","name":"紙寅商店","contact":{},"location":{"lat":34.856725,"lng":135.780167,"city":"Joyo","state":"Kyoto Prefecture","country":"Japan"},"categories":[{"id":"4d4b7105d754a06378d81259","name":"Shop & Service","pluralName":"Shops & Services","shortName":"Shops","icon":{"prefix":"https:\/\/foursquare.com\/img\/categories_v2\/shops\/default_","suffix":".png"},"primary":true}],"verified":false,"stats":{"checkinsCount":11,"usersCount":1,"tipCount":0},"likes":{"count":0,"groups":[]},"specials":{"count":0,"items":[]},"hereNow":{"count":0,"groups":[]}},{"id":"4edb2de17ee5e8e3e7d31bc6","name":"ショップ 五里五里の里","contact":{},"location":{"address":"城陽市寺田北山田２７－７","lat":34.856413585112975,"lng":135.78058145225924,"city":"城陽市","state":"京都府","country":"Japan"},"categories":[{"id":"4d954b0ea243a5684a65b473","name":"Convenience Store","pluralName":"Convenience Stores","shortName":"Convenience Stores","icon":{"prefix":"https:\/\/foursquare.com\/img\/categories_v2\/shops\/conveniencestore_","suffix":".png"},"primary":true}],"verified":false,"stats":{"checkinsCount":13,"usersCount":3,"tipCount":1},"likes":{"count":0,"groups":[]},"specials":{"count":0,"items":[]},"hereNow":{"count":0,"groups":[]}},{"id":"4f3d922ce4b02787b33ed453","name":"丸亀製麺 城陽店","contact":{},"location":{"address":"寺田高田35","lat":34.8537165408896,"lng":135.77997491043197,"city":"城陽市","state":"京都府","country":"Japan"},"categories":[{"id":"4bf58dd8d48988d1d1941735","name":"Ramen \/  Noodle House","pluralName":"Ramen \/  Noodle House","shortName":"Ramen \/ Noodles","icon":{"prefix":"https:\/\/foursquare.com\/img\/categories_v2\/food\/ramen_","suffix":".png"},"primary":true}],"verified":false,"stats":{"checkinsCount":76,"usersCount":11,"tipCount":0},"likes":{"count":0,"groups":[]},"specials":{"count":0,"items":[]},"hereNow":{"count":0,"groups":[]}},{"id":"4df44128483bdb5e13775fbb","name":"グリル北川","contact":{"phone":"+81774527201","formattedPhone":"+81 774-52-7201"},"location":{"address":"寺田水度坂131","lat":34.85437408093795,"lng":135.78093588352203,"city":"城陽市","state":"京都府","country":"Japan"},"categories":[{"id":"4bf58dd8d48988d1c4941735","name":"Restaurant","pluralName":"Restaurants","shortName":"Other - Food","icon":{"prefix":"https:\/\/foursquare.com\/img\/categories_v2\/food\/default_","suffix":".png"},"primary":true}],"verified":false,"stats":{"checkinsCount":199,"usersCount":1,"tipCount":1},"likes":{"count":0,"groups":[]},"specials":{"count":0,"items":[]},"hereNow":{"count":0,"groups":[]}},{"id":"4ecb8dedd3e32939cd769c0d","name":"ＣＫミュージックコンサルタント","contact":{},"location":{"lat":34.85634141352056,"lng":135.78074350672472,"city":"城陽市","state":"京都府","country":"Japan"},"categories":[{"id":"4bf58dd8d48988d1e5931735","name":"Music Venue","pluralName":"Music Venues","shortName":"Music Venue","icon":{"prefix":"https:\/\/foursquare.com\/img\/categories_v2\/arts_entertainment\/musicvenue_","suffix":".png"},"primary":true}],"verified":false,"stats":{"checkinsCount":3,"usersCount":2,"tipCount":0},"likes":{"count":0,"groups":[]},"specials":{"count":0,"items":[]},"hereNow":{"count":0,"groups":[]}},{"id":"4e8d8b8e93adeeb4cda58a1c","name":"京寿司 都人 城陽店","contact":{"phone":"+81774582038","formattedPhone":"+81 774-58-2038"},"location":{"address":"寺田5","crossStreet":"薮田ビル1F","lat":34.856558,"lng":135.780641,"postalCode":"6100121","city":"城陽市","state":"京都府","country":"Japan"},"categories":[{"id":"4bf58dd8d48988d1d2941735","name":"Sushi Restaurant","pluralName":"Sushi Restaurants","shortName":"Sushi","icon":{"prefix":"https:\/\/foursquare.com\/img\/categories_v2\/food\/sushi_","suffix":".png"},"primary":true}],"verified":false,"stats":{"checkinsCount":8,"usersCount":3,"tipCount":0},"likes":{"count":0,"groups":[]},"specials":{"count":0,"items":[]},"hereNow":{"count":0,"groups":[]}},{"id":"4e7317881f6eaf402b93a628","name":"ファッションハウス ソレイユ","contact":{},"location":{"lat":34.85485202978866,"lng":135.78171121484905,"country":"Japan"},"categories":[{"id":"4bf58dd8d48988d104951735","name":"Boutique","pluralName":"Boutiques","shortName":"Boutique","icon":{"prefix":"https:\/\/foursquare.com\/img\/categories_v2\/shops\/apparel_boutique_","suffix":".png"},"primary":true}],"verified":false,"stats":{"checkinsCount":20,"usersCount":1,"tipCount":0},"likes":{"count":0,"groups":[]},"specials":{"count":0,"items":[]},"hereNow":{"count":0,"groups":[]}},{"id":"4e7318a952b145ffbf672f41","name":"ユリ写真館","contact":{"phone":"+81774522158","formattedPhone":"+81 774-52-2158"},"location":{"address":"寺田高田23-9","lat":34.85430804970829,"lng":135.7803162932396,"postalCode":"610-0121","city":"城陽市","state":"京都府","country":"Japan"},"categories":[{"id":"4bf58dd8d48988d1f4941735","name":"Design Studio","pluralName":"Design Studios","shortName":"Design","icon":{"prefix":"https:\/\/foursquare.com\/img\/categories_v2\/shops\/design_","suffix":".png"},"primary":true}],"verified":false,"stats":{"checkinsCount":116,"usersCount":4,"tipCount":0},"likes":{"count":0,"groups":[]},"specials":{"count":0,"items":[]},"hereNow":{"count":0,"groups":[]}},{"id":"4f1cb044e4b0e2eeeca90c6b","name":"おくだ歯科医院","contact":{},"location":{"lat":34.85454404357602,"lng":135.7803562070196,"country":"Japan"},"categories":[],"verified":false,"stats":{"checkinsCount":1,"usersCount":1,"tipCount":0},"likes":{"count":0,"groups":[]},"specials":{"count":0,"items":[]},"hereNow":{"count":0,"groups":[]}},{"id":"4d9be05cad3bf04da71127a2","name":"京都城陽珈琲店","contact":{"phone":"+81774536122","formattedPhone":"+81 774-53-6122"},"location":{"address":"寺田高田33","lat":34.85377414,"lng":135.78015057,"postalCode":"6100121","city":"城陽市","state":"京都府","country":"Japan"},"categories":[{"id":"4bf58dd8d48988d16d941735","name":"Café","pluralName":"Cafés","shortName":"Café","icon":{"prefix":"https:\/\/foursquare.com\/img\/categories_v2\/food\/cafe_","suffix":".png"},"primary":true}],"verified":false,"stats":{"checkinsCount":50,"usersCount":5,"tipCount":0},"likes":{"count":0,"groups":[]},"specials":{"count":0,"items":[]},"hereNow":{"count":0,"groups":[]}},{"id":"4df30e1745dd4e26933f7358","name":"夜叉ばあさんのムクノキ","contact":{},"location":{"lat":34.853757,"lng":135.781178,"city":"Joyo","state":"Kyoto Prefecture","country":"Japan"},"categories":[{"id":"4bf58dd8d48988d15c941735","name":"Cemetery","pluralName":"Cemeteries","shortName":"Cemetery","icon":{"prefix":"https:\/\/foursquare.com\/img\/categories_v2\/parks_outdoors\/cemetery_","suffix":".png"},"primary":true}],"verified":false,"stats":{"checkinsCount":53,"usersCount":7,"tipCount":0},"likes":{"count":0,"groups":[]},"specials":{"count":0,"items":[]},"hereNow":{"count":0,"groups":[]}},{"id":"4b9f801af964a520eb2637e3","name":"ほそかわ城陽店","contact":{},"location":{"lat":34.854485392570496,"lng":135.78027069568634,"country":"Japan"},"categories":[{"id":"4bf58dd8d48988d1d1941735","name":"Ramen \/  Noodle House","pluralName":"Ramen \/  Noodle House","shortName":"Ramen \/ Noodles","icon":{"prefix":"https:\/\/foursquare.com\/img\/categories_v2\/food\/ramen_","suffix":".png"},"primary":true}],"verified":false,"stats":{"checkinsCount":10,"usersCount":7,"tipCount":0},"likes":{"count":0,"groups":[]},"specials":{"count":0,"items":[]},"hereNow":{"count":0,"groups":[]}},{"id":"4dc1127e22713750ba741b9d","name":"ESSO Express ペガサス城陽SS","contact":{"phone":"+81774528966","formattedPhone":"+81 774-52-8966"},"location":{"address":"寺田高田42","lat":34.854243,"lng":135.779476,"city":"城陽市","state":"京都府","country":"Japan"},"categories":[{"id":"4bf58dd8d48988d113951735","name":"Gas Station \/ Garage","pluralName":"Gas Stations \/ Garages","shortName":"Gas Station \/ Garage","icon":{"prefix":"https:\/\/foursquare.com\/img\/categories_v2\/shops\/gas_","suffix":".png"},"primary":true}],"verified":false,"stats":{"checkinsCount":28,"usersCount":4,"tipCount":0},"likes":{"count":0,"groups":[]},"specials":{"count":0,"items":[]},"hereNow":{"count":0,"groups":[]}},{"id":"4dfd37e7227185f38b97c0c1","name":"城陽模型","contact":{"phone":"+81774522415","formattedPhone":"+81 774-52-2415"},"location":{"address":"寺田高田40-9","lat":34.85427283303077,"lng":135.78015804290771,"postalCode":"610-0121","city":"城陽市","state":"京都府","country":"Japan"},"categories":[{"id":"4bf58dd8d48988d1fb941735","name":"Hobby Shop","pluralName":"Hobby Shops","shortName":"Hobbies","icon":{"prefix":"https:\/\/foursquare.com\/img\/categories_v2\/shops\/hobbyshop_","suffix":".png"},"primary":true}],"verified":false,"stats":{"checkinsCount":63,"usersCount":4,"tipCount":0},"url":"http:\/\/www.joyomokei.com","likes":{"count":0,"groups":[]},"specials":{"count":0,"items":[]},"hereNow":{"count":0,"groups":[]}},{"id":"4e682b20fa768a5e3cc0739b","name":"南都銀行 城陽支店","contact":{"phone":"+81774522821","formattedPhone":"+81 774-52-2821"},"location":{"address":"寺田袋尻7-1","lat":34.85329996635473,"lng":135.78048527240753,"postalCode":"6100121","city":"城陽市","state":"京都府","country":"Japan"},"categories":[{"id":"4bf58dd8d48988d10a951735","name":"Bank","pluralName":"Banks","shortName":"Bank \/ Financial","icon":{"prefix":"https:\/\/foursquare.com\/img\/categories_v2\/shops\/financial_","suffix":".png"},"primary":true}],"verified":false,"stats":{"checkinsCount":10,"usersCount":3,"tipCount":0},"likes":{"count":0,"groups":[]},"specials":{"count":0,"items":[]},"hereNow":{"count":0,"groups":[]}},{"id":"4cb83fc343ec6dcb35969331","name":"ゴールデンスター","contact":{},"location":{"lat":34.854353,"lng":135.780768,"country":"Japan"},"categories":[],"verified":false,"stats":{"checkinsCount":1,"usersCount":1,"tipCount":0},"likes":{"count":0,"groups":[]},"specials":{"count":0,"items":[]},"hereNow":{"count":0,"groups":[]}},{"id":"4bb6b2071344b7134af79d04","name":"小上海 シェル","contact":{},"location":{"lat":34.8539029,"lng":135.7800336,"country":"Japan"},"categories":[],"verified":false,"stats":{"checkinsCount":2,"usersCount":2,"tipCount":0},"likes":{"count":0,"groups":[]},"specials":{"count":0,"items":[]},"hereNow":{"count":0,"groups":[]}},{"id":"4dc112171f6e7441cf4507e3","name":"ペガサス","contact":{},"location":{"lat":34.854243,"lng":135.779476,"country":"Japan"},"categories":[],"verified":false,"stats":{"checkinsCount":0,"usersCount":0,"tipCount":0},"likes":{"count":0,"groups":[]},"specials":{"count":0,"items":[]},"hereNow":{"count":0,"groups":[]}}]}}
