{"meta":{"code":200},"response":{"venues":[{"id":"4e9bbd2a5c5ce9b9836b5f3f","name":"関西電力 伏見営業所","contact":{},"location":{"lat":34.933982849121094,"lng":135.75843811035156,"country":"Japan"},"categories":[{"id":"4bf58dd8d48988d130941735","name":"Building","pluralName":"Buildings","shortName":"Other - Buildings","icon":{"prefix":"https:\/\/foursquare.com\/img\/categories_v2\/building\/default_","suffix":".png"},"primary":true}],"verified":false,"stats":{"checkinsCount":6,"usersCount":4,"tipCount":0},"likes":{"count":0,"groups":[]},"specials":{"count":0,"items":[]},"hereNow":{"count":0,"groups":[]}},{"id":"4ba82ed3f964a520f0cf39e3","name":"餃子の店 冨士","contact":{},"location":{"lat":34.935349,"lng":135.757202,"country":"Japan"},"categories":[{"id":"4bf58dd8d48988d145941735","name":"Chinese Restaurant","pluralName":"Chinese Restaurants","shortName":"Chinese","icon":{"prefix":"https:\/\/foursquare.com\/img\/categories_v2\/food\/chinese_","suffix":".png"},"primary":true}],"verified":false,"stats":{"checkinsCount":8,"usersCount":5,"tipCount":1},"likes":{"count":0,"groups":[]},"specials":{"count":0,"items":[]},"hereNow":{"count":0,"groups":[]}},{"id":"4ea7b8e7d3e33e1d4f0ef8bc","name":"ハローワーク伏見","contact":{"phone":"+81756028609","formattedPhone":"+81 75-602-8609"},"location":{"address":"風呂屋町232","lat":34.934893,"lng":135.75969,"postalCode":"612-8058","city":"京都市伏見区","state":"京都府","country":"Japan"},"categories":[{"id":"4bf58dd8d48988d126941735","name":"Government Building","pluralName":"Government Buildings","shortName":"Government","icon":{"prefix":"https:\/\/foursquare.com\/img\/categories_v2\/building\/government_","suffix":".png"},"primary":true}],"verified":false,"stats":{"checkinsCount":13,"usersCount":9,"tipCount":0},"likes":{"count":0,"groups":[]},"specials":{"count":0,"items":[]},"hereNow":{"count":0,"groups":[]}},{"id":"4de8b9ba227148fcea35a932","name":"Ameiro","contact":{"phone":"+81756032282","formattedPhone":"+81 75-603-2282"},"location":{"address":"伏見区肥後町385-16","lat":34.935452,"lng":135.758107,"city":"Kyoto","state":"Kyoto Prefecture","country":"Japan"},"categories":[{"id":"4bf58dd8d48988d116951735","name":"Antique Shop","pluralName":"Antique Shops","shortName":"Antiques","icon":{"prefix":"https:\/\/foursquare.com\/img\/categories_v2\/shops\/antique_","suffix":".png"},"primary":true}],"verified":false,"stats":{"checkinsCount":3,"usersCount":2,"tipCount":0},"likes":{"count":0,"groups":[]},"specials":{"count":0,"items":[]},"hereNow":{"count":0,"groups":[]}},{"id":"4f3839230cd697b1c8eb36a3","name":"肥後町 バス停","contact":{},"location":{"address":"伏見区 肥後町・西町","crossStreet":"市バス81・特81系統","lat":34.93610646968832,"lng":135.75849384069443,"city":"京都市","state":"京都府","country":"Japan"},"categories":[{"id":"4bf58dd8d48988d1fe931735","name":"Bus Station","pluralName":"Bus Stations","shortName":"Bus Station","icon":{"prefix":"https:\/\/foursquare.com\/img\/categories_v2\/travel\/busstation_","suffix":".png"},"primary":true}],"verified":false,"stats":{"checkinsCount":0,"usersCount":0,"tipCount":0},"likes":{"count":0,"groups":[]},"specials":{"count":0,"items":[]},"hereNow":{"count":0,"groups":[]}},{"id":"4d52138cc305b60c0edc961e","name":"ほっかほっか亭 西大手筋店","contact":{"phone":"+81756216866","formattedPhone":"+81 75-621-6866"},"location":{"address":"片原町296-1","crossStreet":"若由ビル","lat":34.934642,"lng":135.758443,"city":"京都市伏見区","state":"京都府","country":"Japan"},"categories":[{"id":"4bf58dd8d48988d146941735","name":"Deli\/Bodega","pluralName":"Delis\/Bodegas","shortName":"Deli \/ Bodega","icon":{"prefix":"https:\/\/foursquare.com\/img\/categories_v2\/food\/deli_","suffix":".png"},"primary":true}],"verified":false,"stats":{"checkinsCount":8,"usersCount":4,"tipCount":0},"likes":{"count":0,"groups":[]},"specials":{"count":0,"items":[]},"hereNow":{"count":0,"groups":[]}},{"id":"4eccd7a461af1f8ac3d1e9d5","name":"Cotelette 洋食屋コートレット","contact":{"phone":"+81756115155","formattedPhone":"+81 75-611-5155"},"location":{"address":"伏見区片原町296-1","lat":34.934718,"lng":135.75856,"city":"京都市","state":"京都府","country":"Japan"},"categories":[{"id":"4bf58dd8d48988d1cc941735","name":"Steakhouse","pluralName":"Steakhouses","shortName":"Steakhouse","icon":{"prefix":"https:\/\/foursquare.com\/img\/categories_v2\/food\/steakhouse_","suffix":".png"},"primary":true}],"verified":false,"stats":{"checkinsCount":15,"usersCount":8,"tipCount":0},"likes":{"count":0,"groups":[]},"specials":{"count":0,"items":[]},"hereNow":{"count":0,"groups":[]}},{"id":"4bd81df235aad13a701690f3","name":"BAR EARTH","contact":{},"location":{"lat":34.934921,"lng":135.758499,"country":"Japan"},"categories":[{"id":"4bf58dd8d48988d116941735","name":"Bar","pluralName":"Bars","shortName":"Bar","icon":{"prefix":"https:\/\/foursquare.com\/img\/categories_v2\/nightlife\/bar_","suffix":".png"},"primary":true}],"verified":false,"stats":{"checkinsCount":3,"usersCount":2,"tipCount":0},"likes":{"count":0,"groups":[]},"specials":{"count":0,"items":[]},"hereNow":{"count":0,"groups":[]}}]}}
