{"meta":{"code":200},"response":{"venues":[{"id":"4b580941f964a520544928e3","name":"京阪 丹波橋駅 (Tambabashi Sta.)","contact":{"phone":"+81756110869","formattedPhone":"+81 75-611-0869"},"location":{"address":"伏見区桃山筒井伊賀西町15","lat":34.93874792133662,"lng":135.76536004800417,"postalCode":"612-0073","city":"京都市","state":"京都府","country":"Japan"},"categories":[{"id":"4bf58dd8d48988d129951735","name":"Train Station","pluralName":"Train Stations","shortName":"Train Station","icon":{"prefix":"https:\/\/foursquare.com\/img\/categories_v2\/travel\/trainstation_","suffix":".png"},"primary":true}],"verified":false,"stats":{"checkinsCount":5293,"usersCount":1359,"tipCount":5},"likes":{"count":0,"groups":[]},"specials":{"count":0,"items":[]},"hereNow":{"count":0,"groups":[]}},{"id":"4bb98c2798c7ef3b982d3202","name":"京都市呉竹文化センター","contact":{"phone":"+81756032463","formattedPhone":"+81 75-603-2463"},"location":{"address":"京町南7-35-1","lat":34.93829649628441,"lng":135.76460123062134,"postalCode":"612-8085","city":"京都市伏見区","state":"京都府","country":"Japan"},"categories":[{"id":"4bf58dd8d48988d1a2941735","name":"Community College","pluralName":"Community Colleges","shortName":"Community College","icon":{"prefix":"https:\/\/foursquare.com\/img\/categories_v2\/education\/communitycollege_","suffix":".png"},"primary":true}],"verified":false,"stats":{"checkinsCount":40,"usersCount":29,"tipCount":0},"likes":{"count":0,"groups":[]},"specials":{"count":0,"items":[]},"hereNow":{"count":0,"groups":[]}},{"id":"4f114fdde4b0d59e1fd86ceb","name":"hokkaido 高田屋","contact":{},"location":{"address":"伏見区東組町698","lat":34.938179840949886,"lng":135.76347622795618,"country":"Japan"},"categories":[{"id":"4bf58dd8d48988d111941735","name":"Japanese Restaurant","pluralName":"Japanese Restaurants","shortName":"Japanese","icon":{"prefix":"https:\/\/foursquare.com\/img\/categories_v2\/food\/japanese_","suffix":".png"},"primary":true}],"verified":false,"stats":{"checkinsCount":5,"usersCount":4,"tipCount":0},"likes":{"count":0,"groups":[]},"specials":{"count":0,"items":[]},"hereNow":{"count":0,"groups":[]}},{"id":"4bda27f8ffafd13a6ffd9a85","name":"Be fine HEAD SHOP","contact":{"phone":"+81756126439","formattedPhone":"+81 75-612-6439"},"location":{"address":"京町北7-1-4","lat":34.9399529846401,"lng":135.7653679673219,"postalCode":"612-8086","city":"京都市伏見区","state":"京都府","country":"Japan"},"categories":[{"id":"4bf58dd8d48988d110951735","name":"Salon \/ Barbershop","pluralName":"Salons \/ Barbershops","shortName":"Salon \/ Barbershop","icon":{"prefix":"https:\/\/foursquare.com\/img\/categories_v2\/shops\/salon_barber_","suffix":".png"},"primary":true}],"verified":false,"stats":{"checkinsCount":5,"usersCount":3,"tipCount":0},"likes":{"count":0,"groups":[]},"specials":{"count":0,"items":[]},"hereNow":{"count":0,"groups":[]}},{"id":"4e2672442271e4f307581b61","name":"竹藤魚店","contact":{},"location":{"lat":34.939843237274154,"lng":135.7630828105635,"city":"京都市","state":"京都府","country":"Japan"},"categories":[{"id":"4d4b7105d754a06374d81259","name":"Food","pluralName":"Food","shortName":"Food","icon":{"prefix":"https:\/\/foursquare.com\/img\/categories_v2\/food\/default_","suffix":".png"},"primary":true}],"verified":false,"stats":{"checkinsCount":13,"usersCount":2,"tipCount":0},"likes":{"count":0,"groups":[]},"specials":{"count":0,"items":[]},"hereNow":{"count":0,"groups":[]}},{"id":"4d01ef6d3c89b60cf00f648f","name":"my Home","contact":{},"location":{"isFuzzed":true,"lat":34.94359343136303,"lng":135.7663158721512,"city":"Kyoto","state":"Japan","country":"Japan"},"categories":[{"id":"4bf58dd8d48988d103941735","name":"Home (private)","pluralName":"Homes (private)","shortName":"Home","icon":{"prefix":"https:\/\/foursquare.com\/img\/categories_v2\/building\/home_","suffix":".png"},"primary":true}],"verified":false,"stats":{"checkinsCount":7,"usersCount":1,"tipCount":0},"likes":{"count":0,"groups":[]},"hereNow":{"count":0,"groups":[]}},{"id":"4e1ecd5718a813a4dac32d66","name":"Bakery & Cafe CASCADE","contact":{},"location":{"address":"桃山筒井伊賀西町","lat":34.93871558407275,"lng":135.7653137616071,"city":"京都市伏見区","state":"京都府","country":"Japan"},"categories":[{"id":"4bf58dd8d48988d16a941735","name":"Bakery","pluralName":"Bakeries","shortName":"Bakery","icon":{"prefix":"https:\/\/foursquare.com\/img\/categories_v2\/food\/bakery_","suffix":".png"},"primary":true}],"verified":false,"stats":{"checkinsCount":39,"usersCount":15,"tipCount":0},"likes":{"count":0,"groups":[]},"specials":{"count":0,"items":[]},"hereNow":{"count":0,"groups":[]}},{"id":"4d990f049079b1f7f8ca3a0a","name":"斎藤耳鼻咽喉科","contact":{},"location":{"lat":34.938493,"lng":135.765405,"country":"Japan"},"categories":[{"id":"4bf58dd8d48988d104941735","name":"Medical Center","pluralName":"Medical Centers","shortName":"Medical","icon":{"prefix":"https:\/\/foursquare.com\/img\/categories_v2\/building\/medical_","suffix":".png"},"primary":true}],"verified":false,"stats":{"checkinsCount":3,"usersCount":2,"tipCount":0},"likes":{"count":0,"groups":[]},"specials":{"count":0,"items":[]},"hereNow":{"count":0,"groups":[]}},{"id":"4e994bb661af89f39e262810","name":"朝日理容","contact":{},"location":{"lat":34.938626,"lng":135.764278,"country":"Japan"},"categories":[{"id":"4bf58dd8d48988d110951735","name":"Salon \/ Barbershop","pluralName":"Salons \/ Barbershops","shortName":"Salon \/ Barbershop","icon":{"prefix":"https:\/\/foursquare.com\/img\/categories_v2\/shops\/salon_barber_","suffix":".png"},"primary":true}],"verified":false,"stats":{"checkinsCount":3,"usersCount":2,"tipCount":0},"likes":{"count":0,"groups":[]},"specials":{"count":0,"items":[]},"hereNow":{"count":0,"groups":[]}},{"id":"4efc27ec49017b4da56a893d","name":"理容朝日","contact":{},"location":{"address":"京町南7丁目","lat":34.938681,"lng":135.764222,"city":"京都市伏見区","state":"京都府","country":"Japan"},"categories":[{"id":"4bf58dd8d48988d130941735","name":"Building","pluralName":"Buildings","shortName":"Other - Buildings","icon":{"prefix":"https:\/\/foursquare.com\/img\/categories_v2\/building\/default_","suffix":".png"},"primary":true}],"verified":false,"stats":{"checkinsCount":1,"usersCount":1,"tipCount":0},"likes":{"count":0,"groups":[]},"specials":{"count":0,"items":[]},"hereNow":{"count":0,"groups":[]}},{"id":"4dcc82eb7d8b40eeff1add64","name":"勝念寺","contact":{},"location":{"address":"伏見区石屋町521","lat":34.93952,"lng":135.764982,"city":"京都市","state":"京都府","country":"Japan"},"categories":[{"id":"4bf58dd8d48988d13a941735","name":"Temple","pluralName":"Temples","shortName":"Temple","icon":{"prefix":"https:\/\/foursquare.com\/img\/categories_v2\/building\/religious_temple_","suffix":".png"},"primary":true}],"verified":false,"stats":{"checkinsCount":9,"usersCount":2,"tipCount":0},"likes":{"count":0,"groups":[]},"specials":{"count":0,"items":[]},"hereNow":{"count":0,"groups":[]}},{"id":"4f3c9203e4b0d8b9d9dd88be","name":"京都商工会議所 洛南支部","contact":{},"location":{"lat":34.938720703125,"lng":135.76475524902344,"country":"Japan"},"categories":[{"id":"4bf58dd8d48988d127941735","name":"Conference Room","pluralName":"Conference Rooms","shortName":"Conference room","icon":{"prefix":"https:\/\/foursquare.com\/img\/categories_v2\/building\/office_conferenceroom_","suffix":".png"},"primary":true}],"verified":false,"stats":{"checkinsCount":2,"usersCount":1,"tipCount":0},"likes":{"count":0,"groups":[]},"hereNow":{"count":0,"groups":[]}},{"id":"4dd4c436b0fb7a332e7103e0","name":"呉竹文化センター","contact":{},"location":{"lat":34.93857255073979,"lng":135.76494347204857,"city":"Kyoto","state":"Kyoto Prefecture","country":"Japan"},"categories":[{"id":"4bf58dd8d48988d1e5931735","name":"Music Venue","pluralName":"Music Venues","shortName":"Music Venue","icon":{"prefix":"https:\/\/foursquare.com\/img\/categories_v2\/arts_entertainment\/musicvenue_","suffix":".png"},"primary":true}],"verified":false,"stats":{"checkinsCount":4,"usersCount":4,"tipCount":0},"likes":{"count":0,"groups":[]},"specials":{"count":0,"items":[]},"hereNow":{"count":0,"groups":[]}},{"id":"4e1e7a08b61cc42aee39f22f","name":"伏見京町北郵便局","contact":{},"location":{"address":"京町南8-94-1","lat":34.94046403273838,"lng":135.76505270055964,"city":"京都市伏見区","state":"京都府","country":"Japan"},"categories":[{"id":"4bf58dd8d48988d172941735","name":"Post Office","pluralName":"Post Offices","shortName":"Post Office","icon":{"prefix":"https:\/\/foursquare.com\/img\/categories_v2\/building\/postoffice_","suffix":".png"},"primary":true}],"verified":false,"stats":{"checkinsCount":19,"usersCount":4,"tipCount":2},"likes":{"count":0,"groups":[]},"specials":{"count":0,"items":[]},"hereNow":{"count":0,"groups":[]}},{"id":"4dcc842e45ddbe15f85a570d","name":"若林春和堂書店","contact":{},"location":{"address":"伏見区京町南8-101-3","lat":34.939393459901225,"lng":135.76536930528897,"city":"京都市","state":"京都府","country":"Japan"},"categories":[{"id":"4bf58dd8d48988d114951735","name":"Bookstore","pluralName":"Bookstores","shortName":"Bookstore","icon":{"prefix":"https:\/\/foursquare.com\/img\/categories_v2\/shops\/bookstore_","suffix":".png"},"primary":true}],"verified":false,"stats":{"checkinsCount":32,"usersCount":2,"tipCount":0},"likes":{"count":0,"groups":[]},"specials":{"count":0,"items":[]},"hereNow":{"count":0,"groups":[]}},{"id":"4dcc83d37d8b40eeff1af74d","name":"セブンイレブン 京都丹波橋駅西店","contact":{"phone":"+81756015607","formattedPhone":"+81 75-601-5607"},"location":{"address":"伏見区京町北7-13-1","lat":34.939774071552414,"lng":135.7647004723549,"postalCode":"612-8086","city":"京都市","state":"京都府","country":"Japan"},"categories":[{"id":"4d954b0ea243a5684a65b473","name":"Convenience Store","pluralName":"Convenience Stores","shortName":"Convenience Stores","icon":{"prefix":"https:\/\/foursquare.com\/img\/categories_v2\/shops\/conveniencestore_","suffix":".png"},"primary":true}],"verified":false,"stats":{"checkinsCount":82,"usersCount":15,"tipCount":0},"likes":{"count":0,"groups":[]},"specials":{"count":0,"items":[]},"hereNow":{"count":0,"groups":[]}},{"id":"4dd342e7d16451f0c6c9675a","name":"丹波橋踏切","contact":{},"location":{"lat":34.93973327353571,"lng":135.76546187823595,"country":"Japan"},"categories":[{"id":"4bf58dd8d48988d12a951735","name":"Train","pluralName":"Trains","shortName":"Train","icon":{"prefix":"https:\/\/foursquare.com\/img\/categories_v2\/travel\/trainstation_","suffix":".png"},"primary":true}],"verified":false,"stats":{"checkinsCount":38,"usersCount":13,"tipCount":0},"likes":{"count":0,"groups":[]},"specials":{"count":0,"items":[]},"hereNow":{"count":0,"groups":[]}},{"id":"4efaa27bbe7bb47850791818","name":"松永医院","contact":{},"location":{"address":"新町10丁目364","lat":34.93944136637865,"lng":135.76529524706086,"city":"京都市伏見区","state":"京都府","country":"Japan"},"categories":[{"id":"4bf58dd8d48988d196941735","name":"Hospital","pluralName":"Hospitals","shortName":"Hospital","icon":{"prefix":"https:\/\/foursquare.com\/img\/categories_v2\/building\/medical_hospital_","suffix":".png"},"primary":true}],"verified":false,"stats":{"checkinsCount":3,"usersCount":2,"tipCount":0},"likes":{"count":0,"groups":[]},"specials":{"count":0,"items":[]},"hereNow":{"count":0,"groups":[]}},{"id":"4bede531e24d20a13b317214","name":"ゲベッケン 丹波橋店","contact":{},"location":{"address":"両替町10-223-1","lat":34.93977627030529,"lng":135.7642364501953,"city":"京都市伏見区","state":"京都府","country":"Japan"},"categories":[{"id":"4bf58dd8d48988d16a941735","name":"Bakery","pluralName":"Bakeries","shortName":"Bakery","icon":{"prefix":"https:\/\/foursquare.com\/img\/categories_v2\/food\/bakery_","suffix":".png"},"primary":true}],"verified":false,"stats":{"checkinsCount":11,"usersCount":7,"tipCount":0},"likes":{"count":0,"groups":[]},"specials":{"count":0,"items":[]},"hereNow":{"count":0,"groups":[]}},{"id":"4e92a7ca29c27df468c73c93","name":"浜学園 京阪丹波橋教室","contact":{},"location":{"address":"桃山筒井伊賀西町17-5","crossStreet":"京阪丹波橋東ビル","lat":34.939822,"lng":135.764871,"city":"京都市伏見区","state":"京都府","country":"Japan"},"categories":[{"id":"4bf58dd8d48988d13b941735","name":"School","pluralName":"Schools","shortName":"School","icon":{"prefix":"https:\/\/foursquare.com\/img\/categories_v2\/building\/school_","suffix":".png"},"primary":true}],"verified":false,"stats":{"checkinsCount":2,"usersCount":2,"tipCount":0},"likes":{"count":0,"groups":[]},"specials":{"count":0,"items":[]},"hereNow":{"count":0,"groups":[]}},{"id":"4efaa5ef6c25c411ee1fe8b5","name":"宮田眼科医院","contact":{},"location":{"address":"伏見区新町10-364-4","lat":34.939421203432175,"lng":135.76534616208033,"city":"京都市","state":"京都府","country":"Japan"},"categories":[{"id":"4bf58dd8d48988d196941735","name":"Hospital","pluralName":"Hospitals","shortName":"Hospital","icon":{"prefix":"https:\/\/foursquare.com\/img\/categories_v2\/building\/medical_hospital_","suffix":".png"},"primary":true}],"verified":false,"stats":{"checkinsCount":2,"usersCount":1,"tipCount":0},"likes":{"count":0,"groups":[]},"specials":{"count":0,"items":[]},"hereNow":{"count":0,"groups":[]}},{"id":"4e5ae374a8098920b3d23530","name":"あゆみ薬局 丹波橋店","contact":{},"location":{"lat":34.939745,"lng":135.764927,"country":"Japan"},"categories":[{"id":"4bf58dd8d48988d104941735","name":"Medical Center","pluralName":"Medical Centers","shortName":"Medical","icon":{"prefix":"https:\/\/foursquare.com\/img\/categories_v2\/building\/medical_","suffix":".png"},"primary":true}],"verified":false,"stats":{"checkinsCount":1,"usersCount":1,"tipCount":0},"likes":{"count":0,"groups":[]},"specials":{"count":0,"items":[]},"hereNow":{"count":0,"groups":[]}},{"id":"4ee89981991154b31c4101c5","name":"ゼニヤ薬局","contact":{},"location":{"address":"京都市伏見区","lat":34.93985463306355,"lng":135.76434638619463,"country":"Japan"},"categories":[{"id":"4bf58dd8d48988d10f951735","name":"Drugstore \/ Pharmacy","pluralName":"Drugstores \/ Pharmacies","shortName":"Pharmacy","icon":{"prefix":"https:\/\/foursquare.com\/img\/categories_v2\/shops\/pharmacy_","suffix":".png"},"primary":true}],"verified":false,"stats":{"checkinsCount":1,"usersCount":1,"tipCount":0},"likes":{"count":0,"groups":[]},"specials":{"count":0,"items":[]},"hereNow":{"count":0,"groups":[]}},{"id":"4f3df191e4b0638153012442","name":"御駕篭郵便局","contact":{},"location":{"lat":34.93928433635983,"lng":135.7651702740618,"country":"Japan"},"categories":[{"id":"4bf58dd8d48988d172941735","name":"Post Office","pluralName":"Post Offices","shortName":"Post Office","icon":{"prefix":"https:\/\/foursquare.com\/img\/categories_v2\/building\/postoffice_","suffix":".png"},"primary":true}],"verified":false,"stats":{"checkinsCount":1,"usersCount":1,"tipCount":0},"likes":{"count":0,"groups":[]},"specials":{"count":0,"items":[]},"hereNow":{"count":0,"groups":[]}},{"id":"4fc863e9e4b0cc91beabb9b3","name":"Cafe リーブル","contact":{},"location":{"address":"伏見区両替町","lat":34.939758,"lng":135.765091,"country":"Japan"},"categories":[{"id":"4bf58dd8d48988d16d941735","name":"Café","pluralName":"Cafés","shortName":"Café","icon":{"prefix":"https:\/\/foursquare.com\/img\/categories_v2\/food\/cafe_","suffix":".png"},"primary":true}],"verified":false,"stats":{"checkinsCount":2,"usersCount":2,"tipCount":0},"likes":{"count":0,"groups":[]},"specials":{"count":0,"items":[]},"hereNow":{"count":0,"groups":[]}},{"id":"4fb256204fc687a4a77ed52a","name":"京都銀行 エキバンク 京阪丹波橋駅","contact":{},"location":{"address":"伏見区桃山町筒井伊賀15番地","crossStreet":"京阪 丹波橋駅 改札内","lat":34.93954540093064,"lng":135.76541662216187,"postalCode":"612-0073","city":"京都市","state":"京都府","country":"Japan"},"categories":[{"id":"4bf58dd8d48988d10a951735","name":"Bank","pluralName":"Banks","shortName":"Bank \/ Financial","icon":{"prefix":"https:\/\/foursquare.com\/img\/categories_v2\/shops\/financial_","suffix":".png"},"primary":true}],"verified":false,"stats":{"checkinsCount":0,"usersCount":0,"tipCount":0},"likes":{"count":0,"groups":[]},"specials":{"count":0,"items":[]},"hereNow":{"count":0,"groups":[]}},{"id":"4eb10e9a5c5c80159c7d3da4","name":"ジューサーバー 京阪丹波橋駅店","contact":{},"location":{"address":"伏見区桃山筒井伊賀西町15","lat":34.938822786768114,"lng":135.7654063344462,"city":"京都市","state":"京都府","country":"Japan"},"categories":[{"id":"4bf58dd8d48988d112941735","name":"Juice Bar","pluralName":"Juice Bars","shortName":"Juice Bar","icon":{"prefix":"https:\/\/foursquare.com\/img\/categories_v2\/food\/juicebar_","suffix":".png"},"primary":true}],"verified":false,"stats":{"checkinsCount":39,"usersCount":9,"tipCount":0},"likes":{"count":0,"groups":[]},"specials":{"count":0,"items":[]},"hereNow":{"count":0,"groups":[]}},{"id":"4dfa997445dd0d640c653911","name":"水嶋書房 丹波橋店","contact":{"phone":"+81756216202","formattedPhone":"+81 75-621-6202"},"location":{"address":"桃山筒井伊賀西町15","crossStreet":"京阪丹波橋駅構内","lat":34.938873,"lng":135.765288,"postalCode":"612-0073","city":"京都市伏見区","state":"京都府","country":"Japan"},"categories":[{"id":"4bf58dd8d48988d114951735","name":"Bookstore","pluralName":"Bookstores","shortName":"Bookstore","icon":{"prefix":"https:\/\/foursquare.com\/img\/categories_v2\/shops\/bookstore_","suffix":".png"},"primary":true}],"verified":false,"stats":{"checkinsCount":95,"usersCount":20,"tipCount":0},"likes":{"count":0,"groups":[]},"specials":{"count":0,"items":[]},"hereNow":{"count":0,"groups":[]}},{"id":"4df68750d4c070d4df0dfca2","name":"アンスリー 丹波橋店","contact":{},"location":{"address":"桃山筒井伊賀西町15","lat":34.938735,"lng":135.765181,"city":"京都市伏見区","state":"京都府","country":"Japan"},"categories":[{"id":"4d954b0ea243a5684a65b473","name":"Convenience Store","pluralName":"Convenience Stores","shortName":"Convenience Stores","icon":{"prefix":"https:\/\/foursquare.com\/img\/categories_v2\/shops\/conveniencestore_","suffix":".png"},"primary":true}],"verified":false,"stats":{"checkinsCount":41,"usersCount":14,"tipCount":0},"likes":{"count":0,"groups":[]},"specials":{"count":0,"items":[]},"hereNow":{"count":0,"groups":[]}},{"id":"4d292e7bb818a35de0a29c8a","name":"麺座 丹波橋店","contact":{"phone":"+81756226150","formattedPhone":"+81 75-622-6150"},"location":{"address":"伏見区桃山筒井伊賀西町15","crossStreet":"丹波橋駅 南改札口","lat":34.938784626772815,"lng":135.76537370681763,"city":"京都市","state":"京都府","country":"Japan"},"categories":[{"id":"4bf58dd8d48988d1d1941735","name":"Ramen \/  Noodle House","pluralName":"Ramen \/  Noodle House","shortName":"Ramen \/ Noodles","icon":{"prefix":"https:\/\/foursquare.com\/img\/categories_v2\/food\/ramen_","suffix":".png"},"primary":true}],"verified":false,"stats":{"checkinsCount":16,"usersCount":12,"tipCount":0},"likes":{"count":0,"groups":[]},"specials":{"count":0,"items":[]},"hereNow":{"count":0,"groups":[]}},{"id":"4e3cc073fa76455375afa7d7","name":"Sweets Box 丹波橋店","contact":{},"location":{"lat":34.9391983458963,"lng":135.76554056538225,"country":"Japan"},"categories":[{"id":"4bf58dd8d48988d1d0941735","name":"Dessert Shop","pluralName":"Dessert Shops","shortName":"Desserts","icon":{"prefix":"https:\/\/foursquare.com\/img\/categories_v2\/food\/dessert_","suffix":".png"},"primary":true}],"verified":false,"stats":{"checkinsCount":8,"usersCount":7,"tipCount":0},"likes":{"count":0,"groups":[]},"specials":{"count":0,"items":[]},"hereNow":{"count":0,"groups":[]}},{"id":"4e5e2e95e4cdfc603ed70baf","name":"BAR CHANCE","contact":{"phone":"+819036238838","formattedPhone":"+81 90-3623-8838"},"location":{"address":"桃山井伊掃部西町14-8","crossStreet":"丹波橋ビル1F","lat":34.93915178442554,"lng":135.76535541936244,"postalCode":"612-0071","city":"京都市伏見区","state":"京都府","country":"Japan"},"categories":[{"id":"4bf58dd8d48988d116941735","name":"Bar","pluralName":"Bars","shortName":"Bar","icon":{"prefix":"https:\/\/foursquare.com\/img\/categories_v2\/nightlife\/bar_","suffix":".png"},"primary":true}],"verified":false,"stats":{"checkinsCount":5,"usersCount":2,"tipCount":0},"likes":{"count":0,"groups":[]},"specials":{"count":0,"items":[]},"hereNow":{"count":0,"groups":[]}},{"id":"4f36011de4b0a1f19554510e","name":"スイーツボックス","contact":{},"location":{"lat":34.938751,"lng":135.765415,"country":"Japan"},"categories":[{"id":"4bf58dd8d48988d1d0941735","name":"Dessert Shop","pluralName":"Dessert Shops","shortName":"Desserts","icon":{"prefix":"https:\/\/foursquare.com\/img\/categories_v2\/food\/dessert_","suffix":".png"},"primary":true}],"verified":false,"stats":{"checkinsCount":1,"usersCount":1,"tipCount":0},"likes":{"count":0,"groups":[]},"specials":{"count":0,"items":[]},"hereNow":{"count":0,"groups":[]}}]}}
