{"meta":{"code":200},"response":{"venues":[{"id":"4e06c6f0d22d658532a2568a","name":"パナソニック　エレクトロニックデバイス株式会社","contact":{},"location":{"lat":34.926233225050396,"lng":135.79577529387876,"city":"宇治市","state":"京都府","country":"Japan"},"categories":[],"verified":false,"stats":{"checkinsCount":54,"usersCount":11,"tipCount":0},"likes":{"count":0,"groups":[]},"specials":{"count":0,"items":[]},"hereNow":{"count":0,"groups":[]}},{"id":"4b70a3fff964a52003272de3","name":"キリン堂 木幡店","contact":{},"location":{"lat":34.926523973818284,"lng":135.792100012136,"country":"Japan"},"categories":[],"verified":false,"stats":{"checkinsCount":9,"usersCount":6,"tipCount":0},"likes":{"count":0,"groups":[]},"specials":{"count":0,"items":[]},"hereNow":{"count":0,"groups":[]}},{"id":"4bdfc388ffdec9288b1deda1","name":"スーパー山田屋 桃山店","contact":{},"location":{"address":"桃山町大島38-2","crossStreet":"ＵＲ都市機構桃山南団地２棟","lat":34.92455020858188,"lng":135.79032884991116,"city":"京都市伏見区","state":"京都府","country":"Japan"},"categories":[{"id":"4bf58dd8d48988d118951735","name":"Grocery Store","pluralName":"Grocery Stores","shortName":"Grocery Store","icon":{"prefix":"https:\/\/foursquare.com\/img\/categories_v2\/shops\/food_grocery_","suffix":".png"},"primary":true}],"verified":false,"stats":{"checkinsCount":9,"usersCount":7,"tipCount":0},"likes":{"count":0,"groups":[]},"specials":{"count":0,"items":[]},"hereNow":{"count":0,"groups":[]}},{"id":"4c0f49c3d64c0f47d892295d","name":"京アニショップ","contact":{},"location":{"address":"木幡内畑町34-11 ハイショップビル2F","lat":34.92558649083347,"lng":135.7954627275467,"postalCode":"661-0002","city":"宇治市","state":"京都府","country":"Japan"},"categories":[{"id":"4bf58dd8d48988d1fb941735","name":"Hobby Shop","pluralName":"Hobby Shops","shortName":"Hobbies","icon":{"prefix":"https:\/\/foursquare.com\/img\/categories_v2\/shops\/hobbyshop_","suffix":".png"},"primary":true}],"verified":false,"stats":{"checkinsCount":451,"usersCount":274,"tipCount":3},"likes":{"count":0,"groups":[]},"specials":{"count":0,"items":[]},"hereNow":{"count":0,"groups":[]}},{"id":"4ed9f90f6da1642c5c2d8b90","name":"いなかもん","contact":{},"location":{"address":"木幡内畑34-11","lat":34.925773183454375,"lng":135.79553908316288,"city":"京都府宇治市","country":"Japan"},"categories":[{"id":"4bf58dd8d48988d116941735","name":"Bar","pluralName":"Bars","shortName":"Bar","icon":{"prefix":"https:\/\/foursquare.com\/img\/categories_v2\/nightlife\/bar_","suffix":".png"},"primary":true}],"verified":false,"stats":{"checkinsCount":3,"usersCount":2,"tipCount":0},"likes":{"count":0,"groups":[]},"specials":{"count":0,"items":[]},"hereNow":{"count":0,"groups":[]}},{"id":"4e7da44ef79002948141949f","name":"京屋ホルモン","contact":{},"location":{"lat":34.92574368,"lng":135.79577562,"city":"宇治市","state":"京都府","country":"Japan"},"categories":[{"id":"4bf58dd8d48988d113941735","name":"Korean Restaurant","pluralName":"Korean Restaurants","shortName":"Korean","icon":{"prefix":"https:\/\/foursquare.com\/img\/categories_v2\/food\/default_","suffix":".png"},"primary":true}],"verified":false,"stats":{"checkinsCount":6,"usersCount":2,"tipCount":0},"likes":{"count":0,"groups":[]},"specials":{"count":0,"items":[]},"hereNow":{"count":0,"groups":[]}},{"id":"4c0f4f06c6cf76b0371e8251","name":"セブンイレブン 宇治京阪木幡駅前店","contact":{"phone":"+81774330663","formattedPhone":"+81 774-33-0663"},"location":{"address":"木幡内畑34-9","lat":34.92552546486377,"lng":135.79574167728424,"postalCode":"661-0002","city":"京都市","state":"宇治市","country":"Japan"},"categories":[{"id":"4d954b0ea243a5684a65b473","name":"Convenience Store","pluralName":"Convenience Stores","shortName":"Convenience Stores","icon":{"prefix":"https:\/\/foursquare.com\/img\/categories_v2\/shops\/conveniencestore_","suffix":".png"},"primary":true}],"verified":false,"stats":{"checkinsCount":64,"usersCount":17,"tipCount":0},"likes":{"count":0,"groups":[]},"specials":{"count":0,"items":[]},"hereNow":{"count":0,"groups":[]}},{"id":"4df471f145dd4e26934438ee","name":"新鮮館コスモ 木幡店","contact":{},"location":{"lat":34.9258457092584,"lng":135.79398290060234,"city":"Uji","state":"Kyoto Prefecture","country":"Japan"},"categories":[],"verified":false,"stats":{"checkinsCount":11,"usersCount":4,"tipCount":0},"likes":{"count":0,"groups":[]},"specials":{"count":0,"items":[]},"hereNow":{"count":0,"groups":[]}},{"id":"4df2db1918a88611c6ba8fbe","name":"ごんべ","contact":{},"location":{"lat":34.925955,"lng":135.793578,"city":"Uji","state":"Kyoto Prefecture","country":"Japan"},"categories":[{"id":"4d4b7105d754a06374d81259","name":"Food","pluralName":"Food","shortName":"Food","icon":{"prefix":"https:\/\/foursquare.com\/img\/categories_v2\/food\/default_","suffix":".png"},"primary":true}],"verified":false,"stats":{"checkinsCount":5,"usersCount":5,"tipCount":0},"likes":{"count":0,"groups":[]},"specials":{"count":0,"items":[]},"hereNow":{"count":0,"groups":[]}},{"id":"4dd8ce01d1647fcf3e6cbc7e","name":"木幡池","contact":{},"location":{"lat":34.92601751981346,"lng":135.79277515411377,"city":"Uji","state":"Kyoto Prefecture","country":"Japan"},"categories":[{"id":"4bf58dd8d48988d15e941735","name":"Pool","pluralName":"Pools","shortName":"Pool","icon":{"prefix":"https:\/\/foursquare.com\/img\/categories_v2\/parks_outdoors\/pool_","suffix":".png"},"primary":true}],"verified":false,"stats":{"checkinsCount":5,"usersCount":3,"tipCount":0},"likes":{"count":0,"groups":[]},"specials":{"count":0,"items":[]},"hereNow":{"count":0,"groups":[]}},{"id":"4ef6ac0be30093066f8f57c1","name":"コープ東宇治","contact":{},"location":{"address":"五ヶ庄北ノ庄32-1","lat":34.92625380536795,"lng":135.79343176477715,"city":"宇治市","state":"京都府","country":"Japan"},"categories":[{"id":"4bf58dd8d48988d118951735","name":"Grocery Store","pluralName":"Grocery Stores","shortName":"Grocery Store","icon":{"prefix":"https:\/\/foursquare.com\/img\/categories_v2\/shops\/food_grocery_","suffix":".png"},"primary":true}],"verified":false,"stats":{"checkinsCount":2,"usersCount":2,"tipCount":0},"likes":{"count":0,"groups":[]},"specials":{"count":0,"items":[]},"hereNow":{"count":0,"groups":[]}},{"id":"4fa20352e4b0b4fd550f88cd","name":"中国料理 遊鈴 (りゅうりん)","contact":{"phone":"+81774333151","formattedPhone":"+81 774-33-3151"},"location":{"address":"木幡西中31-7","crossStreet":"ハイクラスマンション 1F","lat":34.926184652890385,"lng":135.79360127449036,"postalCode":"611-0002","city":"宇治市","state":"京都府","country":"Japan"},"categories":[{"id":"4bf58dd8d48988d145941735","name":"Chinese Restaurant","pluralName":"Chinese Restaurants","shortName":"Chinese","icon":{"prefix":"https:\/\/foursquare.com\/img\/categories_v2\/food\/chinese_","suffix":".png"},"primary":true}],"verified":false,"stats":{"checkinsCount":0,"usersCount":0,"tipCount":1},"likes":{"count":0,"groups":[]},"specials":{"count":0,"items":[]},"hereNow":{"count":0,"groups":[]}}]}}
