{"meta":{"code":200},"response":{"venues":[{"id":"4d7cb4b97498a1cd363b82fc","name":"クリーン洗車 京都十条店","contact":{},"location":{"address":"南区上鳥羽大物町18","lat":34.968251,"lng":135.749881,"city":"京都市","state":"京都府","country":"Japan"},"categories":[{"id":"4bf58dd8d48988d130951735","name":"Taxi","pluralName":"Taxis","shortName":"Taxi","icon":{"prefix":"https:\/\/foursquare.com\/img\/categories_v2\/travel\/taxi_","suffix":".png"},"primary":true}],"verified":false,"stats":{"checkinsCount":112,"usersCount":1,"tipCount":1},"likes":{"count":0,"groups":[]},"specials":{"count":0,"items":[]},"hereNow":{"count":0,"groups":[]}},{"id":"4dce39dbfa7664b7c6a29a1e","name":"ソニーサービスステーション京都","contact":{},"location":{"lat":34.96931346,"lng":135.75035256,"city":"Kyoto","state":"Kyoto Prefecture","country":"Japan"},"categories":[],"verified":false,"stats":{"checkinsCount":9,"usersCount":8,"tipCount":0},"likes":{"count":0,"groups":[]},"specials":{"count":0,"items":[]},"hereNow":{"count":0,"groups":[]}},{"id":"4cd2908983e0721e589d5797","name":"肉家 かぐら","contact":{},"location":{"address":"上鳥羽南花名町10-2","lat":34.96530641170652,"lng":135.74714541435242,"city":"京都市南区","state":"京都府","country":"Japan"},"categories":[{"id":"4bf58dd8d48988d111941735","name":"Japanese Restaurant","pluralName":"Japanese Restaurants","shortName":"Japanese","icon":{"prefix":"https:\/\/foursquare.com\/img\/categories_v2\/food\/japanese_","suffix":".png"},"primary":true}],"verified":false,"stats":{"checkinsCount":8,"usersCount":4,"tipCount":0},"likes":{"count":0,"groups":[]},"specials":{"count":0,"items":[]},"hereNow":{"count":0,"groups":[]}},{"id":"4f35d623e4b0fb0dfb32b696","name":"上鳥羽公園","contact":{},"location":{"address":"上鳥羽仏現寺町","lat":34.97081404128676,"lng":135.7508574555975,"city":"京都市南区","state":"京都府","country":"Japan"},"categories":[{"id":"4bf58dd8d48988d163941735","name":"Park","pluralName":"Parks","shortName":"Park","icon":{"prefix":"https:\/\/foursquare.com\/img\/categories_v2\/parks_outdoors\/park_","suffix":".png"},"primary":true}],"verified":false,"stats":{"checkinsCount":2,"usersCount":2,"tipCount":0},"likes":{"count":0,"groups":[]},"specials":{"count":0,"items":[]},"hereNow":{"count":0,"groups":[]}},{"id":"4bf7aa01d4cdb713ce9c84fe","name":"和食さと 上鳥羽店","contact":{},"location":{"address":"上鳥羽堀子町96","lat":34.969194,"lng":135.745979,"city":"京都市南区","state":"京都府","country":"Japan"},"categories":[{"id":"4bf58dd8d48988d111941735","name":"Japanese Restaurant","pluralName":"Japanese Restaurants","shortName":"Japanese","icon":{"prefix":"https:\/\/foursquare.com\/img\/categories_v2\/food\/japanese_","suffix":".png"},"primary":true}],"verified":false,"stats":{"checkinsCount":22,"usersCount":19,"tipCount":0},"likes":{"count":0,"groups":[]},"specials":{"count":0,"items":[]},"hereNow":{"count":0,"groups":[]}},{"id":"4e3fa76218a83d5b28614463","name":"STRAIGHT","contact":{},"location":{"lat":34.96776536919595,"lng":135.746081026307,"country":"Japan"},"categories":[{"id":"4bf58dd8d48988d112951735","name":"Hardware Store","pluralName":"Hardware Stores","shortName":"Hardware","icon":{"prefix":"https:\/\/foursquare.com\/img\/categories_v2\/shops\/hardware_","suffix":".png"},"primary":true}],"verified":false,"stats":{"checkinsCount":9,"usersCount":6,"tipCount":0},"likes":{"count":0,"groups":[]},"specials":{"count":0,"items":[]},"hereNow":{"count":0,"groups":[]}},{"id":"4caff591b4b0a35dafa445ce","name":"佐川急便 京都店","contact":{"phone":"+81756818181","formattedPhone":"+81 75-681-8181"},"location":{"address":"上鳥羽角田町68","lat":34.96921264973101,"lng":135.7474043007034,"city":"京都市南区","state":"京都府","country":"Japan"},"categories":[{"id":"4bf58dd8d48988d172941735","name":"Post Office","pluralName":"Post Offices","shortName":"Post Office","icon":{"prefix":"https:\/\/foursquare.com\/img\/categories_v2\/building\/postoffice_","suffix":".png"},"primary":true}],"verified":false,"stats":{"checkinsCount":20,"usersCount":13,"tipCount":0},"likes":{"count":0,"groups":[]},"specials":{"count":0,"items":[]},"hereNow":{"count":0,"groups":[]}},{"id":"4f680de2e4b0fef78f6087b5","name":"キッチン 空","contact":{},"location":{"address":"日本","lat":34.96943283081055,"lng":135.7487335205078,"city":"京都市","state":"京都府","country":"Japan"},"categories":[{"id":"4bf58dd8d48988d1c4941735","name":"Restaurant","pluralName":"Restaurants","shortName":"Other - Food","icon":{"prefix":"https:\/\/foursquare.com\/img\/categories_v2\/food\/default_","suffix":".png"},"primary":true}],"verified":false,"stats":{"checkinsCount":2,"usersCount":2,"tipCount":0},"likes":{"count":0,"groups":[]},"specials":{"count":0,"items":[]},"hereNow":{"count":0,"groups":[]}},{"id":"4e6886b1ae6018628085f3fa","name":"近畿環境保全株式会社 京都営業所","contact":{},"location":{"lat":34.970148,"lng":135.747436,"city":"京都市","state":"京都府","country":"Japan"},"categories":[{"id":"4bf58dd8d48988d124941735","name":"Office","pluralName":"Offices","shortName":"Corporate \/ Office","icon":{"prefix":"https:\/\/foursquare.com\/img\/categories_v2\/building\/default_","suffix":".png"},"primary":true}],"verified":false,"stats":{"checkinsCount":1,"usersCount":1,"tipCount":0},"likes":{"count":0,"groups":[]},"hereNow":{"count":0,"groups":[]}},{"id":"4e3352ce45dd6987a1787869","name":"ローソン 上鳥羽大宮通り店","contact":{"phone":"+81756812317","formattedPhone":"+81 75-681-2317","twitter":"akiko_lawson"},"location":{"address":"上鳥羽大物町1","lat":34.96888808547279,"lng":135.74923753738403,"city":"京都市南区","state":"京都府","country":"Japan"},"categories":[{"id":"4d954b0ea243a5684a65b473","name":"Convenience Store","pluralName":"Convenience Stores","shortName":"Convenience Stores","icon":{"prefix":"https:\/\/foursquare.com\/img\/categories_v2\/shops\/conveniencestore_","suffix":".png"},"primary":true}],"verified":true,"stats":{"checkinsCount":13,"usersCount":8,"tipCount":0},"likes":{"count":0,"groups":[]},"specials":{"count":0,"items":[]},"hereNow":{"count":0,"groups":[]}},{"id":"4ec301016da18e9a96043ff9","name":"MK運行管理","contact":{},"location":{"lat":34.967010498046875,"lng":135.74754333496094,"country":"Japan"},"categories":[{"id":"4bf58dd8d48988d130951735","name":"Taxi","pluralName":"Taxis","shortName":"Taxi","icon":{"prefix":"https:\/\/foursquare.com\/img\/categories_v2\/travel\/taxi_","suffix":".png"},"primary":true}],"verified":false,"stats":{"checkinsCount":1,"usersCount":1,"tipCount":0},"likes":{"count":0,"groups":[]},"specials":{"count":0,"items":[]},"hereNow":{"count":0,"groups":[]}},{"id":"4e0e9650aeb7a5b33eec0fa0","name":"遊食HOUSEやまもと","contact":{},"location":{"address":"日本","crossStreet":"南区上鳥羽北花名町32","lat":34.96704697608846,"lng":135.7487010955771,"city":"京都市","state":"京都府","country":"Japan"},"categories":[{"id":"4bf58dd8d48988d111941735","name":"Japanese Restaurant","pluralName":"Japanese Restaurants","shortName":"Japanese","icon":{"prefix":"https:\/\/foursquare.com\/img\/categories_v2\/food\/japanese_","suffix":".png"},"primary":true}],"verified":false,"stats":{"checkinsCount":2,"usersCount":1,"tipCount":0},"likes":{"count":0,"groups":[]},"specials":{"count":0,"items":[]},"hereNow":{"count":0,"groups":[]}},{"id":"4d91bbf07379b60cfe69d207","name":"ほっかほっか亭 上鳥羽店","contact":{"phone":"+81756726580","formattedPhone":"+81 75-672-6580"},"location":{"address":"南区上鳥羽大柳町15","lat":34.968893,"lng":135.749178,"city":"京都市","state":"京都府","country":"Japan"},"categories":[{"id":"4bf58dd8d48988d146941735","name":"Deli\/Bodega","pluralName":"Delis\/Bodegas","shortName":"Deli \/ Bodega","icon":{"prefix":"https:\/\/foursquare.com\/img\/categories_v2\/food\/deli_","suffix":".png"},"primary":true}],"verified":false,"stats":{"checkinsCount":2,"usersCount":1,"tipCount":0},"likes":{"count":0,"groups":[]},"specials":{"count":0,"items":[]},"hereNow":{"count":0,"groups":[]}},{"id":"4b61a854f964a520f81b2ae3","name":"ドン・キホーテ 京都南インター店","contact":{"phone":"+81756922711","formattedPhone":"+81 75-692-2711"},"location":{"address":"上鳥羽北花名町1-2","lat":34.96707803548436,"lng":135.74621200561523,"postalCode":"601-8127","city":"京都市南区","state":"京都府","country":"Japan"},"categories":[{"id":"4bf58dd8d48988d1fb941735","name":"Hobby Shop","pluralName":"Hobby Shops","shortName":"Hobbies","icon":{"prefix":"https:\/\/foursquare.com\/img\/categories_v2\/shops\/hobbyshop_","suffix":".png"},"primary":true}],"verified":false,"stats":{"checkinsCount":295,"usersCount":167,"tipCount":2},"likes":{"count":0,"groups":[]},"specials":{"count":0,"items":[]},"hereNow":{"count":0,"groups":[]}},{"id":"4b5cd8d9f964a520154729e3","name":"国道1号久世橋 交差点","contact":{},"location":{"address":"上鳥羽北花名町","crossStreet":"京阪国道 \/ 久世橋通","lat":34.9655921600683,"lng":135.74576139450073,"city":"京都市南区","state":"京都府","country":"Japan"},"categories":[{"id":"4bf58dd8d48988d1f9931735","name":"Road","pluralName":"Roads","shortName":"Road","icon":{"prefix":"https:\/\/foursquare.com\/img\/categories_v2\/travel\/highway_","suffix":".png"},"primary":true}],"verified":false,"stats":{"checkinsCount":133,"usersCount":18,"tipCount":1},"likes":{"count":0,"groups":[]},"specials":{"count":0,"items":[]},"hereNow":{"count":0,"groups":[]}},{"id":"4bf2ae0a82002d7f89d0d0bb","name":"天下一品 上鳥羽店","contact":{"phone":"+81756819372","formattedPhone":"+81 75-681-9372"},"location":{"address":"上鳥羽南花名町36","crossStreet":"久瀬橋通大宮 ワインハイツ水仙","lat":34.96537455179096,"lng":135.7481700181961,"city":"京都市南区","state":"京都府","country":"Japan"},"categories":[{"id":"4bf58dd8d48988d1d1941735","name":"Ramen \/  Noodle House","pluralName":"Ramen \/  Noodle House","shortName":"Ramen \/ Noodles","icon":{"prefix":"https:\/\/foursquare.com\/img\/categories_v2\/food\/ramen_","suffix":".png"},"primary":true}],"verified":false,"stats":{"checkinsCount":75,"usersCount":52,"tipCount":1},"likes":{"count":0,"groups":[]},"specials":{"count":0,"items":[]},"hereNow":{"count":0,"groups":[]}},{"id":"4f13f549e4b067f6721c9659","name":"久世橋通大宮 交差点","contact":{},"location":{"lat":34.96553649477239,"lng":135.74827416544187,"country":"Japan"},"categories":[{"id":"4bf58dd8d48988d1f9931735","name":"Road","pluralName":"Roads","shortName":"Road","icon":{"prefix":"https:\/\/foursquare.com\/img\/categories_v2\/travel\/highway_","suffix":".png"},"primary":true}],"verified":false,"stats":{"checkinsCount":6,"usersCount":2,"tipCount":0},"likes":{"count":0,"groups":[]},"specials":{"count":0,"items":[]},"hereNow":{"count":0,"groups":[]}},{"id":"4bb18fcef964a520a5993ce3","name":"出光 上鳥羽SS","contact":{},"location":{"address":"上鳥羽北花名町1","lat":34.96654577,"lng":135.74575394,"city":"京都市南区","state":"京都府","country":"Japan"},"categories":[{"id":"4bf58dd8d48988d113951735","name":"Gas Station \/ Garage","pluralName":"Gas Stations \/ Garages","shortName":"Gas Station \/ Garage","icon":{"prefix":"https:\/\/foursquare.com\/img\/categories_v2\/shops\/gas_","suffix":".png"},"primary":true}],"verified":false,"stats":{"checkinsCount":29,"usersCount":20,"tipCount":0},"likes":{"count":0,"groups":[]},"specials":{"count":0,"items":[]},"hereNow":{"count":0,"groups":[]}},{"id":"4f234dc6e4b0d10daf4f0569","name":"パナソニック リビング ショウルーム 京都","contact":{},"location":{"lat":34.96672700988157,"lng":135.74857492024466,"city":"京都","country":"Japan"},"categories":[{"id":"4bf58dd8d48988d1f8941735","name":"Furniture \/ Home Store","pluralName":"Furniture \/ Home Stores","shortName":"Furniture \/ Home","icon":{"prefix":"https:\/\/foursquare.com\/img\/categories_v2\/shops\/furniture_","suffix":".png"},"primary":true}],"verified":false,"stats":{"checkinsCount":7,"usersCount":4,"tipCount":0},"likes":{"count":0,"groups":[]},"specials":{"count":0,"items":[]},"hereNow":{"count":0,"groups":[]}},{"id":"4d12835c957fa1cd126f6e9f","name":"MKタクシー","contact":{},"location":{"lat":34.966355,"lng":135.746798,"country":"Japan"},"categories":[{"id":"4bf58dd8d48988d130951735","name":"Taxi","pluralName":"Taxis","shortName":"Taxi","icon":{"prefix":"https:\/\/foursquare.com\/img\/categories_v2\/travel\/taxi_","suffix":".png"},"primary":true}],"verified":false,"stats":{"checkinsCount":7,"usersCount":4,"tipCount":0},"likes":{"count":0,"groups":[]},"specials":{"count":0,"items":[]},"hereNow":{"count":0,"groups":[]}},{"id":"4f3c2b20754a0d3457de241e","name":"久世橋通大宮 バス停","contact":{},"location":{"address":"南区 上鳥羽北塔ノ本町・上鳥羽南塔ノ本町","crossStreet":"市バス84系統","lat":34.965624031939164,"lng":135.74972569942474,"city":"京都市","state":"京都府","country":"Japan"},"categories":[{"id":"4bf58dd8d48988d1fe931735","name":"Bus Station","pluralName":"Bus Stations","shortName":"Bus Station","icon":{"prefix":"https:\/\/foursquare.com\/img\/categories_v2\/travel\/busstation_","suffix":".png"},"primary":true}],"verified":false,"stats":{"checkinsCount":0,"usersCount":0,"tipCount":0},"likes":{"count":0,"groups":[]},"specials":{"count":0,"items":[]},"hereNow":{"count":0,"groups":[]}},{"id":"4f3f4c417b0c93cd69a25327","name":"上鳥羽 バス停","contact":{},"location":{"address":"南区 上鳥羽南花名町・上鳥羽南島田町・上鳥羽鴨田","crossStreet":"市バス19・84系統","lat":34.96559655618915,"lng":135.7458458840847,"city":"京都市","state":"京都府","country":"Japan"},"categories":[{"id":"4bf58dd8d48988d1fe931735","name":"Bus Station","pluralName":"Bus Stations","shortName":"Bus Station","icon":{"prefix":"https:\/\/foursquare.com\/img\/categories_v2\/travel\/busstation_","suffix":".png"},"primary":true}],"verified":false,"stats":{"checkinsCount":0,"usersCount":0,"tipCount":0},"likes":{"count":0,"groups":[]},"specials":{"count":0,"items":[]},"hereNow":{"count":0,"groups":[]}}]}}
