{"meta":{"code":200},"response":{"venues":[{"id":"4e2fb616e4cdb5a70d6b5074","name":"ＮＴＴ西日本 城陽別館","contact":{},"location":{"lat":34.846782,"lng":135.785291,"city":"城陽市","state":"京都府","country":"Japan"},"categories":[{"id":"4bf58dd8d48988d125941735","name":"Tech Startup","pluralName":"Tech Startups","shortName":"Tech Startup","icon":{"prefix":"https:\/\/foursquare.com\/img\/categories_v2\/shops\/technology_","suffix":".png"},"primary":true}],"verified":false,"stats":{"checkinsCount":53,"usersCount":4,"tipCount":0},"likes":{"count":0,"groups":[]},"hereNow":{"count":0,"groups":[]}},{"id":"4fb777a2e4b0f4eeca1a2d81","name":"カツと麺の店 太呂 アル・プラザ城陽店","contact":{"phone":"+81774575088","formattedPhone":"+81 774-57-5088"},"location":{"lat":34.8425639189665,"lng":135.78574431510148,"country":"Japan"},"categories":[{"id":"4bf58dd8d48988d111941735","name":"Japanese Restaurant","pluralName":"Japanese Restaurants","shortName":"Japanese","icon":{"prefix":"https:\/\/foursquare.com\/img\/categories_v2\/food\/japanese_","suffix":".png"},"primary":true}],"verified":false,"stats":{"checkinsCount":2,"usersCount":1,"tipCount":0},"likes":{"count":0,"groups":[]},"specials":{"count":0,"items":[]},"hereNow":{"count":0,"groups":[]}},{"id":"4df310edfa76abc3d86bc0e7","name":"鴻池運輸京都城陽配送センター営業所","contact":{},"location":{"lat":34.844558,"lng":135.786392,"city":"Joyo","state":"Kyoto Prefecture","country":"Japan"},"categories":[{"id":"4bf58dd8d48988d130941735","name":"Building","pluralName":"Buildings","shortName":"Other - Buildings","icon":{"prefix":"https:\/\/foursquare.com\/img\/categories_v2\/building\/default_","suffix":".png"},"primary":true}],"verified":false,"stats":{"checkinsCount":18,"usersCount":2,"tipCount":0},"likes":{"count":0,"groups":[]},"specials":{"count":0,"items":[]},"hereNow":{"count":0,"groups":[]}},{"id":"4e8151af30f86985e3fe2783","name":"星和電機株式会社 本社","contact":{"phone":"+81774558181","formattedPhone":"+81 774-55-8181"},"location":{"address":"寺田新池36","lat":34.84797110025135,"lng":135.78250620973017,"city":"城陽市","state":"京都府","country":"Japan"},"categories":[{"id":"4bf58dd8d48988d124941735","name":"Office","pluralName":"Offices","shortName":"Corporate \/ Office","icon":{"prefix":"https:\/\/foursquare.com\/img\/categories_v2\/building\/default_","suffix":".png"},"primary":true}],"verified":false,"stats":{"checkinsCount":45,"usersCount":6,"tipCount":0},"likes":{"count":0,"groups":[]},"hereNow":{"count":0,"groups":[]}},{"id":"4ddb541aae6092c836df7bec","name":"スズキアリーナ城陽","contact":{},"location":{"address":"日本","lat":34.846975207328796,"lng":135.78112363815308,"city":"城陽市","state":"京都府","country":"Japan"},"categories":[{"id":"4bf58dd8d48988d124951735","name":"Automotive Shop","pluralName":"Automotive Shops","shortName":"Automotive","icon":{"prefix":"https:\/\/foursquare.com\/img\/categories_v2\/shops\/automotive_","suffix":".png"},"primary":true}],"verified":false,"stats":{"checkinsCount":1,"usersCount":1,"tipCount":0},"likes":{"count":0,"groups":[]},"specials":{"count":0,"items":[]},"hereNow":{"count":0,"groups":[]}},{"id":"4dcf8d04e4cd130e16839c0d","name":"城陽新池交差点","contact":{},"location":{"lat":34.84718,"lng":135.785089,"country":"Japan"},"categories":[{"id":"4bf58dd8d48988d1f9931735","name":"Road","pluralName":"Roads","shortName":"Road","icon":{"prefix":"https:\/\/foursquare.com\/img\/categories_v2\/travel\/highway_","suffix":".png"},"primary":true}],"verified":false,"stats":{"checkinsCount":161,"usersCount":3,"tipCount":0},"likes":{"count":0,"groups":[]},"specials":{"count":0,"items":[]},"hereNow":{"count":0,"groups":[]}},{"id":"4dbd5c3ba86e0e98a1f8cbc2","name":"ドラッグユタカ 城陽店","contact":{"phone":"+81774526225","formattedPhone":"+81 774-52-6225"},"location":{"address":"富野荒見田50","lat":34.845921652796406,"lng":135.78515231609344,"postalCode":"610-0111","city":"城陽市","state":"京都府","country":"Japan"},"categories":[{"id":"4bf58dd8d48988d10f951735","name":"Drugstore \/ Pharmacy","pluralName":"Drugstores \/ Pharmacies","shortName":"Pharmacy","icon":{"prefix":"https:\/\/foursquare.com\/img\/categories_v2\/shops\/pharmacy_","suffix":".png"},"primary":true}],"verified":false,"stats":{"checkinsCount":41,"usersCount":7,"tipCount":0},"likes":{"count":0,"groups":[]},"specials":{"count":0,"items":[]},"hereNow":{"count":0,"groups":[]}},{"id":"4c2dc58be307d13adf4e0eda","name":"本格焼肉 こり庵","contact":{"phone":"+81774557856","formattedPhone":"+81 774-55-7856","twitter":"yakinikukorian"},"location":{"address":"富野荒見田51","lat":34.84663485995923,"lng":135.78513622283936,"postalCode":"610-0111","city":"城陽市","state":"京都府","country":"Japan"},"categories":[{"id":"4bf58dd8d48988d113941735","name":"Korean Restaurant","pluralName":"Korean Restaurants","shortName":"Korean","icon":{"prefix":"https:\/\/foursquare.com\/img\/categories_v2\/food\/default_","suffix":".png"},"primary":true}],"verified":false,"stats":{"checkinsCount":7,"usersCount":2,"tipCount":0},"likes":{"count":0,"groups":[]},"specials":{"count":0,"items":[]},"hereNow":{"count":0,"groups":[]}}]}}
