{"meta":{"code":200},"response":{"venues":[{"id":"4b7f636af964a520bd2b30e3","name":"醍醐寺 Daigo-ji","contact":{"phone":"+81755710002","formattedPhone":"+81 75-571-0002"},"location":{"address":"伏見区醍醐東大路町22","lat":34.9508726251293,"lng":135.8195972442627,"city":"京都市","state":"京都府","country":"Japan"},"categories":[{"id":"4bf58dd8d48988d13a941735","name":"Temple","pluralName":"Temples","shortName":"Temple","icon":{"prefix":"https:\/\/foursquare.com\/img\/categories_v2\/building\/religious_temple_","suffix":".png"},"primary":true}],"verified":false,"stats":{"checkinsCount":338,"usersCount":276,"tipCount":4},"likes":{"count":0,"groups":[]},"specials":{"count":0,"items":[]},"hereNow":{"count":0,"groups":[]}},{"id":"4ee212d4754a44a66d2a3751","name":"醍醐天皇 後山科陵","contact":{},"location":{"address":"醍醐古道町","lat":34.9586042278106,"lng":135.81998348236084,"city":"京都市伏見区","state":"京都府","country":"Japan"},"categories":[{"id":"4bf58dd8d48988d15c941735","name":"Cemetery","pluralName":"Cemeteries","shortName":"Cemetery","icon":{"prefix":"https:\/\/foursquare.com\/img\/categories_v2\/parks_outdoors\/cemetery_","suffix":".png"},"primary":true}],"verified":false,"stats":{"checkinsCount":0,"usersCount":0,"tipCount":0},"likes":{"count":0,"groups":[]},"specials":{"count":0,"items":[]},"hereNow":{"count":0,"groups":[]}},{"id":"4d97cf659aec59417b047664","name":"醍醐寺 伝法院 大講堂 (daigo ji denpou in dai koudou)","contact":{"phone":"+81755710002","formattedPhone":"+81 75-571-0002"},"location":{"address":"伏見区醍醐東大路町22","lat":34.95112764554878,"lng":135.82414627075195,"postalCode":"601-1325","city":"京都市","state":"京都府","country":"Japan"},"categories":[{"id":"4bf58dd8d48988d13a941735","name":"Temple","pluralName":"Temples","shortName":"Temple","icon":{"prefix":"https:\/\/foursquare.com\/img\/categories_v2\/building\/religious_temple_","suffix":".png"},"primary":true}],"verified":false,"stats":{"checkinsCount":1,"usersCount":1,"tipCount":0},"likes":{"count":0,"groups":[]},"specials":{"count":0,"items":[]},"hereNow":{"count":0,"groups":[]}},{"id":"4d97f566c19fb60cc381a465","name":"醍醐寺 女人堂 (daigo ji nyonin dou)","contact":{"phone":"+81755710002","formattedPhone":"+81 75-571-0002"},"location":{"address":"伏見区醍醐東大路町22","lat":34.95041974208414,"lng":135.82566171884537,"postalCode":"601-1325","city":"京都市","state":"京都府","country":"Japan"},"categories":[{"id":"4bf58dd8d48988d13a941735","name":"Temple","pluralName":"Temples","shortName":"Temple","icon":{"prefix":"https:\/\/foursquare.com\/img\/categories_v2\/building\/religious_temple_","suffix":".png"},"primary":true}],"verified":false,"stats":{"checkinsCount":3,"usersCount":3,"tipCount":2},"likes":{"count":0,"groups":[]},"specials":{"count":0,"items":[]},"hereNow":{"count":0,"groups":[]}},{"id":"4d97cd9d9aec59415cf27564","name":"醍醐寺 三宝院 (daigo ji sanpou in)","contact":{"phone":"+81755710002","formattedPhone":"+81 75-571-0002"},"location":{"address":"醍醐東大路町22","lat":34.95231479912765,"lng":135.8194899559021,"postalCode":"601-1325","city":"京都市伏見区","state":"京都府","country":"Japan"},"categories":[{"id":"4bf58dd8d48988d13a941735","name":"Temple","pluralName":"Temples","shortName":"Temple","icon":{"prefix":"https:\/\/foursquare.com\/img\/categories_v2\/building\/religious_temple_","suffix":".png"},"primary":true}],"verified":false,"stats":{"checkinsCount":147,"usersCount":93,"tipCount":1},"likes":{"count":0,"groups":[]},"specials":{"count":0,"items":[]},"hereNow":{"count":0,"groups":[]}},{"id":"4deecd11fa76c1ceac843c85","name":"醍醐寺金堂","contact":{},"location":{"lat":34.951198090853985,"lng":135.8217192660559,"country":"Japan"},"categories":[{"id":"4bf58dd8d48988d13a941735","name":"Temple","pluralName":"Temples","shortName":"Temple","icon":{"prefix":"https:\/\/foursquare.com\/img\/categories_v2\/building\/religious_temple_","suffix":".png"},"primary":true}],"verified":false,"stats":{"checkinsCount":15,"usersCount":14,"tipCount":1},"likes":{"count":0,"groups":[]},"specials":{"count":0,"items":[]},"hereNow":{"count":0,"groups":[]}},{"id":"4cda241a99026dcb896d0481","name":"長尾天満宮","contact":{},"location":{"address":"伏見区醍醐赤間南裏町21","lat":34.95241152940249,"lng":135.82306534051895,"city":"京都市","state":"京都府","country":"Japan"},"categories":[{"id":"4eb1d80a4b900d56c88a45ff","name":"Shrine","pluralName":"Shrines","shortName":"Shrine","icon":{"prefix":"https:\/\/foursquare.com\/img\/categories_v2\/building\/religious_shrine_","suffix":".png"},"primary":true}],"verified":false,"stats":{"checkinsCount":3,"usersCount":0,"tipCount":0},"likes":{"count":0,"groups":[]},"specials":{"count":0,"items":[]},"hereNow":{"count":0,"groups":[]}},{"id":"4ee2132e754a44a66d2a3eaa","name":"朱雀天皇 醍醐陵","contact":{},"location":{"address":"醍醐御陵東裏町","lat":34.95467366623508,"lng":135.82177385687828,"city":"京都市伏見区","state":"京都府","country":"Japan"},"categories":[{"id":"4bf58dd8d48988d15c941735","name":"Cemetery","pluralName":"Cemeteries","shortName":"Cemetery","icon":{"prefix":"https:\/\/foursquare.com\/img\/categories_v2\/parks_outdoors\/cemetery_","suffix":".png"},"primary":true}],"verified":false,"stats":{"checkinsCount":0,"usersCount":0,"tipCount":0},"likes":{"count":0,"groups":[]},"specials":{"count":0,"items":[]},"hereNow":{"count":0,"groups":[]}},{"id":"4d97f1049079b1f798e1200a","name":"醍醐寺 仁王門 (daigo ji niou mon)","contact":{"phone":"+81755710002","formattedPhone":"+81 75-571-0002"},"location":{"address":"伏見区醍醐東大路町22","lat":34.95142883243621,"lng":135.82024097442627,"postalCode":"601-1325","city":"京都市","state":"京都府","country":"Japan"},"categories":[{"id":"4bf58dd8d48988d13a941735","name":"Temple","pluralName":"Temples","shortName":"Temple","icon":{"prefix":"https:\/\/foursquare.com\/img\/categories_v2\/building\/religious_temple_","suffix":".png"},"primary":true}],"verified":false,"stats":{"checkinsCount":26,"usersCount":24,"tipCount":0},"likes":{"count":0,"groups":[]},"specials":{"count":0,"items":[]},"hereNow":{"count":0,"groups":[]}},{"id":"4f8463e6754a411b16145f61","name":"自宅","contact":{},"location":{"address":"醍醐","lat":34.95092538803981,"lng":135.82080960273743,"city":"京都市伏見区","country":"Japan"},"categories":[],"verified":false,"stats":{"checkinsCount":0,"usersCount":0,"tipCount":0},"likes":{"count":0,"groups":[]},"specials":{"count":0,"items":[]},"hereNow":{"count":0,"groups":[]}},{"id":"4c53cf2d1b46c9b6be1f90cd","name":"醍醐寺 霊宝館","contact":{},"location":{"lat":34.951162820716796,"lng":135.81960797309875,"country":"Japan"},"categories":[{"id":"4bf58dd8d48988d190941735","name":"History Museum","pluralName":"History Museums","shortName":"History Museum","icon":{"prefix":"https:\/\/foursquare.com\/img\/categories_v2\/arts_entertainment\/museum_history_","suffix":".png"},"primary":true}],"verified":false,"stats":{"checkinsCount":17,"usersCount":17,"tipCount":0},"likes":{"count":0,"groups":[]},"specials":{"count":0,"items":[]},"hereNow":{"count":0,"groups":[]}},{"id":"4c79e0cdbd346dcb3e23f7ef","name":"雨月茶屋","contact":{},"location":{"lat":34.951446,"lng":135.818598,"country":"Japan"},"categories":[{"id":"4bf58dd8d48988d111941735","name":"Japanese Restaurant","pluralName":"Japanese Restaurants","shortName":"Japanese","icon":{"prefix":"https:\/\/foursquare.com\/img\/categories_v2\/food\/japanese_","suffix":".png"},"primary":true}],"verified":false,"stats":{"checkinsCount":4,"usersCount":4,"tipCount":0},"likes":{"count":0,"groups":[]},"specials":{"count":0,"items":[]},"hereNow":{"count":0,"groups":[]}}]}}
