{"meta":{"code":200},"response":{"venues":[{"id":"4ed1b29b0e61efa332b04e50","name":"北小栗栖天神宮","contact":{},"location":{"lat":34.95133972167969,"lng":135.80653381347656,"country":"Japan"},"categories":[{"id":"4eb1d80a4b900d56c88a45ff","name":"Shrine","pluralName":"Shrines","shortName":"Shrine","icon":{"prefix":"https:\/\/foursquare.com\/img\/categories_v2\/building\/religious_shrine_","suffix":".png"},"primary":true}],"verified":false,"stats":{"checkinsCount":1,"usersCount":1,"tipCount":0},"likes":{"count":0,"groups":[]},"specials":{"count":0,"items":[]},"hereNow":{"count":0,"groups":[]}},{"id":"4d808894208a548134f77567","name":"サークルK 伏見醍醐大構店","contact":{"phone":"+81755752787","formattedPhone":"+81 75-575-2787"},"location":{"address":"醍醐大構町26-3","lat":34.947944230352135,"lng":135.81019341945648,"postalCode":"601-1366","city":"京都市伏見区","state":"京都府","country":"Japan"},"categories":[{"id":"4d954b0ea243a5684a65b473","name":"Convenience Store","pluralName":"Convenience Stores","shortName":"Convenience Stores","icon":{"prefix":"https:\/\/foursquare.com\/img\/categories_v2\/shops\/conveniencestore_","suffix":".png"},"primary":true}],"verified":false,"stats":{"checkinsCount":32,"usersCount":15,"tipCount":0},"likes":{"count":0,"groups":[]},"specials":{"count":0,"items":[]},"hereNow":{"count":0,"groups":[]}},{"id":"4cf71265e308236a04ece9ac","name":"洋風料理 レストラン 六三亭","contact":{},"location":{"address":"京都府京都市伏見区小栗栖牛ケ淵町37-2","crossStreet":"京都市伏見区","lat":34.94941617809802,"lng":135.8068368217942,"state":"京都府","country":"Japan"},"categories":[{"id":"4bf58dd8d48988d109941735","name":"Eastern European Restaurant","pluralName":"Eastern European Restaurants","shortName":"Eastern European","icon":{"prefix":"https:\/\/foursquare.com\/img\/categories_v2\/food\/default_","suffix":".png"},"primary":true}],"verified":false,"stats":{"checkinsCount":2,"usersCount":2,"tipCount":0},"likes":{"count":0,"groups":[]},"specials":{"count":0,"items":[]},"hereNow":{"count":0,"groups":[]}},{"id":"4dcdca0322718eed7a284b12","name":"折戸公園","contact":{},"location":{"lat":34.952118,"lng":135.80931,"city":"Kyoto","state":"Kyoto Prefecture","country":"Japan"},"categories":[{"id":"4bf58dd8d48988d1e7941735","name":"Playground","pluralName":"Playgrounds","shortName":"Playground","icon":{"prefix":"https:\/\/foursquare.com\/img\/categories_v2\/parks_outdoors\/playground_","suffix":".png"},"primary":true}],"verified":false,"stats":{"checkinsCount":1,"usersCount":1,"tipCount":0},"likes":{"count":0,"groups":[]},"specials":{"count":0,"items":[]},"hereNow":{"count":0,"groups":[]}},{"id":"4ce0c90d69136dcb60c8e5e6","name":"京都市醍醐総合庁舎","contact":{},"location":{"address":"伏見区醍醐大溝町","lat":34.94773596414204,"lng":135.80964893349034,"city":"京都市","country":"Japan"},"categories":[{"id":"4bf58dd8d48988d129941735","name":"City Hall","pluralName":"City Halls","shortName":"City Hall","icon":{"prefix":"https:\/\/foursquare.com\/img\/categories_v2\/building\/cityhall_","suffix":".png"},"primary":true}],"verified":false,"stats":{"checkinsCount":10,"usersCount":5,"tipCount":0},"likes":{"count":0,"groups":[]},"specials":{"count":0,"items":[]},"hereNow":{"count":0,"groups":[]}},{"id":"4b73bbcdf964a52006ba2de3","name":"京都市営地下鉄 東西線 醍醐駅","contact":{},"location":{"address":"醍醐高畑町30","crossStreet":"京都市営地下鉄東西線","lat":34.95083744983678,"lng":135.8106279373169,"city":"京都市伏見区","state":"京都府","country":"Japan"},"categories":[{"id":"4bf58dd8d48988d1fd931735","name":"Subway","pluralName":"Subways","shortName":"Subway","icon":{"prefix":"https:\/\/foursquare.com\/img\/categories_v2\/travel\/subway_","suffix":".png"},"primary":true}],"verified":false,"stats":{"checkinsCount":903,"usersCount":132,"tipCount":1},"likes":{"count":0,"groups":[]},"specials":{"count":0,"items":[]},"hereNow":{"count":0,"groups":[]}},{"id":"4c9c280246978cfa2fdd8b7f","name":"アル・プラザ 醍醐","contact":{"phone":"+81755756100","formattedPhone":"+81 75-575-6100"},"location":{"address":"醍醐高畑町1の37","lat":34.951162820716796,"lng":135.81121802330017,"postalCode":"601-1375","city":"京都市伏見区","state":"京都府","country":"Japan"},"categories":[{"id":"4bf58dd8d48988d1fd941735","name":"Mall","pluralName":"Malls","shortName":"Mall","icon":{"prefix":"https:\/\/foursquare.com\/img\/categories_v2\/shops\/mall_","suffix":".png"},"primary":true}],"verified":false,"stats":{"checkinsCount":393,"usersCount":89,"tipCount":0},"likes":{"count":0,"groups":[]},"specials":{"count":0,"items":[]},"hereNow":{"count":0,"groups":[]}},{"id":"4fc856b1e4b031d74b519922","name":"醍醐高畑交差点","contact":{},"location":{"address":"京都府京都市伏見区醍醐高畑町","lat":34.94946840335293,"lng":135.81028365046078,"country":"Japan"},"categories":[{"id":"4bf58dd8d48988d1f9931735","name":"Road","pluralName":"Roads","shortName":"Road","icon":{"prefix":"https:\/\/foursquare.com\/img\/categories_v2\/travel\/highway_","suffix":".png"},"primary":true}],"verified":false,"stats":{"checkinsCount":4,"usersCount":2,"tipCount":0},"likes":{"count":0,"groups":[]},"specials":{"count":0,"items":[]},"hereNow":{"count":0,"groups":[]}},{"id":"4d1089e3b765224bd037eb32","name":"セブンイレブン 醍醐大構町店","contact":{},"location":{"address":"伏見区醍醐大構町1-6","lat":34.94911823901829,"lng":135.8095121383667,"city":"京都市","state":"京都府","country":"Japan"},"categories":[{"id":"4d954b0ea243a5684a65b473","name":"Convenience Store","pluralName":"Convenience Stores","shortName":"Convenience Stores","icon":{"prefix":"https:\/\/foursquare.com\/img\/categories_v2\/shops\/conveniencestore_","suffix":".png"},"primary":true}],"verified":false,"stats":{"checkinsCount":63,"usersCount":19,"tipCount":1},"likes":{"count":0,"groups":[]},"specials":{"count":0,"items":[]},"hereNow":{"count":0,"groups":[]}},{"id":"4c58e7d5b05c1b8d04b4d4b1","name":"ヤマダ電機 テックランド京都醍醐店","contact":{"phone":"+81755751800","formattedPhone":"+81 75-575-1800"},"location":{"address":"伏見区醍醐","lat":34.9512983,"lng":135.810767,"city":"京都市","state":"京都府","country":"Japan"},"categories":[{"id":"4bf58dd8d48988d122951735","name":"Electronics Store","pluralName":"Electronics Stores","shortName":"Electronics","icon":{"prefix":"https:\/\/foursquare.com\/img\/categories_v2\/shops\/technology_","suffix":".png"},"primary":true}],"verified":false,"stats":{"checkinsCount":133,"usersCount":39,"tipCount":0},"likes":{"count":0,"groups":[]},"specials":{"count":0,"items":[]},"hereNow":{"count":0,"groups":[]}},{"id":"4d253b6d002f5481187c9ff3","name":"滋賀銀行 醍醐支店","contact":{"phone":"+81755725333","formattedPhone":"+81 75-572-5333"},"location":{"address":"伏見区醍醐御霊ヶ下町21-4","lat":34.94931995136168,"lng":135.81091560423374,"city":"京都市","state":"京都府","country":"Japan"},"categories":[{"id":"4bf58dd8d48988d10a951735","name":"Bank","pluralName":"Banks","shortName":"Bank \/ Financial","icon":{"prefix":"https:\/\/foursquare.com\/img\/categories_v2\/shops\/financial_","suffix":".png"},"primary":true}],"verified":false,"stats":{"checkinsCount":8,"usersCount":3,"tipCount":0},"likes":{"count":0,"groups":[]},"specials":{"count":0,"items":[]},"hereNow":{"count":0,"groups":[]}},{"id":"4f431100e4b08c6c289254ec","name":"たこ焼き あほや","contact":{},"location":{"lat":34.948595,"lng":135.809868,"country":"Japan"},"categories":[{"id":"4bf58dd8d48988d114941735","name":"Food Court","pluralName":"Food Courts","shortName":"Food Court","icon":{"prefix":"https:\/\/foursquare.com\/img\/categories_v2\/food\/foodcourt_","suffix":".png"},"primary":true}],"verified":false,"stats":{"checkinsCount":6,"usersCount":3,"tipCount":0},"likes":{"count":0,"groups":[]},"specials":{"count":0,"items":[]},"hereNow":{"count":0,"groups":[]}},{"id":"4cbb0738bac93704a24aef7c","name":"吉野家 外環状線醍醐店","contact":{"phone":"+81755752033","formattedPhone":"+81 75-575-2033"},"location":{"address":"伏見区醍醐大構町15-5","lat":34.94880715034414,"lng":135.8103033900261,"postalCode":"601-1366","city":"京都市","state":"京都府","country":"Japan"},"categories":[{"id":"4bf58dd8d48988d16e941735","name":"Fast Food Restaurant","pluralName":"Fast Food Restaurants","shortName":"Fast Food","icon":{"prefix":"https:\/\/foursquare.com\/img\/categories_v2\/food\/fastfood_","suffix":".png"},"primary":true}],"verified":false,"stats":{"checkinsCount":28,"usersCount":10,"tipCount":0},"likes":{"count":0,"groups":[]},"specials":{"count":0,"items":[]},"hereNow":{"count":0,"groups":[]}},{"id":"4e8303e54690ac9d4a120bbe","name":"醍醐バスターミナル","contact":{},"location":{"lat":34.94990585500491,"lng":135.8108210816416,"city":"京都市","state":"京都府","country":"Japan"},"categories":[{"id":"4bf58dd8d48988d1fe931735","name":"Bus Station","pluralName":"Bus Stations","shortName":"Bus Station","icon":{"prefix":"https:\/\/foursquare.com\/img\/categories_v2\/travel\/busstation_","suffix":".png"},"primary":true}],"verified":false,"stats":{"checkinsCount":16,"usersCount":11,"tipCount":0},"likes":{"count":0,"groups":[]},"specials":{"count":0,"items":[]},"hereNow":{"count":0,"groups":[]}},{"id":"4be4cb0e910020a1ed4bd214","name":"醍醐渡辺クリニック","contact":{},"location":{"address":"伏見区醍醐高畑町30-15","lat":34.94972,"lng":135.810281,"city":"京都市","state":"京都府","country":"Japan"},"categories":[],"verified":false,"stats":{"checkinsCount":21,"usersCount":6,"tipCount":0},"likes":{"count":0,"groups":[]},"specials":{"count":0,"items":[]},"hereNow":{"count":0,"groups":[]}},{"id":"4c2303449085d13a124887cc","name":"French Dog","contact":{"phone":"+81755730990","formattedPhone":"+81 75-573-0990"},"location":{"address":"醍醐大溝町14-1","lat":34.94845428861702,"lng":135.81015050411224,"postalCode":"601-1366","city":"京都市伏見区","state":"京都府","country":"Japan"},"categories":[{"id":"4bf58dd8d48988d16c941735","name":"Burger Joint","pluralName":"Burger Joints","shortName":"Burgers","icon":{"prefix":"https:\/\/foursquare.com\/img\/categories_v2\/food\/burger_","suffix":".png"},"primary":true}],"verified":false,"stats":{"checkinsCount":9,"usersCount":6,"tipCount":1},"likes":{"count":0,"groups":[]},"specials":{"count":0,"items":[]},"hereNow":{"count":0,"groups":[]}},{"id":"4e38cdc32271aebfeacf29f4","name":"京都中央信用金庫 醍醐支店","contact":{"phone":"+81755717373","formattedPhone":"+81 75-571-7373"},"location":{"address":"伏見区醍醐大構町12番地","lat":34.949306210754585,"lng":135.80998688936234,"city":"京都市","state":"京都府","country":"Japan"},"categories":[{"id":"4bf58dd8d48988d10a951735","name":"Bank","pluralName":"Banks","shortName":"Bank \/ Financial","icon":{"prefix":"https:\/\/foursquare.com\/img\/categories_v2\/shops\/financial_","suffix":".png"},"primary":true}],"verified":false,"stats":{"checkinsCount":2,"usersCount":2,"tipCount":0},"likes":{"count":0,"groups":[]},"specials":{"count":0,"items":[]},"hereNow":{"count":0,"groups":[]}},{"id":"4e12a1c1b0fbfef99b9c6ee8","name":"パセオダイゴロー 郵便局","contact":{"phone":"+81755729777","formattedPhone":"+81 75-572-9777"},"location":{"address":"伏見区醍醐高畑町30-1","lat":34.949909696047456,"lng":135.81020951271057,"postalCode":"601-1375","city":"京都市","state":"京都府","country":"Japan"},"categories":[{"id":"4bf58dd8d48988d172941735","name":"Post Office","pluralName":"Post Offices","shortName":"Post Office","icon":{"prefix":"https:\/\/foursquare.com\/img\/categories_v2\/building\/postoffice_","suffix":".png"},"primary":true}],"verified":false,"stats":{"checkinsCount":5,"usersCount":3,"tipCount":0},"likes":{"count":0,"groups":[]},"specials":{"count":0,"items":[]},"hereNow":{"count":0,"groups":[]}},{"id":"4d36704248098cfa50ce4617","name":"マツノキ薬局","contact":{},"location":{"lat":34.949643,"lng":135.810314,"country":"Japan"},"categories":[],"verified":false,"stats":{"checkinsCount":2,"usersCount":1,"tipCount":0},"likes":{"count":0,"groups":[]},"specials":{"count":0,"items":[]},"hereNow":{"count":0,"groups":[]}},{"id":"4d86e6ef61676dcb26a6a9e4","name":"フラワーショップＫＡＺ","contact":{},"location":{"address":"京都府京都市伏見区醍醐高畑町１−３７","lat":34.94991,"lng":135.810535,"postalCode":"〒601-1375","city":"Kyoto","state":"Kyoto Prefecture","country":"Japan"},"categories":[{"id":"4bf58dd8d48988d11b951735","name":"Flower Shop","pluralName":"Flower Shops","shortName":"Flower Shop","icon":{"prefix":"https:\/\/foursquare.com\/img\/categories_v2\/shops\/flowershop_","suffix":".png"},"primary":true}],"verified":false,"stats":{"checkinsCount":2,"usersCount":1,"tipCount":0},"likes":{"count":0,"groups":[]},"specials":{"count":0,"items":[]},"hereNow":{"count":0,"groups":[]}},{"id":"4f83fbd4e4b0443298e49ba3","name":"エーリン醍醐店","contact":{},"location":{"lat":34.94869395702311,"lng":135.81004273499735,"country":"Japan"},"categories":[{"id":"4bf58dd8d48988d115951735","name":"Bike Shop","pluralName":"Bike Shops","shortName":"Bike shop","icon":{"prefix":"https:\/\/foursquare.com\/img\/categories_v2\/shops\/bikeshop_","suffix":".png"},"primary":true}],"verified":false,"stats":{"checkinsCount":1,"usersCount":1,"tipCount":0},"likes":{"count":0,"groups":[]},"specials":{"count":0,"items":[]},"hereNow":{"count":0,"groups":[]}},{"id":"4f8e5d6a754a5ada7ab85070","name":"フレンチドッグ","contact":{"phone":"+81755730990","formattedPhone":"+81 75-573-0990"},"location":{"address":"醍醐大構町14-1","lat":34.94850705308401,"lng":135.8101236820221,"city":"京都市伏見区","state":"京都府","country":"Japan"},"categories":[{"id":"4bf58dd8d48988d16c941735","name":"Burger Joint","pluralName":"Burger Joints","shortName":"Burgers","icon":{"prefix":"https:\/\/foursquare.com\/img\/categories_v2\/food\/burger_","suffix":".png"},"primary":true}],"verified":false,"stats":{"checkinsCount":0,"usersCount":0,"tipCount":0},"likes":{"count":0,"groups":[]},"specials":{"count":0,"items":[]},"hereNow":{"count":0,"groups":[]}},{"id":"4f8e5eea754a5ada7ab87388","name":"フレンチドッグ （French Dog）","contact":{"phone":"+81755730990","formattedPhone":"+81 75-573-0990"},"location":{"address":"醍醐大構町14-1","lat":34.9483927300293,"lng":135.81011295318604,"city":"京都市伏見区","state":"京都府","country":"Japan"},"categories":[{"id":"4bf58dd8d48988d16c941735","name":"Burger Joint","pluralName":"Burger Joints","shortName":"Burgers","icon":{"prefix":"https:\/\/foursquare.com\/img\/categories_v2\/food\/burger_","suffix":".png"},"primary":true}],"verified":false,"stats":{"checkinsCount":0,"usersCount":0,"tipCount":0},"likes":{"count":0,"groups":[]},"specials":{"count":0,"items":[]},"hereNow":{"count":0,"groups":[]}},{"id":"4b5bbff9f964a520121429e3","name":"パセオ ダイゴロー","contact":{},"location":{"address":"醍醐高畑町30-1","lat":34.95182015389247,"lng":135.81056088209152,"postalCode":"601-1375","city":"京都市伏見区","state":"京都府","country":"Japan"},"categories":[{"id":"4bf58dd8d48988d1fd941735","name":"Mall","pluralName":"Malls","shortName":"Mall","icon":{"prefix":"https:\/\/foursquare.com\/img\/categories_v2\/shops\/mall_","suffix":".png"},"primary":true}],"verified":false,"stats":{"checkinsCount":92,"usersCount":37,"tipCount":0},"likes":{"count":0,"groups":[]},"specials":{"count":0,"items":[]},"hereNow":{"count":0,"groups":[]}},{"id":"4d7074bfcbc58cfa47867272","name":"大垣書店 パセオダイゴロー店","contact":{},"location":{"lat":34.951065,"lng":135.81073633333332,"country":"Japan"},"categories":[{"id":"4bf58dd8d48988d114951735","name":"Bookstore","pluralName":"Bookstores","shortName":"Bookstore","icon":{"prefix":"https:\/\/foursquare.com\/img\/categories_v2\/shops\/bookstore_","suffix":".png"},"primary":true}],"verified":false,"stats":{"checkinsCount":45,"usersCount":11,"tipCount":0},"likes":{"count":0,"groups":[]},"specials":{"count":0,"items":[]},"hereNow":{"count":0,"groups":[]}},{"id":"4e2169431f6effe84f709feb","name":"スギ薬局 アルプラザ醍醐店","contact":{},"location":{"address":"醍醐高畑町1-37","crossStreet":"アルプラザ醍醐2F","lat":34.95133459568024,"lng":135.81085324287415,"city":"京都市伏見区","state":"京都府","country":"Japan"},"categories":[{"id":"4bf58dd8d48988d10f951735","name":"Drugstore \/ Pharmacy","pluralName":"Drugstores \/ Pharmacies","shortName":"Pharmacy","icon":{"prefix":"https:\/\/foursquare.com\/img\/categories_v2\/shops\/pharmacy_","suffix":".png"},"primary":true}],"verified":false,"stats":{"checkinsCount":14,"usersCount":4,"tipCount":0},"likes":{"count":0,"groups":[]},"specials":{"count":0,"items":[]},"hereNow":{"count":0,"groups":[]}},{"id":"4ecdc3a5722e01c57f5de4fd","name":"耳鼻咽喉科 たかきたクリニック","contact":{},"location":{"lat":34.951114,"lng":135.811141,"city":"京都市","state":"京都府","country":"Japan"},"categories":[{"id":"4bf58dd8d48988d177941735","name":"Doctor's Office","pluralName":"Doctor's Offices","shortName":"Doctor's Office","icon":{"prefix":"https:\/\/foursquare.com\/img\/categories_v2\/building\/medical_","suffix":".png"},"primary":true}],"verified":false,"stats":{"checkinsCount":3,"usersCount":2,"tipCount":0},"likes":{"count":0,"groups":[]},"specials":{"count":0,"items":[]},"hereNow":{"count":0,"groups":[]}},{"id":"4fa796cde4b00f7196a51927","name":"四六時中 パセオダイゴロー店","contact":{},"location":{"lat":34.951236,"lng":135.810556,"country":"Japan"},"categories":[{"id":"4bf58dd8d48988d1c4941735","name":"Restaurant","pluralName":"Restaurants","shortName":"Other - Food","icon":{"prefix":"https:\/\/foursquare.com\/img\/categories_v2\/food\/default_","suffix":".png"},"primary":true}],"verified":false,"stats":{"checkinsCount":3,"usersCount":1,"tipCount":0},"likes":{"count":0,"groups":[]},"specials":{"count":0,"items":[]},"hereNow":{"count":0,"groups":[]}},{"id":"4e3b7913ae604542364b31ae","name":"フィットネスクラブ コ・ス・パ 伏見ダイゴロー","contact":{"phone":"+81755755100","formattedPhone":"+81 75-575-5100"},"location":{"address":"醍醐高畑町30-1-2-38","crossStreet":"パセオダイゴロー西館5F","lat":34.95110566106112,"lng":135.81048846244812,"postalCode":"6011375","city":"京都市伏見区","state":"京都府","country":"Japan"},"categories":[{"id":"4bf58dd8d48988d176941735","name":"Gym","pluralName":"Gyms","shortName":"Gym","icon":{"prefix":"https:\/\/foursquare.com\/img\/categories_v2\/building\/gym_","suffix":".png"},"primary":true}],"verified":false,"stats":{"checkinsCount":19,"usersCount":2,"tipCount":0},"likes":{"count":0,"groups":[]},"specials":{"count":0,"items":[]},"hereNow":{"count":0,"groups":[]}},{"id":"4e2b9c4cfa76bbf847dbf81e","name":"桃園亭 パセオ・ダイゴロー店","contact":{},"location":{"lat":34.9506791608336,"lng":135.81011295318604,"country":"Japan"},"categories":[{"id":"4bf58dd8d48988d145941735","name":"Chinese Restaurant","pluralName":"Chinese Restaurants","shortName":"Chinese","icon":{"prefix":"https:\/\/foursquare.com\/img\/categories_v2\/food\/chinese_","suffix":".png"},"primary":true}],"verified":false,"stats":{"checkinsCount":14,"usersCount":6,"tipCount":0},"likes":{"count":0,"groups":[]},"specials":{"count":0,"items":[]},"hereNow":{"count":0,"groups":[]}},{"id":"4c2fd5ff16adc928c14dbe9c","name":"醍醐中央図書館","contact":{"phone":"+81755752584","formattedPhone":"+81 75-575-2584"},"location":{"address":"醍醐高畑町30-1","crossStreet":"パセオ・ダイゴロー西館4階","lat":34.951237567898694,"lng":135.81049919128418,"city":"京都市伏見区","state":"京都府","country":"Japan"},"categories":[{"id":"4bf58dd8d48988d12f941735","name":"Library","pluralName":"Libraries","shortName":"Library","icon":{"prefix":"https:\/\/foursquare.com\/img\/categories_v2\/building\/library_","suffix":".png"},"primary":true}],"verified":false,"stats":{"checkinsCount":22,"usersCount":14,"tipCount":1},"likes":{"count":0,"groups":[]},"specials":{"count":0,"items":[]},"hereNow":{"count":0,"groups":[]}},{"id":"4ef9bff0d3e354f0bf1d19b3","name":"京都市醍醐駐車場","contact":{},"location":{"lat":34.95087702203981,"lng":135.8102685213089,"country":"Japan"},"categories":[{"id":"4c38df4de52ce0d596b336e1","name":"Parking","pluralName":"Parking","shortName":"Parking","icon":{"prefix":"https:\/\/foursquare.com\/img\/categories_v2\/building\/parking_","suffix":".png"},"primary":true}],"verified":false,"stats":{"checkinsCount":8,"usersCount":2,"tipCount":0},"likes":{"count":0,"groups":[]},"specials":{"count":0,"items":[]},"hereNow":{"count":0,"groups":[]}},{"id":"4fbc76cee4b0d45a091d2eda","name":"cafe 33","contact":{},"location":{"lat":34.95121855666118,"lng":135.81073768675176,"country":"Japan"},"categories":[{"id":"4bf58dd8d48988d16d941735","name":"Café","pluralName":"Cafés","shortName":"Café","icon":{"prefix":"https:\/\/foursquare.com\/img\/categories_v2\/food\/cafe_","suffix":".png"},"primary":true}],"verified":false,"stats":{"checkinsCount":1,"usersCount":1,"tipCount":0},"likes":{"count":0,"groups":[]},"specials":{"count":0,"items":[]},"hereNow":{"count":0,"groups":[]}},{"id":"4f7ebe42e4b0831516419d21","name":"ホーリーズカフェ パセオダイゴロー店","contact":{},"location":{"lat":34.951295,"lng":135.81118,"country":"Japan"},"categories":[{"id":"4bf58dd8d48988d16d941735","name":"Café","pluralName":"Cafés","shortName":"Café","icon":{"prefix":"https:\/\/foursquare.com\/img\/categories_v2\/food\/cafe_","suffix":".png"},"primary":true}],"verified":false,"stats":{"checkinsCount":4,"usersCount":2,"tipCount":0},"likes":{"count":0,"groups":[]},"specials":{"count":0,"items":[]},"hereNow":{"count":0,"groups":[]}},{"id":"4e264195b61ce3fb054d51eb","name":"コマツ眼科医院","contact":{},"location":{"lat":34.95122,"lng":135.810758,"city":"京都市","state":"京都府","country":"Japan"},"categories":[{"id":"4bf58dd8d48988d196941735","name":"Hospital","pluralName":"Hospitals","shortName":"Hospital","icon":{"prefix":"https:\/\/foursquare.com\/img\/categories_v2\/building\/medical_hospital_","suffix":".png"},"primary":true}],"verified":false,"stats":{"checkinsCount":1,"usersCount":1,"tipCount":0},"likes":{"count":0,"groups":[]},"specials":{"count":0,"items":[]},"hereNow":{"count":0,"groups":[]}},{"id":"4ddc908fd4c082f960ca130e","name":"サーティワン アイスクリーム アル・プラザ醍醐店","contact":{"phone":"+81755754180","formattedPhone":"+81 75-575-4180"},"location":{"address":"伏見区醍醐高畑町1-37","lat":34.95107942569707,"lng":135.8109183758637,"city":"Kyoto","state":"Kyoto Prefecture","country":"Japan"},"categories":[{"id":"4bf58dd8d48988d1c9941735","name":"Ice Cream Shop","pluralName":"Ice Cream Shops","shortName":"Ice Cream","icon":{"prefix":"https:\/\/foursquare.com\/img\/categories_v2\/food\/icecream_","suffix":".png"},"primary":true}],"verified":false,"stats":{"checkinsCount":12,"usersCount":6,"tipCount":0},"likes":{"count":0,"groups":[]},"specials":{"count":0,"items":[]},"hereNow":{"count":0,"groups":[]}},{"id":"4fa122817b0ce936060df3db","name":"スガキヤ　醍醐アルプラザ店","contact":{"phone":"+81755731053","formattedPhone":"+81 75-573-1053"},"location":{"address":"醍醐高畑町1-37","crossStreet":"アルプラザ醍醐店1階","lat":34.95118920208291,"lng":135.81110000610352,"postalCode":"601-1375","city":"京都市伏見区","state":"京都府","country":"Japan"},"categories":[{"id":"4bf58dd8d48988d1d1941735","name":"Ramen \/  Noodle House","pluralName":"Ramen \/  Noodle House","shortName":"Ramen \/ Noodles","icon":{"prefix":"https:\/\/foursquare.com\/img\/categories_v2\/food\/ramen_","suffix":".png"},"primary":true}],"verified":false,"stats":{"checkinsCount":1,"usersCount":1,"tipCount":0},"likes":{"count":0,"groups":[]},"specials":{"count":0,"items":[]},"hereNow":{"count":0,"groups":[]}},{"id":"4d941a33b550a093a4437f87","name":"醍醐駅タクシーのりば","contact":{},"location":{"lat":34.952255441857034,"lng":135.81072986125946,"country":"Japan"},"categories":[{"id":"4bf58dd8d48988d130951735","name":"Taxi","pluralName":"Taxis","shortName":"Taxi","icon":{"prefix":"https:\/\/foursquare.com\/img\/categories_v2\/travel\/taxi_","suffix":".png"},"primary":true}],"verified":false,"stats":{"checkinsCount":18,"usersCount":1,"tipCount":0},"likes":{"count":0,"groups":[]},"specials":{"count":0,"items":[]},"hereNow":{"count":0,"groups":[]}},{"id":"4ba485a6f964a52022a238e3","name":"ホリーズカフェ アルプラザ醍醐店","contact":{},"location":{"address":"伏見区醍醐高畑町1-35","lat":34.951391458940954,"lng":135.81132531166077,"city":"京都市","state":"京都府","country":"Japan"},"categories":[{"id":"4bf58dd8d48988d1e0931735","name":"Coffee Shop","pluralName":"Coffee Shops","shortName":"Coffee Shop","icon":{"prefix":"https:\/\/foursquare.com\/img\/categories_v2\/food\/coffeeshop_","suffix":".png"},"primary":true}],"verified":false,"stats":{"checkinsCount":2,"usersCount":1,"tipCount":1},"likes":{"count":0,"groups":[]},"specials":{"count":0,"items":[]},"hereNow":{"count":0,"groups":[]}},{"id":"4f87b5d9e4b02c41759154ff","name":"京都パセオ・ダイゴロー郵便局","contact":{},"location":{"lat":34.952014,"lng":135.811284,"country":"Japan"},"categories":[{"id":"4bf58dd8d48988d172941735","name":"Post Office","pluralName":"Post Offices","shortName":"Post Office","icon":{"prefix":"https:\/\/foursquare.com\/img\/categories_v2\/building\/postoffice_","suffix":".png"},"primary":true}],"verified":false,"stats":{"checkinsCount":2,"usersCount":2,"tipCount":0},"likes":{"count":0,"groups":[]},"specials":{"count":0,"items":[]},"hereNow":{"count":0,"groups":[]}}]}}
