{"meta":{"code":200},"response":{"venues":[{"id":"4d5f868a29ef236a27fe9959","name":"伏見青少年活動センター","contact":{"phone":"+81756114910","formattedPhone":"+81 75-611-4910"},"location":{"address":"鷹匠町39-2","lat":34.93597457516064,"lng":135.76090287421903,"postalCode":"612-8511","city":"京都市伏見区","state":"京都府","country":"Japan"},"categories":[{"id":"4bf58dd8d48988d19a941735","name":"College Communications Building","pluralName":"College Communications Buildings","shortName":"Communications","icon":{"prefix":"https:\/\/foursquare.com\/img\/categories_v2\/education\/collegeacademicbuildings_communications_","suffix":".png"},"primary":true}],"verified":false,"stats":{"checkinsCount":36,"usersCount":7,"tipCount":2},"likes":{"count":0,"groups":[]},"specials":{"count":0,"items":[]},"hereNow":{"count":0,"groups":[]}},{"id":"4de844d288774aa92c9bd9ea","name":"花パソ","contact":{"phone":"+81756126099","formattedPhone":"+81 75-612-6099"},"location":{"address":"東町206","lat":34.935378,"lng":135.760259,"city":"Kyoto","state":"Kyoto Prefecture","country":"Japan"},"categories":[{"id":"4bf58dd8d48988d1a2941735","name":"Community College","pluralName":"Community Colleges","shortName":"Community College","icon":{"prefix":"https:\/\/foursquare.com\/img\/categories_v2\/education\/communitycollege_","suffix":".png"},"primary":true}],"verified":false,"stats":{"checkinsCount":2,"usersCount":1,"tipCount":0},"likes":{"count":0,"groups":[]},"specials":{"count":0,"items":[]},"hereNow":{"count":0,"groups":[]}},{"id":"4f7141ece4b0684643a059e1","name":"京都市立伏見中学校","contact":{},"location":{"lat":34.937721252441406,"lng":135.75994873046875,"country":"Japan"},"categories":[{"id":"4f4533814b9074f6e4fb0106","name":"Middle School","pluralName":"Middle Schools","shortName":"Middle School","icon":{"prefix":"https:\/\/foursquare.com\/img\/categories_v2\/building\/school_","suffix":".png"},"primary":true}],"verified":false,"stats":{"checkinsCount":0,"usersCount":0,"tipCount":0},"likes":{"count":0,"groups":[]},"specials":{"count":0,"items":[]},"hereNow":{"count":0,"groups":[]}},{"id":"4de8b9ba227148fcea35a932","name":"Ameiro","contact":{"phone":"+81756032282","formattedPhone":"+81 75-603-2282"},"location":{"address":"伏見区肥後町385-16","lat":34.935452,"lng":135.758107,"city":"Kyoto","state":"Kyoto Prefecture","country":"Japan"},"categories":[{"id":"4bf58dd8d48988d116951735","name":"Antique Shop","pluralName":"Antique Shops","shortName":"Antiques","icon":{"prefix":"https:\/\/foursquare.com\/img\/categories_v2\/shops\/antique_","suffix":".png"},"primary":true}],"verified":false,"stats":{"checkinsCount":3,"usersCount":2,"tipCount":0},"likes":{"count":0,"groups":[]},"specials":{"count":0,"items":[]},"hereNow":{"count":0,"groups":[]}},{"id":"4f3839230cd697b1c8eb36a3","name":"肥後町 バス停","contact":{},"location":{"address":"伏見区 肥後町・西町","crossStreet":"市バス81・特81系統","lat":34.93610646968832,"lng":135.75849384069443,"city":"京都市","state":"京都府","country":"Japan"},"categories":[{"id":"4bf58dd8d48988d1fe931735","name":"Bus Station","pluralName":"Bus Stations","shortName":"Bus Station","icon":{"prefix":"https:\/\/foursquare.com\/img\/categories_v2\/travel\/busstation_","suffix":".png"},"primary":true}],"verified":false,"stats":{"checkinsCount":0,"usersCount":0,"tipCount":0},"likes":{"count":0,"groups":[]},"specials":{"count":0,"items":[]},"hereNow":{"count":0,"groups":[]}},{"id":"4ed9a060f790c04544cea237","name":"旧薩摩藩邸","contact":{},"location":{"address":"京都府","lat":34.93763900734849,"lng":135.75898683417213,"country":"Japan"},"categories":[{"id":"4deefb944765f83613cdba6e","name":"Historic Site","pluralName":"Historic Sites","shortName":"Historic Site","icon":{"prefix":"https:\/\/foursquare.com\/img\/categories_v2\/arts_entertainment\/historicsite_","suffix":".png"},"primary":true}],"verified":false,"stats":{"checkinsCount":8,"usersCount":7,"tipCount":0},"likes":{"count":0,"groups":[]},"specials":{"count":0,"items":[]},"hereNow":{"count":0,"groups":[]}},{"id":"4efc1eccc2ee80dc2e56fcb0","name":"下板橋","contact":{},"location":{"address":"御駕籠町","lat":34.93764125349382,"lng":135.75918450951576,"city":"京都市伏見区","state":"京都府","country":"Japan"},"categories":[{"id":"4bf58dd8d48988d1df941735","name":"Bridge","pluralName":"Bridges","shortName":"Bridge","icon":{"prefix":"https:\/\/foursquare.com\/img\/categories_v2\/parks_outdoors\/bridge_","suffix":".png"},"primary":true}],"verified":false,"stats":{"checkinsCount":0,"usersCount":0,"tipCount":0},"likes":{"count":0,"groups":[]},"specials":{"count":0,"items":[]},"hereNow":{"count":0,"groups":[]}},{"id":"4da29bd50f578cfaa6b0a618","name":"薩摩島津伏見屋敷跡","contact":{},"location":{"address":"伏見区東堺町472","lat":34.938002,"lng":135.75908,"postalCode":"612-8066","city":"京都市","state":"京都府","country":"Japan"},"categories":[{"id":"4deefb944765f83613cdba6e","name":"Historic Site","pluralName":"Historic Sites","shortName":"Historic Site","icon":{"prefix":"https:\/\/foursquare.com\/img\/categories_v2\/arts_entertainment\/historicsite_","suffix":".png"},"primary":true}],"verified":false,"stats":{"checkinsCount":2,"usersCount":2,"tipCount":0},"likes":{"count":0,"groups":[]},"specials":{"count":0,"items":[]},"hereNow":{"count":0,"groups":[]}}]}}
