{"meta":{"code":200},"response":{"venues":[{"id":"4dcacc8b7d8bc0c0b8862c49","name":"自宅","contact":{},"location":{"isFuzzed":true,"lat":34.95635730834241,"lng":135.81373767782313,"city":"京都市伏見区醍醐折戸町8番地1","state":"京都府","country":"Japan"},"categories":[{"id":"4bf58dd8d48988d103941735","name":"Home (private)","pluralName":"Homes (private)","shortName":"Home","icon":{"prefix":"https:\/\/foursquare.com\/img\/categories_v2\/building\/home_","suffix":".png"},"primary":true}],"verified":false,"stats":{"checkinsCount":2,"usersCount":2,"tipCount":0},"likes":{"count":0,"groups":[]},"hereNow":{"count":0,"groups":[]}},{"id":"4f337efbe4b0befff0231c7b","name":"JAVA ノーブラシ洗車 伏見醍醐店","contact":{},"location":{"lat":34.954841356377244,"lng":135.81134461955315,"city":"京都市伏見区","state":"京都府","country":"Japan"},"categories":[{"id":"4f04ae1f2fb6e1c99f3db0ba","name":"Car Wash","pluralName":"Car Wash","shortName":"Car Wash","icon":{"prefix":"https:\/\/foursquare.com\/img\/categories_v2\/shops\/carwash_","suffix":".png"},"primary":true}],"verified":false,"stats":{"checkinsCount":2,"usersCount":2,"tipCount":0},"likes":{"count":0,"groups":[]},"specials":{"count":0,"items":[]},"hereNow":{"count":0,"groups":[]}},{"id":"4b5bbff9f964a520121429e3","name":"パセオ ダイゴロー","contact":{},"location":{"address":"醍醐高畑町30-1","lat":34.95182015389247,"lng":135.81056088209152,"postalCode":"601-1375","city":"京都市伏見区","state":"京都府","country":"Japan"},"categories":[{"id":"4bf58dd8d48988d1fd941735","name":"Mall","pluralName":"Malls","shortName":"Mall","icon":{"prefix":"https:\/\/foursquare.com\/img\/categories_v2\/shops\/mall_","suffix":".png"},"primary":true}],"verified":false,"stats":{"checkinsCount":92,"usersCount":37,"tipCount":0},"likes":{"count":0,"groups":[]},"specials":{"count":0,"items":[]},"hereNow":{"count":0,"groups":[]}},{"id":"4f2e17c7e4b0bd78b793d07e","name":"京都市立醍醐西小学校","contact":{"phone":"+81755720221","formattedPhone":"+81 75-572-0221"},"location":{"address":"日本","lat":34.953189849853516,"lng":135.81202697753906,"city":"京都市","state":"京都府","country":"Japan"},"categories":[{"id":"4bf58dd8d48988d13b941735","name":"School","pluralName":"Schools","shortName":"School","icon":{"prefix":"https:\/\/foursquare.com\/img\/categories_v2\/building\/school_","suffix":".png"},"primary":true}],"verified":false,"stats":{"checkinsCount":2,"usersCount":2,"tipCount":0},"likes":{"count":0,"groups":[]},"specials":{"count":0,"items":[]},"hereNow":{"count":0,"groups":[]}},{"id":"4bb6ee7f2f70c9b68f2a8630","name":"マクドナルド 醍醐アルプラザ店","contact":{"phone":"+81755751530","formattedPhone":"+81 75-575-1530"},"location":{"address":"伏見区醍醐高畑町1-37","lat":34.951558540316896,"lng":135.811368227005,"postalCode":"601-1375","city":"京都市","state":"京都府","country":"Japan"},"categories":[{"id":"4bf58dd8d48988d16c941735","name":"Burger Joint","pluralName":"Burger Joints","shortName":"Burgers","icon":{"prefix":"https:\/\/foursquare.com\/img\/categories_v2\/food\/burger_","suffix":".png"},"primary":true}],"verified":false,"stats":{"checkinsCount":25,"usersCount":12,"tipCount":0},"likes":{"count":0,"groups":[]},"specials":{"count":0,"items":[]},"hereNow":{"count":0,"groups":[]}},{"id":"4de9ddbe1f6e3ddebdbd2d66","name":"醍醐西公園","contact":{},"location":{"address":"日本","lat":34.95201827617632,"lng":135.81246121072374,"city":"京都市","state":"京都府","country":"Japan"},"categories":[],"verified":false,"stats":{"checkinsCount":5,"usersCount":2,"tipCount":0},"likes":{"count":0,"groups":[]},"specials":{"count":0,"items":[]},"hereNow":{"count":0,"groups":[]}},{"id":"4f87b5d9e4b02c41759154ff","name":"京都パセオ・ダイゴロー郵便局","contact":{},"location":{"lat":34.952014,"lng":135.811284,"country":"Japan"},"categories":[{"id":"4bf58dd8d48988d172941735","name":"Post Office","pluralName":"Post Offices","shortName":"Post Office","icon":{"prefix":"https:\/\/foursquare.com\/img\/categories_v2\/building\/postoffice_","suffix":".png"},"primary":true}],"verified":false,"stats":{"checkinsCount":2,"usersCount":2,"tipCount":0},"likes":{"count":0,"groups":[]},"specials":{"count":0,"items":[]},"hereNow":{"count":0,"groups":[]}},{"id":"4d941a33b550a093a4437f87","name":"醍醐駅タクシーのりば","contact":{},"location":{"lat":34.952255441857034,"lng":135.81072986125946,"country":"Japan"},"categories":[{"id":"4bf58dd8d48988d130951735","name":"Taxi","pluralName":"Taxis","shortName":"Taxi","icon":{"prefix":"https:\/\/foursquare.com\/img\/categories_v2\/travel\/taxi_","suffix":".png"},"primary":true}],"verified":false,"stats":{"checkinsCount":18,"usersCount":1,"tipCount":0},"likes":{"count":0,"groups":[]},"specials":{"count":0,"items":[]},"hereNow":{"count":0,"groups":[]}},{"id":"4bb1ea56f964a5206baa3ce3","name":"ラーメン横綱 醍醐店","contact":{"phone":"+81755734527","formattedPhone":"+81 75-573-4527"},"location":{"address":"醍醐川久保町23-13","lat":34.955097947337336,"lng":135.81207633018494,"postalCode":"601-1378","city":"京都市伏見区","state":"京都府","country":"Japan"},"categories":[{"id":"4bf58dd8d48988d1d1941735","name":"Ramen \/  Noodle House","pluralName":"Ramen \/  Noodle House","shortName":"Ramen \/ Noodles","icon":{"prefix":"https:\/\/foursquare.com\/img\/categories_v2\/food\/ramen_","suffix":".png"},"primary":true}],"verified":false,"stats":{"checkinsCount":128,"usersCount":63,"tipCount":1},"likes":{"count":0,"groups":[]},"specials":{"count":0,"items":[]},"hereNow":{"count":0,"groups":[]}},{"id":"4f719ceee4b077eb93408105","name":"医療法人松寿会共和病院","contact":{},"location":{"lat":34.95509536989675,"lng":135.81159480783754,"country":"Japan"},"categories":[{"id":"4bf58dd8d48988d104941735","name":"Medical Center","pluralName":"Medical Centers","shortName":"Medical","icon":{"prefix":"https:\/\/foursquare.com\/img\/categories_v2\/building\/medical_","suffix":".png"},"primary":true}],"verified":false,"stats":{"checkinsCount":17,"usersCount":1,"tipCount":0},"likes":{"count":0,"groups":[]},"specials":{"count":0,"items":[]},"hereNow":{"count":0,"groups":[]}},{"id":"4d415f6caae1b1f7ae648ff5","name":"餃子の王将 醍醐店","contact":{},"location":{"address":"醍醐川久保町21-7","lat":34.953910834066015,"lng":135.811727643013,"postalCode":"601-1378","city":"京都市伏見区","state":"京都府","country":"Japan"},"categories":[{"id":"4bf58dd8d48988d145941735","name":"Chinese Restaurant","pluralName":"Chinese Restaurants","shortName":"Chinese","icon":{"prefix":"https:\/\/foursquare.com\/img\/categories_v2\/food\/chinese_","suffix":".png"},"primary":true}],"verified":false,"stats":{"checkinsCount":37,"usersCount":11,"tipCount":0},"likes":{"count":0,"groups":[]},"specials":{"count":0,"items":[]},"hereNow":{"count":0,"groups":[]}},{"id":"4d15793de190721e52410f21","name":"ガスト 京都醍醐店","contact":{"phone":"+81755752246","formattedPhone":"+81 75-575-2246"},"location":{"address":"伏見区醍醐川久保町26-9","lat":34.95445822732171,"lng":135.81148624420166,"postalCode":"601-1378","city":"京都市","state":"京都府","country":"Japan"},"categories":[{"id":"4bf58dd8d48988d1c4941735","name":"Restaurant","pluralName":"Restaurants","shortName":"Other - Food","icon":{"prefix":"https:\/\/foursquare.com\/img\/categories_v2\/food\/default_","suffix":".png"},"primary":true}],"verified":false,"stats":{"checkinsCount":20,"usersCount":19,"tipCount":1},"likes":{"count":0,"groups":[]},"specials":{"count":0,"items":[]},"hereNow":{"count":0,"groups":[]}},{"id":"4efd4b45a69d45461b36d4ac","name":"ゴルフパートナー京都醍醐店","contact":{},"location":{"address":"日本","lat":34.95486172830271,"lng":135.81215078649322,"city":"京都市","state":"京都府","country":"Japan"},"categories":[{"id":"4bf58dd8d48988d1f2941735","name":"Sporting Goods Shop","pluralName":"Sporting Goods Shops","shortName":"Sporting Goods","icon":{"prefix":"https:\/\/foursquare.com\/img\/categories_v2\/shops\/sports_outdoors_","suffix":".png"},"primary":true}],"verified":false,"stats":{"checkinsCount":2,"usersCount":2,"tipCount":0},"likes":{"count":0,"groups":[]},"specials":{"count":0,"items":[]},"hereNow":{"count":0,"groups":[]}},{"id":"4b5bacf9f964a520500f29e3","name":"catcafe ねこ家族","contact":{},"location":{"lat":34.954666,"lng":135.811816,"country":"Japan"},"categories":[],"verified":false,"stats":{"checkinsCount":3,"usersCount":3,"tipCount":0},"likes":{"count":0,"groups":[]},"specials":{"count":0,"items":[]},"hereNow":{"count":0,"groups":[]}},{"id":"4b73bbcdf964a52006ba2de3","name":"京都市営地下鉄 東西線 醍醐駅","contact":{},"location":{"address":"醍醐高畑町30","crossStreet":"京都市営地下鉄東西線","lat":34.95083744983678,"lng":135.8106279373169,"city":"京都市伏見区","state":"京都府","country":"Japan"},"categories":[{"id":"4bf58dd8d48988d1fd931735","name":"Subway","pluralName":"Subways","shortName":"Subway","icon":{"prefix":"https:\/\/foursquare.com\/img\/categories_v2\/travel\/subway_","suffix":".png"},"primary":true}],"verified":false,"stats":{"checkinsCount":903,"usersCount":132,"tipCount":1},"likes":{"count":0,"groups":[]},"specials":{"count":0,"items":[]},"hereNow":{"count":0,"groups":[]}},{"id":"4c9c280246978cfa2fdd8b7f","name":"アル・プラザ 醍醐","contact":{"phone":"+81755756100","formattedPhone":"+81 75-575-6100"},"location":{"address":"醍醐高畑町1の37","lat":34.951162820716796,"lng":135.81121802330017,"postalCode":"601-1375","city":"京都市伏見区","state":"京都府","country":"Japan"},"categories":[{"id":"4bf58dd8d48988d1fd941735","name":"Mall","pluralName":"Malls","shortName":"Mall","icon":{"prefix":"https:\/\/foursquare.com\/img\/categories_v2\/shops\/mall_","suffix":".png"},"primary":true}],"verified":false,"stats":{"checkinsCount":393,"usersCount":89,"tipCount":0},"likes":{"count":0,"groups":[]},"specials":{"count":0,"items":[]},"hereNow":{"count":0,"groups":[]}},{"id":"4c58e7d5b05c1b8d04b4d4b1","name":"ヤマダ電機 テックランド京都醍醐店","contact":{"phone":"+81755751800","formattedPhone":"+81 75-575-1800"},"location":{"address":"伏見区醍醐","lat":34.9512983,"lng":135.810767,"city":"京都市","state":"京都府","country":"Japan"},"categories":[{"id":"4bf58dd8d48988d122951735","name":"Electronics Store","pluralName":"Electronics Stores","shortName":"Electronics","icon":{"prefix":"https:\/\/foursquare.com\/img\/categories_v2\/shops\/technology_","suffix":".png"},"primary":true}],"verified":false,"stats":{"checkinsCount":133,"usersCount":39,"tipCount":0},"likes":{"count":0,"groups":[]},"specials":{"count":0,"items":[]},"hereNow":{"count":0,"groups":[]}},{"id":"4d7074bfcbc58cfa47867272","name":"大垣書店 パセオダイゴロー店","contact":{},"location":{"lat":34.951065,"lng":135.81073633333332,"country":"Japan"},"categories":[{"id":"4bf58dd8d48988d114951735","name":"Bookstore","pluralName":"Bookstores","shortName":"Bookstore","icon":{"prefix":"https:\/\/foursquare.com\/img\/categories_v2\/shops\/bookstore_","suffix":".png"},"primary":true}],"verified":false,"stats":{"checkinsCount":45,"usersCount":11,"tipCount":0},"likes":{"count":0,"groups":[]},"specials":{"count":0,"items":[]},"hereNow":{"count":0,"groups":[]}},{"id":"4ecdc3a5722e01c57f5de4fd","name":"耳鼻咽喉科 たかきたクリニック","contact":{},"location":{"lat":34.951114,"lng":135.811141,"city":"京都市","state":"京都府","country":"Japan"},"categories":[{"id":"4bf58dd8d48988d177941735","name":"Doctor's Office","pluralName":"Doctor's Offices","shortName":"Doctor's Office","icon":{"prefix":"https:\/\/foursquare.com\/img\/categories_v2\/building\/medical_","suffix":".png"},"primary":true}],"verified":false,"stats":{"checkinsCount":3,"usersCount":2,"tipCount":0},"likes":{"count":0,"groups":[]},"specials":{"count":0,"items":[]},"hereNow":{"count":0,"groups":[]}},{"id":"4e2169431f6effe84f709feb","name":"スギ薬局 アルプラザ醍醐店","contact":{},"location":{"address":"醍醐高畑町1-37","crossStreet":"アルプラザ醍醐2F","lat":34.95133459568024,"lng":135.81085324287415,"city":"京都市伏見区","state":"京都府","country":"Japan"},"categories":[{"id":"4bf58dd8d48988d10f951735","name":"Drugstore \/ Pharmacy","pluralName":"Drugstores \/ Pharmacies","shortName":"Pharmacy","icon":{"prefix":"https:\/\/foursquare.com\/img\/categories_v2\/shops\/pharmacy_","suffix":".png"},"primary":true}],"verified":false,"stats":{"checkinsCount":14,"usersCount":4,"tipCount":0},"likes":{"count":0,"groups":[]},"specials":{"count":0,"items":[]},"hereNow":{"count":0,"groups":[]}},{"id":"4fa796cde4b00f7196a51927","name":"四六時中 パセオダイゴロー店","contact":{},"location":{"lat":34.951236,"lng":135.810556,"country":"Japan"},"categories":[{"id":"4bf58dd8d48988d1c4941735","name":"Restaurant","pluralName":"Restaurants","shortName":"Other - Food","icon":{"prefix":"https:\/\/foursquare.com\/img\/categories_v2\/food\/default_","suffix":".png"},"primary":true}],"verified":false,"stats":{"checkinsCount":3,"usersCount":1,"tipCount":0},"likes":{"count":0,"groups":[]},"specials":{"count":0,"items":[]},"hereNow":{"count":0,"groups":[]}},{"id":"4e3b7913ae604542364b31ae","name":"フィットネスクラブ コ・ス・パ 伏見ダイゴロー","contact":{"phone":"+81755755100","formattedPhone":"+81 75-575-5100"},"location":{"address":"醍醐高畑町30-1-2-38","crossStreet":"パセオダイゴロー西館5F","lat":34.95110566106112,"lng":135.81048846244812,"postalCode":"6011375","city":"京都市伏見区","state":"京都府","country":"Japan"},"categories":[{"id":"4bf58dd8d48988d176941735","name":"Gym","pluralName":"Gyms","shortName":"Gym","icon":{"prefix":"https:\/\/foursquare.com\/img\/categories_v2\/building\/gym_","suffix":".png"},"primary":true}],"verified":false,"stats":{"checkinsCount":19,"usersCount":2,"tipCount":0},"likes":{"count":0,"groups":[]},"specials":{"count":0,"items":[]},"hereNow":{"count":0,"groups":[]}},{"id":"4f7ebe42e4b0831516419d21","name":"ホーリーズカフェ パセオダイゴロー店","contact":{},"location":{"lat":34.951295,"lng":135.81118,"country":"Japan"},"categories":[{"id":"4bf58dd8d48988d16d941735","name":"Café","pluralName":"Cafés","shortName":"Café","icon":{"prefix":"https:\/\/foursquare.com\/img\/categories_v2\/food\/cafe_","suffix":".png"},"primary":true}],"verified":false,"stats":{"checkinsCount":4,"usersCount":2,"tipCount":0},"likes":{"count":0,"groups":[]},"specials":{"count":0,"items":[]},"hereNow":{"count":0,"groups":[]}},{"id":"4ba485a6f964a52022a238e3","name":"ホリーズカフェ アルプラザ醍醐店","contact":{},"location":{"address":"伏見区醍醐高畑町1-35","lat":34.951391458940954,"lng":135.81132531166077,"city":"京都市","state":"京都府","country":"Japan"},"categories":[{"id":"4bf58dd8d48988d1e0931735","name":"Coffee Shop","pluralName":"Coffee Shops","shortName":"Coffee Shop","icon":{"prefix":"https:\/\/foursquare.com\/img\/categories_v2\/food\/coffeeshop_","suffix":".png"},"primary":true}],"verified":false,"stats":{"checkinsCount":2,"usersCount":1,"tipCount":1},"likes":{"count":0,"groups":[]},"specials":{"count":0,"items":[]},"hereNow":{"count":0,"groups":[]}},{"id":"4c2fd5ff16adc928c14dbe9c","name":"醍醐中央図書館","contact":{"phone":"+81755752584","formattedPhone":"+81 75-575-2584"},"location":{"address":"醍醐高畑町30-1","crossStreet":"パセオ・ダイゴロー西館4階","lat":34.951237567898694,"lng":135.81049919128418,"city":"京都市伏見区","state":"京都府","country":"Japan"},"categories":[{"id":"4bf58dd8d48988d12f941735","name":"Library","pluralName":"Libraries","shortName":"Library","icon":{"prefix":"https:\/\/foursquare.com\/img\/categories_v2\/building\/library_","suffix":".png"},"primary":true}],"verified":false,"stats":{"checkinsCount":22,"usersCount":14,"tipCount":1},"likes":{"count":0,"groups":[]},"specials":{"count":0,"items":[]},"hereNow":{"count":0,"groups":[]}},{"id":"4fa122817b0ce936060df3db","name":"スガキヤ　醍醐アルプラザ店","contact":{"phone":"+81755731053","formattedPhone":"+81 75-573-1053"},"location":{"address":"醍醐高畑町1-37","crossStreet":"アルプラザ醍醐店1階","lat":34.95118920208291,"lng":135.81110000610352,"postalCode":"601-1375","city":"京都市伏見区","state":"京都府","country":"Japan"},"categories":[{"id":"4bf58dd8d48988d1d1941735","name":"Ramen \/  Noodle House","pluralName":"Ramen \/  Noodle House","shortName":"Ramen \/ Noodles","icon":{"prefix":"https:\/\/foursquare.com\/img\/categories_v2\/food\/ramen_","suffix":".png"},"primary":true}],"verified":false,"stats":{"checkinsCount":1,"usersCount":1,"tipCount":0},"likes":{"count":0,"groups":[]},"specials":{"count":0,"items":[]},"hereNow":{"count":0,"groups":[]}},{"id":"4ddc908fd4c082f960ca130e","name":"サーティワン アイスクリーム アル・プラザ醍醐店","contact":{"phone":"+81755754180","formattedPhone":"+81 75-575-4180"},"location":{"address":"伏見区醍醐高畑町1-37","lat":34.95107942569707,"lng":135.8109183758637,"city":"Kyoto","state":"Kyoto Prefecture","country":"Japan"},"categories":[{"id":"4bf58dd8d48988d1c9941735","name":"Ice Cream Shop","pluralName":"Ice Cream Shops","shortName":"Ice Cream","icon":{"prefix":"https:\/\/foursquare.com\/img\/categories_v2\/food\/icecream_","suffix":".png"},"primary":true}],"verified":false,"stats":{"checkinsCount":12,"usersCount":6,"tipCount":0},"likes":{"count":0,"groups":[]},"specials":{"count":0,"items":[]},"hereNow":{"count":0,"groups":[]}},{"id":"4e264195b61ce3fb054d51eb","name":"コマツ眼科医院","contact":{},"location":{"lat":34.95122,"lng":135.810758,"city":"京都市","state":"京都府","country":"Japan"},"categories":[{"id":"4bf58dd8d48988d196941735","name":"Hospital","pluralName":"Hospitals","shortName":"Hospital","icon":{"prefix":"https:\/\/foursquare.com\/img\/categories_v2\/building\/medical_hospital_","suffix":".png"},"primary":true}],"verified":false,"stats":{"checkinsCount":1,"usersCount":1,"tipCount":0},"likes":{"count":0,"groups":[]},"specials":{"count":0,"items":[]},"hereNow":{"count":0,"groups":[]}},{"id":"4fbc76cee4b0d45a091d2eda","name":"cafe 33","contact":{},"location":{"lat":34.95121855666118,"lng":135.81073768675176,"country":"Japan"},"categories":[{"id":"4bf58dd8d48988d16d941735","name":"Café","pluralName":"Cafés","shortName":"Café","icon":{"prefix":"https:\/\/foursquare.com\/img\/categories_v2\/food\/cafe_","suffix":".png"},"primary":true}],"verified":false,"stats":{"checkinsCount":1,"usersCount":1,"tipCount":0},"likes":{"count":0,"groups":[]},"specials":{"count":0,"items":[]},"hereNow":{"count":0,"groups":[]}},{"id":"4ef9bff0d3e354f0bf1d19b3","name":"京都市醍醐駐車場","contact":{},"location":{"lat":34.95087702203981,"lng":135.8102685213089,"country":"Japan"},"categories":[{"id":"4c38df4de52ce0d596b336e1","name":"Parking","pluralName":"Parking","shortName":"Parking","icon":{"prefix":"https:\/\/foursquare.com\/img\/categories_v2\/building\/parking_","suffix":".png"},"primary":true}],"verified":false,"stats":{"checkinsCount":8,"usersCount":2,"tipCount":0},"likes":{"count":0,"groups":[]},"specials":{"count":0,"items":[]},"hereNow":{"count":0,"groups":[]}}]}}
