{"meta":{"code":200},"response":{"venues":[{"id":"4dfef9fad22d48be8127705c","name":"中勢以","contact":{"phone":"+81755716962","formattedPhone":"+81 75-571-6962"},"location":{"address":"京都市伏見区石田桜木21-33","lat":34.93489835143464,"lng":135.8002496234512,"city":"Kyoto","state":"Kyoto Prefecture","country":"Japan"},"categories":[{"id":"4d4b7105d754a06374d81259","name":"Food","pluralName":"Food","shortName":"Food","icon":{"prefix":"https:\/\/foursquare.com\/img\/categories_v2\/food\/default_","suffix":".png"},"primary":true}],"verified":false,"stats":{"checkinsCount":4,"usersCount":2,"tipCount":0},"likes":{"count":0,"groups":[]},"specials":{"count":0,"items":[]},"hereNow":{"count":0,"groups":[]}},{"id":"4d59386cc88da1cd09a43768","name":"サークルK 新小栗栖街道店","contact":{"phone":"+81756125310","formattedPhone":"+81 75-612-5310"},"location":{"address":"伏見区桃山町山ノ下19-25","lat":34.94014565995288,"lng":135.7956638932228,"postalCode":"612-8002","city":"京都市","state":"京都府","country":"Japan"},"categories":[{"id":"4d954b0ea243a5684a65b473","name":"Convenience Store","pluralName":"Convenience Stores","shortName":"Convenience Stores","icon":{"prefix":"https:\/\/foursquare.com\/img\/categories_v2\/shops\/conveniencestore_","suffix":".png"},"primary":true}],"verified":false,"stats":{"checkinsCount":16,"usersCount":7,"tipCount":0},"likes":{"count":0,"groups":[]},"specials":{"count":0,"items":[]},"hereNow":{"count":0,"groups":[]}},{"id":"4c86081e74d7b60c9e47a0d8","name":"コーナン 六地蔵店","contact":{"phone":"+81756057157","formattedPhone":"+81 75-605-7157"},"location":{"address":"桃山町山ノ下19-6","lat":34.93980925159146,"lng":135.79668045043945,"city":"京都市伏見区","state":"京都府","country":"Japan"},"categories":[{"id":"4bf58dd8d48988d1f8941735","name":"Furniture \/ Home Store","pluralName":"Furniture \/ Home Stores","shortName":"Furniture \/ Home","icon":{"prefix":"https:\/\/foursquare.com\/img\/categories_v2\/shops\/furniture_","suffix":".png"},"primary":true}],"verified":false,"stats":{"checkinsCount":161,"usersCount":63,"tipCount":1},"likes":{"count":0,"groups":[]},"specials":{"count":0,"items":[]},"hereNow":{"count":0,"groups":[]}},{"id":"4e22d23faeb70263953d80cf","name":"来来亭 六地蔵店","contact":{"phone":"+81756014009","formattedPhone":"+81 75-601-4009"},"location":{"address":"伏見区桃山町山ノ下19-13","lat":34.93965094129684,"lng":135.79545199871063,"postalCode":"612-8002","city":"京都市","state":"京都府","country":"Japan"},"categories":[{"id":"4bf58dd8d48988d1d1941735","name":"Ramen \/  Noodle House","pluralName":"Ramen \/  Noodle House","shortName":"Ramen \/ Noodles","icon":{"prefix":"https:\/\/foursquare.com\/img\/categories_v2\/food\/ramen_","suffix":".png"},"primary":true}],"verified":false,"stats":{"checkinsCount":13,"usersCount":13,"tipCount":0},"likes":{"count":0,"groups":[]},"specials":{"count":0,"items":[]},"hereNow":{"count":0,"groups":[]}},{"id":"4d65b18b485ab1f78b906249","name":"京都ダイハツ販売 醍醐店","contact":{"phone":"+81774315176","formattedPhone":"+81 774-31-5176"},"location":{"address":"六地蔵奈良町20-3","lat":34.93573392105359,"lng":135.79842463922495,"postalCode":"611-0001","city":"宇治市","state":"京都府","country":"Japan"},"categories":[{"id":"4bf58dd8d48988d124951735","name":"Automotive Shop","pluralName":"Automotive Shops","shortName":"Automotive","icon":{"prefix":"https:\/\/foursquare.com\/img\/categories_v2\/shops\/automotive_","suffix":".png"},"primary":true}],"verified":false,"stats":{"checkinsCount":10,"usersCount":5,"tipCount":0},"likes":{"count":0,"groups":[]},"specials":{"count":0,"items":[]},"hereNow":{"count":0,"groups":[]}},{"id":"4b6582bbf964a520e5f22ae3","name":"ファミリーマート 堀池石田店","contact":{"phone":"+81755736003","formattedPhone":"+81 75-573-6003"},"location":{"address":"伏見区石田桜木11-1","lat":34.93611966279468,"lng":135.79907968640327,"city":"京都市","state":"京都府","country":"Japan"},"categories":[{"id":"4d954b0ea243a5684a65b473","name":"Convenience Store","pluralName":"Convenience Stores","shortName":"Convenience Stores","icon":{"prefix":"https:\/\/foursquare.com\/img\/categories_v2\/shops\/conveniencestore_","suffix":".png"},"primary":true}],"verified":false,"stats":{"checkinsCount":4,"usersCount":3,"tipCount":0},"likes":{"count":0,"groups":[]},"specials":{"count":0,"items":[]},"hereNow":{"count":0,"groups":[]}},{"id":"4f9f691ce4b0f948540d7cc5","name":"ニュータージマハールエベレスト","contact":{},"location":{"lat":34.939446,"lng":135.795386,"country":"Japan"},"categories":[{"id":"4bf58dd8d48988d10f941735","name":"Indian Restaurant","pluralName":"Indian Restaurants","shortName":"Indian","icon":{"prefix":"https:\/\/foursquare.com\/img\/categories_v2\/food\/default_","suffix":".png"},"primary":true}],"verified":false,"stats":{"checkinsCount":1,"usersCount":1,"tipCount":1},"likes":{"count":0,"groups":[]},"specials":{"count":0,"items":[]},"hereNow":{"count":0,"groups":[]}},{"id":"4cd0e5ebf6378cfa6956b8d6","name":"ジョーシン 六地蔵店","contact":{},"location":{"address":"六地蔵奈良町18-1","lat":34.935697,"lng":135.797931,"city":"宇治市","state":"京都府","country":"Japan"},"categories":[{"id":"4bf58dd8d48988d122951735","name":"Electronics Store","pluralName":"Electronics Stores","shortName":"Electronics","icon":{"prefix":"https:\/\/foursquare.com\/img\/categories_v2\/shops\/technology_","suffix":".png"},"primary":true}],"verified":false,"stats":{"checkinsCount":77,"usersCount":32,"tipCount":0},"likes":{"count":0,"groups":[]},"specials":{"count":0,"items":[]},"hereNow":{"count":0,"groups":[]}},{"id":"4ce90e12e888f04d6efd456b","name":"串八 六地蔵店","contact":{"phone":"+81774338330","formattedPhone":"+81 774-33-8330"},"location":{"address":"六地蔵奈良町21-2","lat":34.93500263893855,"lng":135.79784989356995,"city":"宇治市","state":"京都府","country":"Japan"},"categories":[{"id":"4bf58dd8d48988d111941735","name":"Japanese Restaurant","pluralName":"Japanese Restaurants","shortName":"Japanese","icon":{"prefix":"https:\/\/foursquare.com\/img\/categories_v2\/food\/japanese_","suffix":".png"},"primary":true}],"verified":false,"stats":{"checkinsCount":19,"usersCount":12,"tipCount":0},"likes":{"count":0,"groups":[]},"specials":{"count":0,"items":[]},"hereNow":{"count":0,"groups":[]}},{"id":"4c2afc0d8abca593df7eff1f","name":"天下一品 六地蔵店","contact":{"phone":"+81774381881","formattedPhone":"+81 774-38-1881"},"location":{"address":"六地蔵奈良町21-3","lat":34.935503982235886,"lng":135.79794108867645,"city":"宇治市","state":"京都府","country":"Japan"},"categories":[{"id":"4bf58dd8d48988d1d1941735","name":"Ramen \/  Noodle House","pluralName":"Ramen \/  Noodle House","shortName":"Ramen \/ Noodles","icon":{"prefix":"https:\/\/foursquare.com\/img\/categories_v2\/food\/ramen_","suffix":".png"},"primary":true}],"verified":false,"stats":{"checkinsCount":54,"usersCount":33,"tipCount":1},"likes":{"count":0,"groups":[]},"specials":{"count":0,"items":[]},"hereNow":{"count":0,"groups":[]}},{"id":"4e33ccfaae60795fcfd9fe5f","name":"スポーツクラブ コ・ス・パ 桃山六地蔵","contact":{"phone":"+81756055735","formattedPhone":"+81 75-605-5735"},"location":{"address":"桃山町山ノ下24-8","lat":34.93860872422895,"lng":135.79539835453033,"postalCode":"6128002","city":"京都市伏見区","state":"京都府","country":"Japan"},"categories":[{"id":"4bf58dd8d48988d175941735","name":"Gym \/ Fitness Center","pluralName":"Gyms or Fitness Centers","shortName":"Gym \/ Fitness","icon":{"prefix":"https:\/\/foursquare.com\/img\/categories_v2\/building\/gym_","suffix":".png"},"primary":true}],"verified":false,"stats":{"checkinsCount":131,"usersCount":2,"tipCount":0},"likes":{"count":0,"groups":[]},"specials":{"count":0,"items":[]},"hereNow":{"count":0,"groups":[]}},{"id":"4e62e740c65b2dc89fd8d527","name":"カプリチョーザ  伏見桃山店","contact":{"phone":"+81756052693","formattedPhone":"+81 75-605-2693"},"location":{"address":"伏見区桃山町山ノ下32","crossStreet":"近鉄momo","lat":34.93854796,"lng":135.7957115,"city":"京都市","state":"京都府","country":"Japan"},"categories":[{"id":"4bf58dd8d48988d110941735","name":"Italian Restaurant","pluralName":"Italian Restaurants","shortName":"Italian","icon":{"prefix":"https:\/\/foursquare.com\/img\/categories_v2\/food\/italian_","suffix":".png"},"primary":true}],"verified":false,"stats":{"checkinsCount":35,"usersCount":13,"tipCount":0},"likes":{"count":0,"groups":[]},"specials":{"count":0,"items":[]},"hereNow":{"count":0,"groups":[]}},{"id":"4dbfa399a86e2f4250af8f5e","name":"ユニクロ 近鉄桃山店","contact":{"phone":"+81756052101","formattedPhone":"+81 75-605-2101"},"location":{"address":"伏見区桃山町山ノ下32","crossStreet":"MOMO近鉄 2F","lat":34.93697721015726,"lng":135.79503893852234,"city":"京都市","state":"京都府","country":"Japan"},"categories":[{"id":"4bf58dd8d48988d103951735","name":"Clothing Store","pluralName":"Clothing Stores","shortName":"Apparel","icon":{"prefix":"https:\/\/foursquare.com\/img\/categories_v2\/shops\/apparel_","suffix":".png"},"primary":true}],"verified":false,"stats":{"checkinsCount":28,"usersCount":21,"tipCount":0},"likes":{"count":0,"groups":[]},"specials":{"count":0,"items":[]},"hereNow":{"count":0,"groups":[]}},{"id":"4dbe7b29cda109aa6cca6c29","name":"コートダジュール 六地蔵店","contact":{},"location":{"lat":34.93481456666667,"lng":135.79522183333333,"country":"Japan"},"categories":[{"id":"4bf58dd8d48988d120941735","name":"Karaoke Bar","pluralName":"Karaoke Bars","shortName":"Karaoke","icon":{"prefix":"https:\/\/foursquare.com\/img\/categories_v2\/nightlife\/karaoke_","suffix":".png"},"primary":true}],"verified":false,"stats":{"checkinsCount":9,"usersCount":8,"tipCount":0},"likes":{"count":0,"groups":[]},"specials":{"count":0,"items":[]},"hereNow":{"count":0,"groups":[]}},{"id":"4c0d71e1c700c9b6dc6ba2dd","name":"六地蔵総合病院","contact":{},"location":{"lat":34.93509171665568,"lng":135.79638203656435,"country":"Japan"},"categories":[],"verified":false,"stats":{"checkinsCount":22,"usersCount":8,"tipCount":0},"likes":{"count":0,"groups":[]},"specials":{"count":0,"items":[]},"hereNow":{"count":0,"groups":[]}},{"id":"4f0a85e1e4b0e624d93e39b1","name":"京都市東部クリーンセンター","contact":{},"location":{"address":"kyoto","lat":34.939838453105914,"lng":135.7991379496291,"city":"kyoto","country":"Japan"},"categories":[{"id":"4bf58dd8d48988d130941735","name":"Building","pluralName":"Buildings","shortName":"Other - Buildings","icon":{"prefix":"https:\/\/foursquare.com\/img\/categories_v2\/building\/default_","suffix":".png"},"primary":true}],"verified":false,"stats":{"checkinsCount":10,"usersCount":2,"tipCount":0},"likes":{"count":0,"groups":[]},"specials":{"count":0,"items":[]},"hereNow":{"count":0,"groups":[]}},{"id":"4cc40c7a3d7fa1cdf18aa95f","name":"ソフトバンク 六地蔵","contact":{"phone":"+81756042033","formattedPhone":"+81 75-604-2033","twitter":"SB_Rokujizou"},"location":{"address":"伏見区桃山町山ノ下32","crossStreet":"近鉄momo1F","lat":34.93704757261978,"lng":135.79500675201416,"postalCode":"612-8002","city":"京都市","state":"京都府","country":"Japan"},"categories":[{"id":"4f04afc02fb6e1c99f3db0bc","name":"Mobile Phone Shop","pluralName":"Mobile Phone Shops","shortName":"Mobile Phone","icon":{"prefix":"https:\/\/foursquare.com\/img\/categories_v2\/shops\/mobilephoneshop_","suffix":".png"},"primary":true}],"verified":false,"stats":{"checkinsCount":4,"usersCount":4,"tipCount":0},"likes":{"count":0,"groups":[]},"specials":{"count":0,"items":[]},"hereNow":{"count":0,"groups":[]}},{"id":"4d9d2a21a1ec8cfa7dc6fd49","name":"きなさ 京都momo店","contact":{"phone":"+81756052831","formattedPhone":"+81 75-605-2831"},"location":{"address":"伏見区桃山町山ノ下32","crossStreet":"MOMOショッピングセンター1F","lat":34.9371304,"lng":135.7950317,"city":"京都市","state":"京都府","country":"Japan"},"categories":[{"id":"4bf58dd8d48988d111941735","name":"Japanese Restaurant","pluralName":"Japanese Restaurants","shortName":"Japanese","icon":{"prefix":"https:\/\/foursquare.com\/img\/categories_v2\/food\/japanese_","suffix":".png"},"primary":true}],"verified":false,"stats":{"checkinsCount":2,"usersCount":2,"tipCount":0},"likes":{"count":0,"groups":[]},"specials":{"count":0,"items":[]},"hereNow":{"count":0,"groups":[]}},{"id":"4eb39f5b02d5f33e91c58740","name":"無印良品 近鉄桃山店","contact":{"phone":"+81756234311","formattedPhone":"+81 75-623-4311","twitter":"muji_net"},"location":{"address":"桃山町山ノ下32","crossStreet":"近鉄百貨店桃山店 2F","lat":34.9367773894594,"lng":135.79496940330364,"postalCode":"612-8002","city":"京都市伏見区","state":"京都府","country":"Japan"},"categories":[{"id":"4bf58dd8d48988d1ff941735","name":"Miscellaneous Shop","pluralName":"Miscellaneous Shops","shortName":"Other - Shop","icon":{"prefix":"https:\/\/foursquare.com\/img\/categories_v2\/shops\/default_","suffix":".png"},"primary":true}],"verified":false,"stats":{"checkinsCount":15,"usersCount":5,"tipCount":0},"likes":{"count":0,"groups":[]},"specials":{"count":0,"items":[]},"hereNow":{"count":0,"groups":[]}},{"id":"4ddc9876887775ea9c450814","name":"くまざわ書店 近鉄ｍｏｍｏ店","contact":{},"location":{"lat":34.937829440083185,"lng":135.79571508319313,"city":"Kyoto","state":"Kyoto Prefecture","country":"Japan"},"categories":[{"id":"4bf58dd8d48988d114951735","name":"Bookstore","pluralName":"Bookstores","shortName":"Bookstore","icon":{"prefix":"https:\/\/foursquare.com\/img\/categories_v2\/shops\/bookstore_","suffix":".png"},"primary":true}],"verified":false,"stats":{"checkinsCount":7,"usersCount":5,"tipCount":0},"likes":{"count":0,"groups":[]},"specials":{"count":0,"items":[]},"hereNow":{"count":0,"groups":[]}},{"id":"4e61cbf2d22d509a3958fd0d","name":"河内眼科","contact":{},"location":{"address":"伏見区桃山町山ノ下32","crossStreet":"近鉄百貨店桃山店(MOMO)2F","lat":34.937593,"lng":135.795939,"postalCode":"612-8550","city":"京都市","state":"京都府","country":"Japan"},"categories":[{"id":"4bf58dd8d48988d177941735","name":"Doctor's Office","pluralName":"Doctor's Offices","shortName":"Doctor's Office","icon":{"prefix":"https:\/\/foursquare.com\/img\/categories_v2\/building\/medical_","suffix":".png"},"primary":true}],"verified":false,"stats":{"checkinsCount":1,"usersCount":1,"tipCount":1},"likes":{"count":0,"groups":[]},"specials":{"count":0,"items":[]},"hereNow":{"count":0,"groups":[]}},{"id":"4e62f5172271573ad7dbf1d4","name":"ダイソー 近商ストア桃山店","contact":{"phone":"+81756052444","formattedPhone":"+81 75-605-2444"},"location":{"address":"伏見区桃山町山ノ下32","crossStreet":"近鉄百貨店桃山店2階","lat":34.93763640955417,"lng":135.7956317146769,"city":"京都市","state":"京都府","country":"Japan"},"categories":[{"id":"4bf58dd8d48988d1ff941735","name":"Miscellaneous Shop","pluralName":"Miscellaneous Shops","shortName":"Other - Shop","icon":{"prefix":"https:\/\/foursquare.com\/img\/categories_v2\/shops\/default_","suffix":".png"},"primary":true}],"verified":false,"stats":{"checkinsCount":6,"usersCount":5,"tipCount":0},"likes":{"count":0,"groups":[]},"specials":{"count":0,"items":[]},"hereNow":{"count":0,"groups":[]}},{"id":"4c83820147cc224bb6b18f9f","name":"とんかつ いなば和幸 momo店","contact":{},"location":{"lat":34.936105,"lng":135.794985,"city":"京都市","state":"京都府","country":"Japan"},"categories":[{"id":"4bf58dd8d48988d111941735","name":"Japanese Restaurant","pluralName":"Japanese Restaurants","shortName":"Japanese","icon":{"prefix":"https:\/\/foursquare.com\/img\/categories_v2\/food\/japanese_","suffix":".png"},"primary":true}],"verified":false,"stats":{"checkinsCount":4,"usersCount":4,"tipCount":0},"likes":{"count":0,"groups":[]},"specials":{"count":0,"items":[]},"hereNow":{"count":0,"groups":[]}}]}}
