{"meta":{"code":200},"response":{"venues":[{"id":"4e62da7c62e13e3bced6f72e","name":"正栄クリーニング アル・プラザ 京田辺店","contact":{"phone":"+81774640091","formattedPhone":"+81 774-64-0091"},"location":{"lat":34.82227645,"lng":135.76855269,"city":"京田辺市","state":"京都府","country":"Japan"},"categories":[{"id":"4bf58dd8d48988d1fc941735","name":"Laundry Service","pluralName":"Laundry Services","shortName":"Laundry","icon":{"prefix":"https:\/\/foursquare.com\/img\/categories_v2\/shops\/laundry_","suffix":".png"},"primary":true}],"verified":false,"stats":{"checkinsCount":20,"usersCount":6,"tipCount":0},"likes":{"count":0,"groups":[]},"specials":{"count":0,"items":[]},"hereNow":{"count":0,"groups":[]}},{"id":"4dca5f531f6e28126774d9b5","name":"ダイソー アルプラザ京田辺店","contact":{"phone":"+81774684308","formattedPhone":"+81 774-68-4308"},"location":{"address":"田辺中央5-2-1","crossStreet":"アルプラザ京田辺店内3F","lat":34.821748200894326,"lng":135.76867818832397,"city":"京田辺市","state":"京都府","country":"Japan"},"categories":[{"id":"4bf58dd8d48988d1ff941735","name":"Miscellaneous Shop","pluralName":"Miscellaneous Shops","shortName":"Other - Shop","icon":{"prefix":"https:\/\/foursquare.com\/img\/categories_v2\/shops\/default_","suffix":".png"},"primary":true}],"verified":false,"stats":{"checkinsCount":45,"usersCount":16,"tipCount":0},"likes":{"count":0,"groups":[]},"specials":{"count":0,"items":[]},"hereNow":{"count":0,"groups":[]}},{"id":"4d16ff5d816af04dc4624cc2","name":"マツヤデンキ 京田辺店","contact":{"phone":"+81774655544","formattedPhone":"+81 774-65-5544"},"location":{"address":"田辺中央6-7-5","lat":34.82177902766503,"lng":135.77057719230652,"postalCode":"610-0334","city":"京田辺市","state":"京都府","country":"Japan"},"categories":[{"id":"4bf58dd8d48988d122951735","name":"Electronics Store","pluralName":"Electronics Stores","shortName":"Electronics","icon":{"prefix":"https:\/\/foursquare.com\/img\/categories_v2\/shops\/technology_","suffix":".png"},"primary":true}],"verified":false,"stats":{"checkinsCount":12,"usersCount":11,"tipCount":1},"likes":{"count":0,"groups":[]},"specials":{"count":0,"items":[]},"hereNow":{"count":0,"groups":[]}},{"id":"4ec2344d4690d2338a6ab706","name":"時計オオカワ","contact":{},"location":{"lat":34.822562,"lng":135.76872,"country":"Japan"},"categories":[{"id":"4bf58dd8d48988d111951735","name":"Jewelry Store","pluralName":"Jewelry Stores","shortName":"Jewelry","icon":{"prefix":"https:\/\/foursquare.com\/img\/categories_v2\/shops\/jewelry_","suffix":".png"},"primary":true}],"verified":false,"stats":{"checkinsCount":4,"usersCount":2,"tipCount":0},"likes":{"count":0,"groups":[]},"specials":{"count":0,"items":[]},"hereNow":{"count":0,"groups":[]}},{"id":"4f3128dde4b09c2f0f2a3adb","name":"食彩からく","contact":{},"location":{"lat":34.823471,"lng":135.770288,"city":"京田辺市","country":"Japan"},"categories":[{"id":"4bf58dd8d48988d111941735","name":"Japanese Restaurant","pluralName":"Japanese Restaurants","shortName":"Japanese","icon":{"prefix":"https:\/\/foursquare.com\/img\/categories_v2\/food\/japanese_","suffix":".png"},"primary":true}],"verified":false,"stats":{"checkinsCount":1,"usersCount":1,"tipCount":0},"likes":{"count":0,"groups":[]},"specials":{"count":0,"items":[]},"hereNow":{"count":0,"groups":[]}},{"id":"4db412a1fa8c350240dc9ae3","name":"グラッチェガーデンズ新田辺店","contact":{},"location":{"lat":34.822768,"lng":135.770311,"city":"Kyotanabe","state":"Kyoto Prefecture","country":"Japan"},"categories":[{"id":"4bf58dd8d48988d110941735","name":"Italian Restaurant","pluralName":"Italian Restaurants","shortName":"Italian","icon":{"prefix":"https:\/\/foursquare.com\/img\/categories_v2\/food\/italian_","suffix":".png"},"primary":true}],"verified":false,"stats":{"checkinsCount":16,"usersCount":11,"tipCount":1},"likes":{"count":0,"groups":[]},"specials":{"count":0,"items":[]},"hereNow":{"count":0,"groups":[]}},{"id":"4d888a4d6daeb60c49453ce0","name":"ミニストップ 田辺中央店","contact":{"phone":"+81774630707","formattedPhone":"+81 774-63-0707"},"location":{"address":"田辺中央5-1-16","lat":34.82240657013221,"lng":135.7699254155159,"city":"京田辺市","state":"京都府","country":"Japan"},"categories":[{"id":"4d954b0ea243a5684a65b473","name":"Convenience Store","pluralName":"Convenience Stores","shortName":"Convenience Stores","icon":{"prefix":"https:\/\/foursquare.com\/img\/categories_v2\/shops\/conveniencestore_","suffix":".png"},"primary":true}],"verified":false,"stats":{"checkinsCount":76,"usersCount":18,"tipCount":1},"likes":{"count":0,"groups":[]},"specials":{"count":0,"items":[]},"hereNow":{"count":0,"groups":[]}},{"id":"4c81be8ce602b1f7dc45967a","name":"ジョイフル 京都新田辺店","contact":{},"location":{"address":"田辺中央6丁目7-14","lat":34.822430274147045,"lng":135.77028054834503,"city":"京田辺市","state":"京都府","country":"Japan"},"categories":[{"id":"4bf58dd8d48988d1c4941735","name":"Restaurant","pluralName":"Restaurants","shortName":"Other - Food","icon":{"prefix":"https:\/\/foursquare.com\/img\/categories_v2\/food\/default_","suffix":".png"},"primary":true}],"verified":false,"stats":{"checkinsCount":72,"usersCount":36,"tipCount":0},"likes":{"count":0,"groups":[]},"specials":{"count":0,"items":[]},"hereNow":{"count":0,"groups":[]}},{"id":"4f6d818ce4b0ad1af48e0486","name":"auショップ 新田辺","contact":{"phone":"+81774637931","formattedPhone":"+81 774-63-7931","twitter":"aushintanabe"},"location":{"address":"1-5-4","crossStreet":"田辺中央","lat":34.82230054110837,"lng":135.7705582963382,"postalCode":"610-0334","city":"京田辺市","state":"京都府","country":"Japan"},"categories":[{"id":"4f04afc02fb6e1c99f3db0bc","name":"Mobile Phone Shop","pluralName":"Mobile Phone Shops","shortName":"Mobile Phone","icon":{"prefix":"https:\/\/foursquare.com\/img\/categories_v2\/shops\/mobilephoneshop_","suffix":".png"},"primary":true}],"verified":false,"stats":{"checkinsCount":4,"usersCount":3,"tipCount":0},"likes":{"count":0,"groups":[]},"specials":{"count":0,"items":[]},"hereNow":{"count":0,"groups":[]}},{"id":"4f07cf61e4b0ca3a5baca65e","name":"doli doli","contact":{},"location":{"lat":34.82264709472656,"lng":135.7705841064453,"country":"Japan"},"categories":[{"id":"4bf58dd8d48988d1e0931735","name":"Coffee Shop","pluralName":"Coffee Shops","shortName":"Coffee Shop","icon":{"prefix":"https:\/\/foursquare.com\/img\/categories_v2\/food\/coffeeshop_","suffix":".png"},"primary":true}],"verified":false,"stats":{"checkinsCount":0,"usersCount":0,"tipCount":0},"likes":{"count":0,"groups":[]},"specials":{"count":0,"items":[]},"hereNow":{"count":0,"groups":[]}},{"id":"4dc53c0f887717c8801d0f22","name":"レストプレイス西川","contact":{},"location":{"lat":34.822131,"lng":135.770702,"city":"Kyotanabe","state":"Kyoto Prefecture","country":"Japan"},"categories":[{"id":"4d954b06a243a5684965b473","name":"Residential Building (Apartment\/Condo)","pluralName":"Residential Buildings (Apartments\/Condos)","shortName":"Apartment Building","icon":{"prefix":"https:\/\/foursquare.com\/img\/categories_v2\/building\/apartment_","suffix":".png"},"primary":true}],"verified":false,"stats":{"checkinsCount":1,"usersCount":1,"tipCount":0},"likes":{"count":0,"groups":[]},"specials":{"count":0,"items":[]},"hereNow":{"count":0,"groups":[]}},{"id":"4b570981f964a520d72328e3","name":"アル・プラザ 京田辺","contact":{},"location":{"address":"田辺中央5丁目2-1","lat":34.821944160057306,"lng":135.76911402444267,"city":"京田辺市","state":"京都府","country":"Japan"},"categories":[{"id":"4bf58dd8d48988d1fd941735","name":"Mall","pluralName":"Malls","shortName":"Mall","icon":{"prefix":"https:\/\/foursquare.com\/img\/categories_v2\/shops\/mall_","suffix":".png"},"primary":true}],"verified":false,"stats":{"checkinsCount":602,"usersCount":127,"tipCount":0},"likes":{"count":0,"groups":[]},"specials":{"count":0,"items":[]},"hereNow":{"count":0,"groups":[]}},{"id":"4b77d4eaf964a520cbab2ee3","name":"マクドナルド 京田辺アルプラザ店","contact":{},"location":{"address":"田辺中央5-2-1","lat":34.821589663034175,"lng":135.76921463012695,"city":"京田辺市","state":"京都府","country":"Japan"},"categories":[{"id":"4bf58dd8d48988d16c941735","name":"Burger Joint","pluralName":"Burger Joints","shortName":"Burgers","icon":{"prefix":"https:\/\/foursquare.com\/img\/categories_v2\/food\/burger_","suffix":".png"},"primary":true}],"verified":false,"stats":{"checkinsCount":62,"usersCount":33,"tipCount":0},"likes":{"count":0,"groups":[]},"specials":{"count":0,"items":[]},"hereNow":{"count":0,"groups":[]}},{"id":"4db3e236a86e8d27077a15d7","name":"BABY FACE PLANET'S アルプラザ京田辺店","contact":{"phone":"+81774627707","formattedPhone":"+81 774-62-7707"},"location":{"address":"田辺中央5-2-1","lat":34.8215676438628,"lng":135.7694399356842,"city":"京田辺市","state":"京都府","country":"Japan"},"categories":[{"id":"4bf58dd8d48988d1c4941735","name":"Restaurant","pluralName":"Restaurants","shortName":"Other - Food","icon":{"prefix":"https:\/\/foursquare.com\/img\/categories_v2\/food\/default_","suffix":".png"},"primary":true}],"verified":false,"stats":{"checkinsCount":11,"usersCount":8,"tipCount":0},"likes":{"count":0,"groups":[]},"specials":{"count":0,"items":[]},"hereNow":{"count":0,"groups":[]}},{"id":"4dca614645dd19439a08434a","name":"ABCブックセンター 京田辺店","contact":{"phone":"+81774682535","formattedPhone":"+81 774-68-2535"},"location":{"address":"田辺中央5-2-1","lat":34.82187150790793,"lng":135.7692790031433,"postalCode":"610-0334","city":"京田辺市","state":"京都府","country":"Japan"},"categories":[{"id":"4bf58dd8d48988d114951735","name":"Bookstore","pluralName":"Bookstores","shortName":"Bookstore","icon":{"prefix":"https:\/\/foursquare.com\/img\/categories_v2\/shops\/bookstore_","suffix":".png"},"primary":true}],"verified":false,"stats":{"checkinsCount":59,"usersCount":10,"tipCount":0},"likes":{"count":0,"groups":[]},"specials":{"count":0,"items":[]},"hereNow":{"count":0,"groups":[]}},{"id":"4e3518372271b2cf06743f40","name":"パリクロアッサン 京田辺店","contact":{"phone":"+81774627411","formattedPhone":"+81 774-62-7411"},"location":{"address":"田辺中央5-2-1","crossStreet":"アルプラザ京田辺 1F","lat":34.822152,"lng":135.76947212219238,"postalCode":"610-0334","city":"京田辺市","state":"京都府","country":"Japan"},"categories":[{"id":"4bf58dd8d48988d16a941735","name":"Bakery","pluralName":"Bakeries","shortName":"Bakery","icon":{"prefix":"https:\/\/foursquare.com\/img\/categories_v2\/food\/bakery_","suffix":".png"},"primary":true}],"verified":false,"stats":{"checkinsCount":49,"usersCount":13,"tipCount":0},"likes":{"count":0,"groups":[]},"specials":{"count":0,"items":[]},"hereNow":{"count":0,"groups":[]}},{"id":"4ed2f7452c5bc3505a0e634f","name":"スガキヤ 京田辺アルプラザ店","contact":{"phone":"+81774653401","formattedPhone":"+81 774-65-3401"},"location":{"address":"田辺中央5-2-1","crossStreet":"アルプラザ京田辺 1F","lat":34.822296915714816,"lng":135.76932299127293,"postalCode":"610-0334","city":"京田辺市","state":"京都府","country":"Japan"},"categories":[{"id":"4bf58dd8d48988d114941735","name":"Food Court","pluralName":"Food Courts","shortName":"Food Court","icon":{"prefix":"https:\/\/foursquare.com\/img\/categories_v2\/food\/foodcourt_","suffix":".png"},"primary":true}],"verified":false,"stats":{"checkinsCount":6,"usersCount":4,"tipCount":0},"likes":{"count":0,"groups":[]},"specials":{"count":0,"items":[]},"hereNow":{"count":0,"groups":[]}},{"id":"4deb0081b0fb8293f7e52e0d","name":"良品買館","contact":{},"location":{"lat":34.82216000389558,"lng":135.76985004215325,"city":"Kyotanabe","state":"Kyoto Prefecture","country":"Japan"},"categories":[{"id":"4bf58dd8d48988d101951735","name":"Thrift \/ Vintage Store","pluralName":"Thrift \/ Vintage Stores","shortName":"Thrift \/ Vintage","icon":{"prefix":"https:\/\/foursquare.com\/img\/categories_v2\/shops\/default_","suffix":".png"},"primary":true}],"verified":false,"stats":{"checkinsCount":6,"usersCount":6,"tipCount":0},"likes":{"count":0,"groups":[]},"specials":{"count":0,"items":[]},"hereNow":{"count":0,"groups":[]}},{"id":"4c551370479fc9284dfe3194","name":"ミスタードーナツ アルプラザ京田辺ショップ","contact":{"phone":"+81774682660","formattedPhone":"+81 774-68-2660"},"location":{"address":"田辺中央5-2-1","crossStreet":"アルプラザ京田辺","lat":34.822124,"lng":135.769603,"city":"京田辺市","state":"京都府","country":"Japan"},"categories":[{"id":"4bf58dd8d48988d148941735","name":"Donut Shop","pluralName":"Donut Shops","shortName":"Donuts","icon":{"prefix":"https:\/\/foursquare.com\/img\/categories_v2\/food\/donuts_","suffix":".png"},"primary":true}],"verified":false,"stats":{"checkinsCount":32,"usersCount":16,"tipCount":0},"likes":{"count":0,"groups":[]},"specials":{"count":0,"items":[]},"hereNow":{"count":0,"groups":[]}},{"id":"4dca66b8d16495ca5ae88025","name":"サーティワンアイスクリーム アルプラザ京田辺店","contact":{"phone":"+81774642037","formattedPhone":"+81 774-64-2037"},"location":{"address":"田辺中央5丁目2-1","lat":34.82135763482292,"lng":135.76888257468084,"city":"京田辺市","state":"京都府","country":"Japan"},"categories":[{"id":"4bf58dd8d48988d1c9941735","name":"Ice Cream Shop","pluralName":"Ice Cream Shops","shortName":"Ice Cream","icon":{"prefix":"https:\/\/foursquare.com\/img\/categories_v2\/food\/icecream_","suffix":".png"},"primary":true}],"verified":false,"stats":{"checkinsCount":11,"usersCount":4,"tipCount":0},"likes":{"count":0,"groups":[]},"specials":{"count":0,"items":[]},"hereNow":{"count":0,"groups":[]}},{"id":"4f1cd26ae4b083823389f43d","name":"めん屋一福京田辺店","contact":{},"location":{"lat":34.82206792580189,"lng":135.76941953984883,"city":"京田辺市","state":"京都府","country":"Japan"},"categories":[{"id":"4bf58dd8d48988d1d1941735","name":"Ramen \/  Noodle House","pluralName":"Ramen \/  Noodle House","shortName":"Ramen \/ Noodles","icon":{"prefix":"https:\/\/foursquare.com\/img\/categories_v2\/food\/ramen_","suffix":".png"},"primary":true}],"verified":false,"stats":{"checkinsCount":1,"usersCount":1,"tipCount":0},"likes":{"count":0,"groups":[]},"specials":{"count":0,"items":[]},"hereNow":{"count":0,"groups":[]}},{"id":"4ef6f7de469012b8c0a3e339","name":"メガネのオオカワ","contact":{},"location":{"lat":34.82197719948696,"lng":135.76932191848755,"city":"京田辺市","state":"京都府","country":"Japan"},"categories":[{"id":"4bf58dd8d48988d1ff941735","name":"Miscellaneous Shop","pluralName":"Miscellaneous Shops","shortName":"Other - Shop","icon":{"prefix":"https:\/\/foursquare.com\/img\/categories_v2\/shops\/default_","suffix":".png"},"primary":true}],"verified":false,"stats":{"checkinsCount":2,"usersCount":1,"tipCount":0},"likes":{"count":0,"groups":[]},"specials":{"count":0,"items":[]},"hereNow":{"count":0,"groups":[]}},{"id":"4e21cb1281dc35f05c53b245","name":"ラフィネ　アルプラザ京田辺店","contact":{"phone":"+81774640831","formattedPhone":"+81 774-64-0831","twitter":"raffine06"},"location":{"address":"京都府京田辺市田辺中央5-2-1","crossStreet":"アルプラザ京田辺　１階","lat":34.822047660464314,"lng":135.76912879943848,"postalCode":"610-0334","city":"京田辺市","state":"京都府","country":"Japan"},"categories":[{"id":"4bf58dd8d48988d1ed941735","name":"Spa or Massage","pluralName":"Spas or Massages","shortName":"Spas \/ Massage","icon":{"prefix":"https:\/\/foursquare.com\/img\/categories_v2\/shops\/spa_","suffix":".png"},"primary":true}],"verified":true,"stats":{"checkinsCount":0,"usersCount":0,"tipCount":0},"url":"http:\/\/www.facebook.com\/RelaxationSpace.Raffine","likes":{"count":0,"groups":[]},"specials":{"count":0,"items":[]},"hereNow":{"count":0,"groups":[]}},{"id":"4eb66b76469073bbc6908fec","name":"大阪じゅうべい 京田辺店","contact":{},"location":{"address":"田辺中央5-2-1","crossStreet":"アルプラザ京田辺店1Fフードコート","lat":34.821889123180526,"lng":135.76904296875,"city":"京田辺市","state":"京都府","country":"Japan"},"categories":[{"id":"4bf58dd8d48988d114941735","name":"Food Court","pluralName":"Food Courts","shortName":"Food Court","icon":{"prefix":"https:\/\/foursquare.com\/img\/categories_v2\/food\/foodcourt_","suffix":".png"},"primary":true}],"verified":false,"stats":{"checkinsCount":3,"usersCount":1,"tipCount":0},"likes":{"count":0,"groups":[]},"specials":{"count":0,"items":[]},"hereNow":{"count":0,"groups":[]}},{"id":"4f573ce2e4b04e88c16576f8","name":"たこ福 京田辺店","contact":{},"location":{"lat":34.82085412534972,"lng":135.76912328245652,"country":"Japan"},"categories":[{"id":"4bf58dd8d48988d114941735","name":"Food Court","pluralName":"Food Courts","shortName":"Food Court","icon":{"prefix":"https:\/\/foursquare.com\/img\/categories_v2\/food\/foodcourt_","suffix":".png"},"primary":true}],"verified":false,"stats":{"checkinsCount":1,"usersCount":1,"tipCount":0},"likes":{"count":0,"groups":[]},"specials":{"count":0,"items":[]},"hereNow":{"count":0,"groups":[]}},{"id":"4f3f3dd7e4b02d0e6b536acc","name":"パッション","contact":{},"location":{"lat":34.82182693481445,"lng":135.7694091796875,"country":"Japan"},"categories":[{"id":"4bf58dd8d48988d110951735","name":"Salon \/ Barbershop","pluralName":"Salons \/ Barbershops","shortName":"Salon \/ Barbershop","icon":{"prefix":"https:\/\/foursquare.com\/img\/categories_v2\/shops\/salon_barber_","suffix":".png"},"primary":true}],"verified":false,"stats":{"checkinsCount":0,"usersCount":0,"tipCount":0},"likes":{"count":0,"groups":[]},"specials":{"count":0,"items":[]},"hereNow":{"count":0,"groups":[]}},{"id":"4f71c891e4b0e8c482524287","name":"仁や亭","contact":{"phone":"+81774680866","formattedPhone":"+81 774-68-0866"},"location":{"address":"日本","lat":34.82865441450949,"lng":135.77300717783132,"city":"京田辺市","state":"京都府","country":"Japan"},"categories":[{"id":"4bf58dd8d48988d111941735","name":"Japanese Restaurant","pluralName":"Japanese Restaurants","shortName":"Japanese","icon":{"prefix":"https:\/\/foursquare.com\/img\/categories_v2\/food\/japanese_","suffix":".png"},"primary":true}],"verified":false,"stats":{"checkinsCount":1,"usersCount":1,"tipCount":0},"likes":{"count":0,"groups":[]},"specials":{"count":0,"items":[]},"hereNow":{"count":0,"groups":[]}},{"id":"4c75eb14604a3704c03e8449","name":"ポムの樹アルプラザ京田辺店","contact":{},"location":{"address":"日本","lat":34.821612,"lng":135.769276,"city":"京田辺市","state":"京都府","country":"Japan"},"categories":[],"verified":false,"stats":{"checkinsCount":2,"usersCount":2,"tipCount":0},"likes":{"count":0,"groups":[]},"specials":{"count":0,"items":[]},"hereNow":{"count":0,"groups":[]}}]}}
