{"meta":{"code":200},"response":{"venues":[{"id":"4df30e1745dd4e26933f7358","name":"夜叉ばあさんのムクノキ","contact":{},"location":{"lat":34.853757,"lng":135.781178,"city":"Joyo","state":"Kyoto Prefecture","country":"Japan"},"categories":[{"id":"4bf58dd8d48988d15c941735","name":"Cemetery","pluralName":"Cemeteries","shortName":"Cemetery","icon":{"prefix":"https:\/\/foursquare.com\/img\/categories_v2\/parks_outdoors\/cemetery_","suffix":".png"},"primary":true}],"verified":false,"stats":{"checkinsCount":53,"usersCount":7,"tipCount":0},"likes":{"count":0,"groups":[]},"specials":{"count":0,"items":[]},"hereNow":{"count":0,"groups":[]}},{"id":"4e682b20fa768a5e3cc0739b","name":"南都銀行 城陽支店","contact":{"phone":"+81774522821","formattedPhone":"+81 774-52-2821"},"location":{"address":"寺田袋尻7-1","lat":34.85329996635473,"lng":135.78048527240753,"postalCode":"6100121","city":"城陽市","state":"京都府","country":"Japan"},"categories":[{"id":"4bf58dd8d48988d10a951735","name":"Bank","pluralName":"Banks","shortName":"Bank \/ Financial","icon":{"prefix":"https:\/\/foursquare.com\/img\/categories_v2\/shops\/financial_","suffix":".png"},"primary":true}],"verified":false,"stats":{"checkinsCount":10,"usersCount":3,"tipCount":0},"likes":{"count":0,"groups":[]},"specials":{"count":0,"items":[]},"hereNow":{"count":0,"groups":[]}},{"id":"4d143a8b81cea35d2e7ed1ec","name":"宝衣裳","contact":{},"location":{"lat":34.853622,"lng":135.781954,"country":"Japan"},"categories":[{"id":"4bf58dd8d48988d11a951735","name":"Bridal Shop","pluralName":"Bridal Shops","shortName":"Bridal","icon":{"prefix":"https:\/\/foursquare.com\/img\/categories_v2\/shops\/bridal_","suffix":".png"},"primary":true}],"verified":false,"stats":{"checkinsCount":1,"usersCount":1,"tipCount":0},"likes":{"count":0,"groups":[]},"specials":{"count":0,"items":[]},"hereNow":{"count":0,"groups":[]}},{"id":"4fc1c1dee4b09ab688489c7a","name":"サンガフットサルパーク","contact":{},"location":{"lat":34.851966857910156,"lng":135.7823028564453,"country":"Japan"},"categories":[{"id":"4bf58dd8d48988d188941735","name":"Soccer Stadium","pluralName":"Soccer Stadiums","shortName":"Soccer","icon":{"prefix":"https:\/\/foursquare.com\/img\/categories_v2\/arts_entertainment\/stadium_soccer_","suffix":".png"},"primary":true}],"verified":false,"stats":{"checkinsCount":0,"usersCount":0,"tipCount":0},"likes":{"count":0,"groups":[]},"specials":{"count":0,"items":[]},"hereNow":{"count":0,"groups":[]}},{"id":"4c9c3c380e9bb1f7f232d25f","name":"彩 レンタルスペース","contact":{},"location":{"lat":34.85414077035592,"lng":135.78223943710327,"city":"城陽市","state":"京都府","country":"Japan"},"categories":[{"id":"4bf58dd8d48988d1e2931735","name":"Art Gallery","pluralName":"Art Galleries","shortName":"Art Gallery","icon":{"prefix":"https:\/\/foursquare.com\/img\/categories_v2\/arts_entertainment\/artgallery_","suffix":".png"},"primary":true}],"verified":false,"stats":{"checkinsCount":1,"usersCount":1,"tipCount":0},"likes":{"count":0,"groups":[]},"specials":{"count":0,"items":[]},"hereNow":{"count":0,"groups":[]}},{"id":"4bcdc180511f95213a15b5c7","name":"ラーメン屋台","contact":{},"location":{"address":"寺田袋尻 27-4","lat":34.851418,"lng":135.78180073974076,"city":"城陽市","state":"京都府","country":"Japan"},"categories":[{"id":"4bf58dd8d48988d1cb941735","name":"Food Truck","pluralName":"Food Trucks","shortName":"Street Food","icon":{"prefix":"https:\/\/foursquare.com\/img\/categories_v2\/food\/streetfood_","suffix":".png"},"primary":true}],"verified":false,"stats":{"checkinsCount":117,"usersCount":43,"tipCount":0},"likes":{"count":0,"groups":[]},"specials":{"count":0,"items":[]},"hereNow":{"count":0,"groups":[]}},{"id":"4df44128483bdb5e13775fbb","name":"グリル北川","contact":{"phone":"+81774527201","formattedPhone":"+81 774-52-7201"},"location":{"address":"寺田水度坂131","lat":34.85437408093795,"lng":135.78093588352203,"city":"城陽市","state":"京都府","country":"Japan"},"categories":[{"id":"4bf58dd8d48988d1c4941735","name":"Restaurant","pluralName":"Restaurants","shortName":"Other - Food","icon":{"prefix":"https:\/\/foursquare.com\/img\/categories_v2\/food\/default_","suffix":".png"},"primary":true}],"verified":false,"stats":{"checkinsCount":199,"usersCount":1,"tipCount":1},"likes":{"count":0,"groups":[]},"specials":{"count":0,"items":[]},"hereNow":{"count":0,"groups":[]}},{"id":"4c269cb5136d20a1fdb6e561","name":"城陽郵便局","contact":{},"location":{"address":"寺田袋尻27-2","lat":34.851594120318744,"lng":135.78209459781647,"postalCode":"6100121","city":"城陽市","state":"京都府","country":"Japan"},"categories":[{"id":"4bf58dd8d48988d172941735","name":"Post Office","pluralName":"Post Offices","shortName":"Post Office","icon":{"prefix":"https:\/\/foursquare.com\/img\/categories_v2\/building\/postoffice_","suffix":".png"},"primary":true}],"verified":false,"stats":{"checkinsCount":92,"usersCount":11,"tipCount":0},"likes":{"count":0,"groups":[]},"specials":{"count":0,"items":[]},"hereNow":{"count":0,"groups":[]}},{"id":"4cb83fc343ec6dcb35969331","name":"ゴールデンスター","contact":{},"location":{"lat":34.854353,"lng":135.780768,"country":"Japan"},"categories":[],"verified":false,"stats":{"checkinsCount":1,"usersCount":1,"tipCount":0},"likes":{"count":0,"groups":[]},"specials":{"count":0,"items":[]},"hereNow":{"count":0,"groups":[]}},{"id":"4d53bf765b3f6dcb23d8d6cc","name":"城陽飯店","contact":{"phone":"+81774524835","formattedPhone":"+81 774-52-4835"},"location":{"address":"寺田袋尻17-13","lat":34.85272108321289,"lng":135.78093856573105,"city":"城陽市","state":"京都府","country":"Japan"},"categories":[{"id":"4bf58dd8d48988d145941735","name":"Chinese Restaurant","pluralName":"Chinese Restaurants","shortName":"Chinese","icon":{"prefix":"https:\/\/foursquare.com\/img\/categories_v2\/food\/chinese_","suffix":".png"},"primary":true}],"verified":false,"stats":{"checkinsCount":57,"usersCount":7,"tipCount":0},"likes":{"count":0,"groups":[]},"specials":{"count":0,"items":[]},"hereNow":{"count":0,"groups":[]}},{"id":"4ea0125230f854cd9c271115","name":"ほっかほっか亭 城陽店","contact":{"phone":"+81774533743","formattedPhone":"+81 774-53-3743"},"location":{"address":"寺田袋尻17-15","lat":34.85251,"lng":135.78116,"city":"城陽市","state":"京都府","country":"Japan"},"categories":[{"id":"4bf58dd8d48988d146941735","name":"Deli\/Bodega","pluralName":"Delis\/Bodegas","shortName":"Deli \/ Bodega","icon":{"prefix":"https:\/\/foursquare.com\/img\/categories_v2\/food\/deli_","suffix":".png"},"primary":true}],"verified":false,"stats":{"checkinsCount":0,"usersCount":0,"tipCount":0},"likes":{"count":0,"groups":[]},"specials":{"count":0,"items":[]},"hereNow":{"count":0,"groups":[]}},{"id":"4f4dbf57e4b051dc48bb7633","name":"協和産業（株）昭和シェル 城陽SS","contact":{},"location":{"address":"寺田袋尻１９ー４","lat":34.85265,"lng":135.781008333,"city":"城陽市","state":"京都府","country":"Japan"},"categories":[{"id":"4bf58dd8d48988d113951735","name":"Gas Station \/ Garage","pluralName":"Gas Stations \/ Garages","shortName":"Gas Station \/ Garage","icon":{"prefix":"https:\/\/foursquare.com\/img\/categories_v2\/shops\/gas_","suffix":".png"},"primary":true}],"verified":false,"stats":{"checkinsCount":0,"usersCount":0,"tipCount":0},"likes":{"count":0,"groups":[]},"specials":{"count":0,"items":[]},"hereNow":{"count":0,"groups":[]}},{"id":"4bddc19dffdec9289c49e6a1","name":"サンクス 京都城陽郵便局前店","contact":{"phone":"+81774572600","formattedPhone":"+81 774-57-2600"},"location":{"address":"寺田袋尻56-1","lat":34.85168821790884,"lng":135.78137911856174,"postalCode":"6100121","city":"城陽市","state":"京都府","country":"Japan"},"categories":[{"id":"4d954b0ea243a5684a65b473","name":"Convenience Store","pluralName":"Convenience Stores","shortName":"Convenience Stores","icon":{"prefix":"https:\/\/foursquare.com\/img\/categories_v2\/shops\/conveniencestore_","suffix":".png"},"primary":true}],"verified":false,"stats":{"checkinsCount":88,"usersCount":19,"tipCount":1},"likes":{"count":0,"groups":[]},"specials":{"count":0,"items":[]},"hereNow":{"count":0,"groups":[]}},{"id":"4d292c7c467d6ea89b7bcd95","name":"京都銀行 城陽支店","contact":{},"location":{"address":"寺田袋尻21-2","lat":34.85201012990317,"lng":135.7812201976776,"postalCode":"6100121","city":"城陽市","state":"京都府","country":"Japan"},"categories":[{"id":"4bf58dd8d48988d10a951735","name":"Bank","pluralName":"Banks","shortName":"Bank \/ Financial","icon":{"prefix":"https:\/\/foursquare.com\/img\/categories_v2\/shops\/financial_","suffix":".png"},"primary":true}],"verified":false,"stats":{"checkinsCount":34,"usersCount":3,"tipCount":0},"likes":{"count":0,"groups":[]},"specials":{"count":0,"items":[]},"hereNow":{"count":0,"groups":[]}},{"id":"4fac51c6e4b0faae2cdf8dbe","name":"cut-A 城陽寺田店","contact":{},"location":{"address":"寺田","lat":34.85109051914488,"lng":135.78192420587584,"city":"城陽市","state":"京都府","country":"Japan"},"categories":[{"id":"4bf58dd8d48988d110951735","name":"Salon \/ Barbershop","pluralName":"Salons \/ Barbershops","shortName":"Salon \/ Barbershop","icon":{"prefix":"https:\/\/foursquare.com\/img\/categories_v2\/shops\/salon_barber_","suffix":".png"},"primary":true}],"verified":false,"stats":{"checkinsCount":2,"usersCount":1,"tipCount":0},"likes":{"count":0,"groups":[]},"specials":{"count":0,"items":[]},"hereNow":{"count":0,"groups":[]}},{"id":"4bcad8af68f976b00f166083","name":"シェル La Cuisine Chinoise shell","contact":{"phone":"+81774542969","formattedPhone":"+81 774-54-2969"},"location":{"address":"寺田袋尻19","lat":34.85232268598492,"lng":135.7812738418579,"postalCode":"6100121","city":"城陽市","state":"京都府","country":"Japan"},"categories":[{"id":"4bf58dd8d48988d145941735","name":"Chinese Restaurant","pluralName":"Chinese Restaurants","shortName":"Chinese","icon":{"prefix":"https:\/\/foursquare.com\/img\/categories_v2\/food\/chinese_","suffix":".png"},"primary":true}],"verified":false,"stats":{"checkinsCount":12,"usersCount":10,"tipCount":0},"likes":{"count":0,"groups":[]},"specials":{"count":0,"items":[]},"hereNow":{"count":0,"groups":[]}},{"id":"4d9694dddaec224be6681b3e","name":"はいからさん","contact":{},"location":{"lat":34.851704,"lng":135.781675,"country":"Japan"},"categories":[],"verified":false,"stats":{"checkinsCount":1,"usersCount":1,"tipCount":0},"likes":{"count":0,"groups":[]},"specials":{"count":0,"items":[]},"hereNow":{"count":0,"groups":[]}}]}}
