{"meta":{"code":200},"response":{"venues":[{"id":"4ddf8efe7d8b04e5025ef85d","name":"沼田カイロプラクティック","contact":{},"location":{"address":"日本","lat":34.926674365997314,"lng":135.76050281524658,"city":"京都市","state":"京都府","country":"Japan"},"categories":[{"id":"4bf58dd8d48988d1ed941735","name":"Spa or Massage","pluralName":"Spas or Massages","shortName":"Spas \/ Massage","icon":{"prefix":"https:\/\/foursquare.com\/img\/categories_v2\/shops\/spa_","suffix":".png"},"primary":true}],"verified":false,"stats":{"checkinsCount":16,"usersCount":5,"tipCount":0},"likes":{"count":0,"groups":[]},"specials":{"count":0,"items":[]},"hereNow":{"count":0,"groups":[]}},{"id":"4fb23643e4b0203ec50f9f51","name":"京都銀行 エキバンク 京阪中書島駅","contact":{},"location":{"address":"伏見区葭島矢倉町59番地","crossStreet":"中書島駅1番のりば","lat":34.92701151678877,"lng":135.76055645942688,"postalCode":"612-8224","city":"京都市","state":"京都府","country":"Japan"},"categories":[{"id":"4bf58dd8d48988d10a951735","name":"Bank","pluralName":"Banks","shortName":"Bank \/ Financial","icon":{"prefix":"https:\/\/foursquare.com\/img\/categories_v2\/shops\/financial_","suffix":".png"},"primary":true}],"verified":false,"stats":{"checkinsCount":1,"usersCount":1,"tipCount":0},"likes":{"count":0,"groups":[]},"specials":{"count":0,"items":[]},"hereNow":{"count":0,"groups":[]}},{"id":"4c4a6102959220a1f2ce060e","name":"麺座 中書島","contact":{"phone":"+81756222850","formattedPhone":"+81 75-622-2850"},"location":{"address":"伏見区葭島矢倉町59","crossStreet":"中書島駅2・3番のりば","lat":34.926826792598156,"lng":135.76073348522186,"postalCode":"612-8224","city":"京都市","state":"京都府","country":"Japan"},"categories":[{"id":"4bf58dd8d48988d1d1941735","name":"Ramen \/  Noodle House","pluralName":"Ramen \/  Noodle House","shortName":"Ramen \/ Noodles","icon":{"prefix":"https:\/\/foursquare.com\/img\/categories_v2\/food\/ramen_","suffix":".png"},"primary":true}],"verified":false,"stats":{"checkinsCount":37,"usersCount":21,"tipCount":0},"likes":{"count":0,"groups":[]},"specials":{"count":0,"items":[]},"hereNow":{"count":0,"groups":[]}},{"id":"4f3c8416e4b0b4a7cd3cdbc0","name":"京の味 あさだ","contact":{},"location":{"address":"京都府伏見区","lat":34.92687643546305,"lng":135.76068072069998,"country":"Japan"},"categories":[{"id":"4bf58dd8d48988d111941735","name":"Japanese Restaurant","pluralName":"Japanese Restaurants","shortName":"Japanese","icon":{"prefix":"https:\/\/foursquare.com\/img\/categories_v2\/food\/japanese_","suffix":".png"},"primary":true}],"verified":false,"stats":{"checkinsCount":1,"usersCount":1,"tipCount":0},"likes":{"count":0,"groups":[]},"specials":{"count":0,"items":[]},"hereNow":{"count":0,"groups":[]}}]}}
