{"meta":{"code":200},"response":{"venues":[{"id":"4fa8545ae4b064d342725223","name":"久喜ポンプ工業","contact":{},"location":{"lat":34.957281,"lng":135.757236,"country":"Japan"},"categories":[{"id":"4bf58dd8d48988d124941735","name":"Office","pluralName":"Offices","shortName":"Corporate \/ Office","icon":{"prefix":"https:\/\/foursquare.com\/img\/categories_v2\/building\/default_","suffix":".png"},"primary":true}],"verified":false,"stats":{"checkinsCount":1,"usersCount":1,"tipCount":0},"likes":{"count":0,"groups":[]},"hereNow":{"count":0,"groups":[]}},{"id":"4eaa234077c850207eaa7309","name":"竹田駅西口バスターミナル","contact":{},"location":{"address":"竹田桶ノ井町","lat":34.956684972492916,"lng":135.755762,"city":"京都市伏見区","state":"京都府","country":"Japan"},"categories":[{"id":"4bf58dd8d48988d1fe931735","name":"Bus Station","pluralName":"Bus Stations","shortName":"Bus Station","icon":{"prefix":"https:\/\/foursquare.com\/img\/categories_v2\/travel\/busstation_","suffix":".png"},"primary":true}],"verified":false,"stats":{"checkinsCount":119,"usersCount":15,"tipCount":0},"likes":{"count":0,"groups":[]},"specials":{"count":0,"items":[]},"hereNow":{"count":0,"groups":[]}},{"id":"4b57aa88f964a520973a28e3","name":"竹田駅 (Takeda Sta.)","contact":{},"location":{"address":"竹田桶ノ井町","lat":34.95620150758709,"lng":135.75610399246216,"city":"京都市伏見区","state":"京都府","country":"Japan"},"categories":[{"id":"4bf58dd8d48988d129951735","name":"Train Station","pluralName":"Train Stations","shortName":"Train Station","icon":{"prefix":"https:\/\/foursquare.com\/img\/categories_v2\/travel\/trainstation_","suffix":".png"},"primary":true}],"verified":false,"stats":{"checkinsCount":616,"usersCount":306,"tipCount":1},"likes":{"count":0,"groups":[]},"specials":{"count":0,"items":[]},"hereNow":{"count":0,"groups":[]}},{"id":"4e41b6f1d1645b30b562e4b5","name":"ファミリーマート 岡本竹田駅前店","contact":{"phone":"+81756437789","formattedPhone":"+81 75-643-7789"},"location":{"address":"竹田内畑町160","lat":34.95439667324246,"lng":135.7565090060234,"city":"京都市伏見区","state":"京都府","country":"Japan"},"categories":[{"id":"4d954b0ea243a5684a65b473","name":"Convenience Store","pluralName":"Convenience Stores","shortName":"Convenience Stores","icon":{"prefix":"https:\/\/foursquare.com\/img\/categories_v2\/shops\/conveniencestore_","suffix":".png"},"primary":true}],"verified":false,"stats":{"checkinsCount":78,"usersCount":8,"tipCount":0},"likes":{"count":0,"groups":[]},"specials":{"count":0,"items":[]},"hereNow":{"count":0,"groups":[]}},{"id":"4ec58edc93adf4e73f1697c3","name":"セブンイレブン京都竹田中内畑町店","contact":{},"location":{"address":"竹田中内畑町145","lat":34.95253456,"lng":135.75593698,"city":"京都市伏見区","state":"京都府","country":"Japan"},"categories":[{"id":"4d954b0ea243a5684a65b473","name":"Convenience Store","pluralName":"Convenience Stores","shortName":"Convenience Stores","icon":{"prefix":"https:\/\/foursquare.com\/img\/categories_v2\/shops\/conveniencestore_","suffix":".png"},"primary":true}],"verified":false,"stats":{"checkinsCount":58,"usersCount":15,"tipCount":0},"likes":{"count":0,"groups":[]},"specials":{"count":0,"items":[]},"hereNow":{"count":0,"groups":[]}},{"id":"4e6968da1f6e1e74e3c8dbc9","name":"Softmedi","contact":{},"location":{"lat":34.955395618984745,"lng":135.75621472903165,"city":"京都市","state":"京都府","country":"Japan"},"categories":[{"id":"4bf58dd8d48988d104941735","name":"Medical Center","pluralName":"Medical Centers","shortName":"Medical","icon":{"prefix":"https:\/\/foursquare.com\/img\/categories_v2\/building\/medical_","suffix":".png"},"primary":true}],"verified":false,"stats":{"checkinsCount":14,"usersCount":4,"tipCount":0},"likes":{"count":0,"groups":[]},"specials":{"count":0,"items":[]},"hereNow":{"count":0,"groups":[]}},{"id":"4f1824ac4fc697fd6e28e607","name":"安楽寿院","contact":{},"location":{"address":"竹田中内畑町74","lat":34.95242032305816,"lng":135.75480446219444,"postalCode":"612-8446","city":"京都市伏見区","state":"京都府","country":"Japan"},"categories":[{"id":"4bf58dd8d48988d13a941735","name":"Temple","pluralName":"Temples","shortName":"Temple","icon":{"prefix":"https:\/\/foursquare.com\/img\/categories_v2\/building\/religious_temple_","suffix":".png"},"primary":true}],"verified":false,"stats":{"checkinsCount":1,"usersCount":1,"tipCount":0},"likes":{"count":0,"groups":[]},"specials":{"count":0,"items":[]},"hereNow":{"count":0,"groups":[]}},{"id":"4c65480fc74c1b8d3a9eb383","name":"近鉄 竹田駅","contact":{},"location":{"address":"竹田桶ノ井町","lat":34.95607137680054,"lng":135.756233,"city":"京都市伏見区","state":"京都府","country":"Japan"},"categories":[{"id":"4bf58dd8d48988d129951735","name":"Train Station","pluralName":"Train Stations","shortName":"Train Station","icon":{"prefix":"https:\/\/foursquare.com\/img\/categories_v2\/travel\/trainstation_","suffix":".png"},"primary":true}],"verified":false,"stats":{"checkinsCount":1556,"usersCount":424,"tipCount":4},"likes":{"count":0,"groups":[]},"specials":{"count":0,"items":[]},"hereNow":{"count":0,"groups":[]}},{"id":"4bfe3f3ebf6576b08665aeb8","name":"京都市営地下鉄 竹田駅 (K15)","contact":{"phone":"+81756440989","formattedPhone":"+81 75-644-0989"},"location":{"address":"竹田桶ノ井町","lat":34.95652685717523,"lng":135.75616836547852,"postalCode":"612-8421","city":"京都市伏見区","state":"京都府","country":"Japan"},"categories":[{"id":"4bf58dd8d48988d1fd931735","name":"Subway","pluralName":"Subways","shortName":"Subway","icon":{"prefix":"https:\/\/foursquare.com\/img\/categories_v2\/travel\/subway_","suffix":".png"},"primary":true}],"verified":false,"stats":{"checkinsCount":604,"usersCount":174,"tipCount":1},"likes":{"count":0,"groups":[]},"specials":{"count":0,"items":[]},"hereNow":{"count":0,"groups":[]}},{"id":"4f51ce1ae4b07de37adc3fbf","name":"竹田駅 駐輪場","contact":{},"location":{"lat":34.95562361889034,"lng":135.75604813018785,"country":"Japan"},"categories":[{"id":"4e4c9077bd41f78e849722f9","name":"Bike Rental \/ Bike Share","pluralName":"Bike Rentals \/ Bike Shares","shortName":"Bike","icon":{"prefix":"https:\/\/foursquare.com\/img\/categories_v2\/shops\/bikeshop_","suffix":".png"},"primary":true}],"verified":false,"stats":{"checkinsCount":100,"usersCount":7,"tipCount":0},"likes":{"count":0,"groups":[]},"specials":{"count":0,"items":[]},"hereNow":{"count":0,"groups":[]}},{"id":"4ebea104f7907411603ed1ce","name":"もしもしピエロNEO京都店","contact":{},"location":{"address":"伏見区田中殿町88","lat":34.955356207837596,"lng":135.75622398454004,"city":"京都市","state":"京都府","country":"Japan"},"categories":[{"id":"4bf58dd8d48988d1fb931735","name":"Motel","pluralName":"Motels","shortName":"Motel","icon":{"prefix":"https:\/\/foursquare.com\/img\/categories_v2\/travel\/hotel_","suffix":".png"},"primary":true}],"verified":false,"stats":{"checkinsCount":30,"usersCount":8,"tipCount":0},"likes":{"count":0,"groups":[]},"specials":{"count":0,"items":[]},"hereNow":{"count":0,"groups":[]}},{"id":"4ea17bbde3008f7d91a8ee03","name":"竹田駅東口バスターミナル","contact":{},"location":{"address":"竹田桶ノ井町","lat":34.956298307335025,"lng":135.75627488986842,"city":"京都市伏見区","state":"京都府","country":"Japan"},"categories":[{"id":"4bf58dd8d48988d1fe931735","name":"Bus Station","pluralName":"Bus Stations","shortName":"Bus Station","icon":{"prefix":"https:\/\/foursquare.com\/img\/categories_v2\/travel\/busstation_","suffix":".png"},"primary":true}],"verified":false,"stats":{"checkinsCount":29,"usersCount":11,"tipCount":0},"likes":{"count":0,"groups":[]},"specials":{"count":0,"items":[]},"hereNow":{"count":0,"groups":[]}},{"id":"4c8c94f95e38b1f772e332f9","name":"BAMBOO HOUSE","contact":{},"location":{"lat":34.955044,"lng":135.755982,"country":"Japan"},"categories":[{"id":"4bf58dd8d48988d16d941735","name":"Café","pluralName":"Cafés","shortName":"Café","icon":{"prefix":"https:\/\/foursquare.com\/img\/categories_v2\/food\/cafe_","suffix":".png"},"primary":true}],"verified":false,"stats":{"checkinsCount":39,"usersCount":17,"tipCount":0},"likes":{"count":0,"groups":[]},"specials":{"count":0,"items":[]},"hereNow":{"count":0,"groups":[]}},{"id":"4ec781f393ad41338cd98dd0","name":"マルーン","contact":{},"location":{"lat":34.95539806408607,"lng":135.75620084577244,"city":"京都市","state":"京都府","country":"Japan"},"categories":[{"id":"4bf58dd8d48988d11f941735","name":"Nightclub","pluralName":"Nightclubs","shortName":"Nightclub","icon":{"prefix":"https:\/\/foursquare.com\/img\/categories_v2\/nightlife\/nightclub_","suffix":".png"},"primary":true}],"verified":false,"stats":{"checkinsCount":16,"usersCount":4,"tipCount":0},"likes":{"count":0,"groups":[]},"specials":{"count":0,"items":[]},"hereNow":{"count":0,"groups":[]}},{"id":"4bb8a45bcf2fc9b6e3ae9f02","name":"best value station 竹田","contact":{"phone":"+81756462178","formattedPhone":"+81 75-646-2178"},"location":{"address":"竹田中川原町40","lat":34.95712777,"lng":135.76028708,"city":"京都市伏見区","state":"京都府","country":"Japan"},"categories":[{"id":"4bf58dd8d48988d113951735","name":"Gas Station \/ Garage","pluralName":"Gas Stations \/ Garages","shortName":"Gas Station \/ Garage","icon":{"prefix":"https:\/\/foursquare.com\/img\/categories_v2\/shops\/gas_","suffix":".png"},"primary":true}],"verified":false,"stats":{"checkinsCount":83,"usersCount":26,"tipCount":0},"likes":{"count":0,"groups":[]},"specials":{"count":0,"items":[]},"hereNow":{"count":0,"groups":[]}},{"id":"4e71908c2271d116926f5b64","name":"大和ハウス工業 京都支店","contact":{},"location":{"lat":34.955531769682146,"lng":135.75601110830166,"city":"京都市伏見区竹田","state":"京都府","country":"Japan"},"categories":[{"id":"4bf58dd8d48988d124941735","name":"Office","pluralName":"Offices","shortName":"Corporate \/ Office","icon":{"prefix":"https:\/\/foursquare.com\/img\/categories_v2\/building\/default_","suffix":".png"},"primary":true}],"verified":false,"stats":{"checkinsCount":19,"usersCount":6,"tipCount":0},"likes":{"count":0,"groups":[]},"hereNow":{"count":0,"groups":[]}},{"id":"4e5e1ace483bbc5f696872c4","name":"焼鳥海鮮 たまりば","contact":{},"location":{"address":"竹田中内畑町171","lat":34.95517056758493,"lng":135.75624712331893,"city":"京都市伏見区","state":"京都府","country":"Japan"},"categories":[{"id":"4bf58dd8d48988d111941735","name":"Japanese Restaurant","pluralName":"Japanese Restaurants","shortName":"Japanese","icon":{"prefix":"https:\/\/foursquare.com\/img\/categories_v2\/food\/japanese_","suffix":".png"},"primary":true}],"verified":false,"stats":{"checkinsCount":15,"usersCount":4,"tipCount":0},"likes":{"count":0,"groups":[]},"specials":{"count":0,"items":[]},"hereNow":{"count":0,"groups":[]}},{"id":"4ea17dd9490102dac2316e98","name":"トリのすけ","contact":{},"location":{"lat":34.9562009346504,"lng":135.76067609251268,"country":"Japan"},"categories":[{"id":"4bf58dd8d48988d147941735","name":"Diner","pluralName":"Diners","shortName":"Diner","icon":{"prefix":"https:\/\/foursquare.com\/img\/categories_v2\/food\/diner_","suffix":".png"},"primary":true}],"verified":false,"stats":{"checkinsCount":15,"usersCount":3,"tipCount":0},"likes":{"count":0,"groups":[]},"specials":{"count":0,"items":[]},"hereNow":{"count":1,"groups":[{"type":"others","name":"Other people here","count":1,"items":[]}]}},{"id":"4efda99393adc824569c4acb","name":"時代屋 竹田店","contact":{},"location":{"address":"日本","lat":34.955362776365476,"lng":135.75625175107604,"city":"京都市","state":"京都府","country":"Japan"},"categories":[{"id":"4bf58dd8d48988d11c941735","name":"Sake Bar","pluralName":"Sake Bars","shortName":"Sake Bar","icon":{"prefix":"https:\/\/foursquare.com\/img\/categories_v2\/nightlife\/sake_","suffix":".png"},"primary":true}],"verified":false,"stats":{"checkinsCount":22,"usersCount":6,"tipCount":0},"likes":{"count":0,"groups":[]},"specials":{"count":0,"items":[]},"hereNow":{"count":0,"groups":[]}},{"id":"4e8d0d972c5be96a2c89a3f7","name":"川原林整形外科","contact":{},"location":{"lat":34.95578399814465,"lng":135.75625175107606,"city":"京都市","state":"京都府","country":"Japan"},"categories":[{"id":"4bf58dd8d48988d196941735","name":"Hospital","pluralName":"Hospitals","shortName":"Hospital","icon":{"prefix":"https:\/\/foursquare.com\/img\/categories_v2\/building\/medical_hospital_","suffix":".png"},"primary":true}],"verified":false,"stats":{"checkinsCount":12,"usersCount":3,"tipCount":0},"likes":{"count":0,"groups":[]},"specials":{"count":0,"items":[]},"hereNow":{"count":0,"groups":[]}},{"id":"4e39d9ad483b3f951fc06b64","name":"ボディインパクト","contact":{},"location":{"address":"東大手町761","lat":34.95572331287556,"lng":135.7560990353283,"city":"京都市伏見区","state":"京都府","country":"Japan"},"categories":[{"id":"4bf58dd8d48988d1ed941735","name":"Spa or Massage","pluralName":"Spas or Massages","shortName":"Spas \/ Massage","icon":{"prefix":"https:\/\/foursquare.com\/img\/categories_v2\/shops\/spa_","suffix":".png"},"primary":true}],"verified":false,"stats":{"checkinsCount":15,"usersCount":3,"tipCount":0},"likes":{"count":0,"groups":[]},"specials":{"count":0,"items":[]},"hereNow":{"count":0,"groups":[]}},{"id":"4c496bc2fbafc92807aee2da","name":"よしふさ","contact":{},"location":{"address":"竹田西桶ノ井町21","lat":34.95610950114135,"lng":135.7560990353283,"city":"京都市伏見区","state":"京都府","country":"Japan"},"categories":[{"id":"4bf58dd8d48988d142941735","name":"Asian Restaurant","pluralName":"Asian Restaurants","shortName":"Asian","icon":{"prefix":"https:\/\/foursquare.com\/img\/categories_v2\/food\/asian_","suffix":".png"},"primary":true}],"verified":false,"stats":{"checkinsCount":21,"usersCount":8,"tipCount":0},"likes":{"count":0,"groups":[]},"specials":{"count":0,"items":[]},"hereNow":{"count":0,"groups":[]}},{"id":"4ea79ea9f5b917316fd9cbc8","name":"J-Cycle 伏見店","contact":{},"location":{"lat":34.954967428939675,"lng":135.75626563435011,"country":"Japan"},"categories":[{"id":"4bf58dd8d48988d115951735","name":"Bike Shop","pluralName":"Bike Shops","shortName":"Bike shop","icon":{"prefix":"https:\/\/foursquare.com\/img\/categories_v2\/shops\/bikeshop_","suffix":".png"},"primary":true}],"verified":false,"stats":{"checkinsCount":9,"usersCount":3,"tipCount":0},"likes":{"count":0,"groups":[]},"specials":{"count":0,"items":[]},"hereNow":{"count":0,"groups":[]}},{"id":"4d9bff3b7ae55481b3ce4374","name":"京都南年金事務所","contact":{},"location":{"lat":34.95550113272256,"lng":135.75978286077867,"country":"Japan"},"categories":[{"id":"4bf58dd8d48988d126941735","name":"Government Building","pluralName":"Government Buildings","shortName":"Government","icon":{"prefix":"https:\/\/foursquare.com\/img\/categories_v2\/building\/government_","suffix":".png"},"primary":true}],"verified":false,"stats":{"checkinsCount":14,"usersCount":8,"tipCount":0},"likes":{"count":0,"groups":[]},"specials":{"count":0,"items":[]},"hereNow":{"count":0,"groups":[]}},{"id":"4ecf01e2e5faa5ec012b0d29","name":"京都市伏見消防署","contact":{},"location":{"address":"竹田七瀬川町9-1","lat":34.955362666817216,"lng":135.75620084577244,"city":"京都市伏見区","state":"京都府","country":"Japan"},"categories":[{"id":"4bf58dd8d48988d12c941735","name":"Fire Station","pluralName":"Fire Stations","shortName":"Fire Station","icon":{"prefix":"https:\/\/foursquare.com\/img\/categories_v2\/building\/government_firestation_","suffix":".png"},"primary":true}],"verified":false,"stats":{"checkinsCount":22,"usersCount":4,"tipCount":0},"likes":{"count":0,"groups":[]},"specials":{"count":0,"items":[]},"hereNow":{"count":0,"groups":[]}},{"id":"4ce744108ef78cfac063929b","name":"味苑 竹田店","contact":{"phone":"+81756479119","formattedPhone":"+81 75-647-9119"},"location":{"address":"竹田七瀬川町12-4","lat":34.95616633458129,"lng":135.7601112127304,"city":"京都市伏見区","state":"京都府","country":"Japan"},"categories":[{"id":"4bf58dd8d48988d145941735","name":"Chinese Restaurant","pluralName":"Chinese Restaurants","shortName":"Chinese","icon":{"prefix":"https:\/\/foursquare.com\/img\/categories_v2\/food\/chinese_","suffix":".png"},"primary":true}],"verified":false,"stats":{"checkinsCount":42,"usersCount":20,"tipCount":1},"likes":{"count":0,"groups":[]},"specials":{"count":0,"items":[]},"hereNow":{"count":0,"groups":[]}},{"id":"4b6e6eccf964a52045bd2ce3","name":"FLET'S 竹田店","contact":{"phone":"+81756463430","formattedPhone":"+81 75-646-3430"},"location":{"address":"竹田七瀬川町6-1","crossStreet":"国道24号線","lat":34.95496604671177,"lng":135.75970351696014,"postalCode":"612-8422","city":"京都市伏見区","state":"京都府","country":"Japan"},"categories":[{"id":"4bf58dd8d48988d1fd941735","name":"Mall","pluralName":"Malls","shortName":"Mall","icon":{"prefix":"https:\/\/foursquare.com\/img\/categories_v2\/shops\/mall_","suffix":".png"},"primary":true}],"verified":false,"stats":{"checkinsCount":52,"usersCount":22,"tipCount":0},"likes":{"count":0,"groups":[]},"specials":{"count":0,"items":[]},"hereNow":{"count":0,"groups":[]}},{"id":"4dc577fae4cd169dc64d2e66","name":"ベストバリューステーション竹田","contact":{},"location":{"lat":34.957239,"lng":135.760447,"country":"Japan"},"categories":[{"id":"4bf58dd8d48988d113951735","name":"Gas Station \/ Garage","pluralName":"Gas Stations \/ Garages","shortName":"Gas Station \/ Garage","icon":{"prefix":"https:\/\/foursquare.com\/img\/categories_v2\/shops\/gas_","suffix":".png"},"primary":true}],"verified":false,"stats":{"checkinsCount":11,"usersCount":5,"tipCount":0},"likes":{"count":0,"groups":[]},"specials":{"count":0,"items":[]},"hereNow":{"count":0,"groups":[]}},{"id":"4c3dc76db36ac92825dd0586","name":"にぎり長次郎 竹田店","contact":{"phone":"+81756462660","formattedPhone":"+81 75-646-2660"},"location":{"address":"竹田七瀬川町20-5","lat":34.955186,"lng":135.76023794,"postalCode":"612-8422","city":"京都市伏見区","state":"京都府","country":"Japan"},"categories":[{"id":"4bf58dd8d48988d1d2941735","name":"Sushi Restaurant","pluralName":"Sushi Restaurants","shortName":"Sushi","icon":{"prefix":"https:\/\/foursquare.com\/img\/categories_v2\/food\/sushi_","suffix":".png"},"primary":true}],"verified":false,"stats":{"checkinsCount":33,"usersCount":24,"tipCount":1},"likes":{"count":0,"groups":[]},"specials":{"count":0,"items":[]},"hereNow":{"count":0,"groups":[]}},{"id":"4d744b73170ab1f7bef0f294","name":"Spisy Heart","contact":{},"location":{"lat":34.954582,"lng":135.756,"country":"Japan"},"categories":[{"id":"4bf58dd8d48988d16d941735","name":"Café","pluralName":"Cafés","shortName":"Café","icon":{"prefix":"https:\/\/foursquare.com\/img\/categories_v2\/food\/cafe_","suffix":".png"},"primary":true}],"verified":false,"stats":{"checkinsCount":1,"usersCount":1,"tipCount":0},"likes":{"count":0,"groups":[]},"specials":{"count":0,"items":[]},"hereNow":{"count":0,"groups":[]}},{"id":"4b7788d5f964a52051a02ee3","name":"揚子江","contact":{"phone":"+81756027088","formattedPhone":"+81 75-602-7088"},"location":{"address":"竹田西桶ノ井町27","lat":34.955992932766605,"lng":135.75558849437334,"postalCode":"612-8428","city":"京都市伏見区","state":"京都府","country":"Japan"},"categories":[{"id":"4bf58dd8d48988d145941735","name":"Chinese Restaurant","pluralName":"Chinese Restaurants","shortName":"Chinese","icon":{"prefix":"https:\/\/foursquare.com\/img\/categories_v2\/food\/chinese_","suffix":".png"},"primary":true}],"verified":false,"stats":{"checkinsCount":20,"usersCount":8,"tipCount":0},"likes":{"count":0,"groups":[]},"specials":{"count":0,"items":[]},"hereNow":{"count":0,"groups":[]}},{"id":"4b60e7a0f964a520b5002ae3","name":"フレンドリー伏見竹田店","contact":{"phone":"+81756436149","formattedPhone":"+81 75-643-6149"},"location":{"address":"深草西浦町8丁目120番","lat":34.957568,"lng":135.76098132,"city":"京都市伏見区","state":"京都府","country":"Japan"},"categories":[{"id":"4bf58dd8d48988d1c4941735","name":"Restaurant","pluralName":"Restaurants","shortName":"Other - Food","icon":{"prefix":"https:\/\/foursquare.com\/img\/categories_v2\/food\/default_","suffix":".png"},"primary":true}],"verified":false,"stats":{"checkinsCount":21,"usersCount":19,"tipCount":0},"likes":{"count":0,"groups":[]},"specials":{"count":0,"items":[]},"hereNow":{"count":0,"groups":[]}},{"id":"4f06738a02d5d2e61137659f","name":"株式会社ライフクルー","contact":{},"location":{"lat":34.955306,"lng":135.754784,"country":"Japan"},"categories":[],"verified":false,"stats":{"checkinsCount":0,"usersCount":0,"tipCount":0},"likes":{"count":0,"groups":[]},"specials":{"count":0,"items":[]},"hereNow":{"count":0,"groups":[]}},{"id":"4e6af612b0fb8b8a8471c038","name":"ヘアサロンウエダ","contact":{},"location":{"lat":34.95429575443268,"lng":135.75824439525604,"country":"Japan"},"categories":[{"id":"4bf58dd8d48988d110951735","name":"Salon \/ Barbershop","pluralName":"Salons \/ Barbershops","shortName":"Salon \/ Barbershop","icon":{"prefix":"https:\/\/foursquare.com\/img\/categories_v2\/shops\/salon_barber_","suffix":".png"},"primary":true}],"verified":false,"stats":{"checkinsCount":1,"usersCount":1,"tipCount":0},"likes":{"count":0,"groups":[]},"specials":{"count":0,"items":[]},"hereNow":{"count":0,"groups":[]}},{"id":"4e6426b9b993678bb74c92e9","name":"セブンイレブン 京都伏見竹田店","contact":{"phone":"+81756438516","formattedPhone":"+81 75-643-8516"},"location":{"address":"竹田七瀬川町12","lat":34.95626635777699,"lng":135.76015815138817,"city":"京都市伏見区","state":"京都府","country":"Japan"},"categories":[{"id":"4d954b0ea243a5684a65b473","name":"Convenience Store","pluralName":"Convenience Stores","shortName":"Convenience Stores","icon":{"prefix":"https:\/\/foursquare.com\/img\/categories_v2\/shops\/conveniencestore_","suffix":".png"},"primary":true}],"verified":false,"stats":{"checkinsCount":6,"usersCount":4,"tipCount":0},"likes":{"count":0,"groups":[]},"specials":{"count":0,"items":[]},"hereNow":{"count":0,"groups":[]}},{"id":"4e93e8eacc21f921aacf630f","name":"エムケイ株式会社 伏見営業所","contact":{},"location":{"lat":34.956737,"lng":135.759578,"country":"Japan"},"categories":[{"id":"4bf58dd8d48988d130951735","name":"Taxi","pluralName":"Taxis","shortName":"Taxi","icon":{"prefix":"https:\/\/foursquare.com\/img\/categories_v2\/travel\/taxi_","suffix":".png"},"primary":true}],"verified":false,"stats":{"checkinsCount":1,"usersCount":1,"tipCount":0},"likes":{"count":0,"groups":[]},"specials":{"count":0,"items":[]},"hereNow":{"count":0,"groups":[]}},{"id":"4b9b0baaf964a52061ee35e3","name":"和食さと 竹田店","contact":{"phone":"+81756436251","formattedPhone":"+81 75-643-6251"},"location":{"address":"伏見区竹田七瀬川町2-5","lat":34.95461269,"lng":135.75971651,"city":"京都市","state":"京都府","country":"Japan"},"categories":[{"id":"4bf58dd8d48988d111941735","name":"Japanese Restaurant","pluralName":"Japanese Restaurants","shortName":"Japanese","icon":{"prefix":"https:\/\/foursquare.com\/img\/categories_v2\/food\/japanese_","suffix":".png"},"primary":true}],"verified":false,"stats":{"checkinsCount":5,"usersCount":4,"tipCount":1},"likes":{"count":0,"groups":[]},"specials":{"count":0,"items":[]},"hereNow":{"count":0,"groups":[]}},{"id":"4c232eaf7e85c928371ebd21","name":"七瀬川町 バス停","contact":{},"location":{"address":"伏見区竹田七瀬川町","crossStreet":"市バス81・特81系統","lat":34.953989975485676,"lng":135.75979202985764,"city":"京都市","state":"京都府","country":"Japan"},"categories":[{"id":"4bf58dd8d48988d1fe931735","name":"Bus Station","pluralName":"Bus Stations","shortName":"Bus Station","icon":{"prefix":"https:\/\/foursquare.com\/img\/categories_v2\/travel\/busstation_","suffix":".png"},"primary":true}],"verified":false,"stats":{"checkinsCount":2,"usersCount":2,"tipCount":0},"likes":{"count":0,"groups":[]},"specials":{"count":0,"items":[]},"hereNow":{"count":0,"groups":[]}},{"id":"4f093812e4b09a8a3fd594dd","name":"ペル・メル","contact":{},"location":{"lat":34.956868741441845,"lng":135.76054187527646,"country":"Japan"},"categories":[{"id":"4bf58dd8d48988d16a941735","name":"Bakery","pluralName":"Bakeries","shortName":"Bakery","icon":{"prefix":"https:\/\/foursquare.com\/img\/categories_v2\/food\/bakery_","suffix":".png"},"primary":true}],"verified":false,"stats":{"checkinsCount":4,"usersCount":4,"tipCount":1},"likes":{"count":0,"groups":[]},"specials":{"count":0,"items":[]},"hereNow":{"count":0,"groups":[]}},{"id":"4b83b3a9f964a5207d0d31e3","name":"味苑","contact":{},"location":{"lat":34.955855,"lng":135.760812,"country":"Japan"},"categories":[],"verified":false,"stats":{"checkinsCount":1,"usersCount":1,"tipCount":0},"likes":{"count":0,"groups":[]},"specials":{"count":0,"items":[]},"hereNow":{"count":0,"groups":[]}},{"id":"4d5352a93d73548180143c52","name":"義丸商店","contact":{},"location":{"address":"竹田中川原町37-1","lat":34.95745539665222,"lng":135.76045989990234,"city":"京都市伏見区","state":"京都府","country":"Japan"},"categories":[{"id":"4bf58dd8d48988d1d1941735","name":"Ramen \/  Noodle House","pluralName":"Ramen \/  Noodle House","shortName":"Ramen \/ Noodles","icon":{"prefix":"https:\/\/foursquare.com\/img\/categories_v2\/food\/ramen_","suffix":".png"},"primary":true}],"verified":false,"stats":{"checkinsCount":3,"usersCount":2,"tipCount":0},"likes":{"count":0,"groups":[]},"specials":{"count":0,"items":[]},"hereNow":{"count":0,"groups":[]}},{"id":"4f28ac38e5e8eae507667a6b","name":"竹田出橋 バス停","contact":{},"location":{"address":"伏見区 深草西浦町8丁目・竹田中川原町","crossStreet":"市バス81・特81・南5・臨南5・南8系統","lat":34.957388587681585,"lng":135.76067715883255,"city":"京都市","state":"京都府","country":"Japan"},"categories":[{"id":"4bf58dd8d48988d1fe931735","name":"Bus Station","pluralName":"Bus Stations","shortName":"Bus Station","icon":{"prefix":"https:\/\/foursquare.com\/img\/categories_v2\/travel\/busstation_","suffix":".png"},"primary":true}],"verified":false,"stats":{"checkinsCount":2,"usersCount":2,"tipCount":0},"likes":{"count":0,"groups":[]},"specials":{"count":0,"items":[]},"hereNow":{"count":0,"groups":[]}},{"id":"4dc52d9a1f6ef43b8a0e0a9f","name":"ビストロなかたに","contact":{},"location":{"address":"京都市伏見区深草フチ町６−３ 日本","lat":34.956553,"lng":135.761416,"country":"Japan"},"categories":[],"verified":false,"stats":{"checkinsCount":1,"usersCount":1,"tipCount":0},"likes":{"count":0,"groups":[]},"specials":{"count":0,"items":[]},"hereNow":{"count":0,"groups":[]}},{"id":"4cc162b843646dcb6cf7448c","name":"friendly","contact":{},"location":{"lat":34.95752094,"lng":135.760973,"city":"kyoto","country":"Japan"},"categories":[{"id":"4bf58dd8d48988d14e941735","name":"American Restaurant","pluralName":"American Restaurants","shortName":"American","icon":{"prefix":"https:\/\/foursquare.com\/img\/categories_v2\/food\/default_","suffix":".png"},"primary":true}],"verified":false,"stats":{"checkinsCount":4,"usersCount":4,"tipCount":0},"likes":{"count":0,"groups":[]},"specials":{"count":0,"items":[]},"hereNow":{"count":0,"groups":[]}},{"id":"4f9d591ee4b0849ad117b58a","name":"FRIENDLY 伏見竹田店","contact":{},"location":{"address":"日本","lat":34.957523345947266,"lng":135.76101684570312,"state":"京都府","country":"Japan"},"categories":[{"id":"4bf58dd8d48988d1c4941735","name":"Restaurant","pluralName":"Restaurants","shortName":"Other - Food","icon":{"prefix":"https:\/\/foursquare.com\/img\/categories_v2\/food\/default_","suffix":".png"},"primary":true}],"verified":false,"stats":{"checkinsCount":0,"usersCount":0,"tipCount":0},"likes":{"count":0,"groups":[]},"specials":{"count":0,"items":[]},"hereNow":{"count":0,"groups":[]}},{"id":"4d6c64fc7f1c5481ccda6852","name":"まるふくらぁめん","contact":{},"location":{"lat":34.957388,"lng":135.761526,"country":"Japan"},"categories":[{"id":"4bf58dd8d48988d1d1941735","name":"Ramen \/  Noodle House","pluralName":"Ramen \/  Noodle House","shortName":"Ramen \/ Noodles","icon":{"prefix":"https:\/\/foursquare.com\/img\/categories_v2\/food\/ramen_","suffix":".png"},"primary":true}],"verified":false,"stats":{"checkinsCount":2,"usersCount":2,"tipCount":0},"likes":{"count":0,"groups":[]},"specials":{"count":0,"items":[]},"hereNow":{"count":0,"groups":[]}}]}}
