{"meta":{"code":200},"response":{"venues":[{"id":"4f0454a89adf4efb13c32d3c","name":"りらく醍醐店","contact":{},"location":{"lat":34.943163479816825,"lng":135.80646620986442,"country":"Japan"},"categories":[{"id":"4bf58dd8d48988d1ed941735","name":"Spa or Massage","pluralName":"Spas or Massages","shortName":"Spas \/ Massage","icon":{"prefix":"https:\/\/foursquare.com\/img\/categories_v2\/shops\/spa_","suffix":".png"},"primary":true}],"verified":false,"stats":{"checkinsCount":10,"usersCount":2,"tipCount":0},"likes":{"count":0,"groups":[]},"specials":{"count":0,"items":[]},"hereNow":{"count":0,"groups":[]}},{"id":"4bdc1ee563c5c9b6f6732a68","name":"湯〜とぴあダイゴ","contact":{},"location":{"lat":34.942194,"lng":135.805672,"country":"Japan"},"categories":[{"id":"4bf58dd8d48988d1ed941735","name":"Spa or Massage","pluralName":"Spas or Massages","shortName":"Spas \/ Massage","icon":{"prefix":"https:\/\/foursquare.com\/img\/categories_v2\/shops\/spa_","suffix":".png"},"primary":true}],"verified":false,"stats":{"checkinsCount":5,"usersCount":4,"tipCount":0},"likes":{"count":0,"groups":[]},"specials":{"count":0,"items":[]},"hereNow":{"count":0,"groups":[]}},{"id":"4d258d0538d0236a52a3ecb6","name":"くら寿司 石田店","contact":{},"location":{"lat":34.945389,"lng":135.806079,"country":"Japan"},"categories":[],"verified":false,"stats":{"checkinsCount":1,"usersCount":1,"tipCount":0},"likes":{"count":0,"groups":[]},"specials":{"count":0,"items":[]},"hereNow":{"count":0,"groups":[]}},{"id":"4e460d04b0fb93df2705066e","name":"串とテール煮 醍醐店","contact":{"phone":"+81755720057","formattedPhone":"+81 75-572-0057"},"location":{"address":"伏見区醍醐鍵尾町13-1","lat":34.946766,"lng":135.803379,"city":"京都市","state":"京都府","country":"Japan"},"categories":[{"id":"4bf58dd8d48988d111941735","name":"Japanese Restaurant","pluralName":"Japanese Restaurants","shortName":"Japanese","icon":{"prefix":"https:\/\/foursquare.com\/img\/categories_v2\/food\/japanese_","suffix":".png"},"primary":true}],"verified":false,"stats":{"checkinsCount":6,"usersCount":1,"tipCount":1},"likes":{"count":0,"groups":[]},"specials":{"count":0,"items":[]},"hereNow":{"count":0,"groups":[]}},{"id":"4fd971a3e4b06a8519f45e32","name":"京都市立栗陵中学校","contact":{},"location":{"lat":34.94633102416992,"lng":135.80828857421875,"country":"Japan"},"categories":[{"id":"4f4533814b9074f6e4fb0106","name":"Middle School","pluralName":"Middle Schools","shortName":"Middle School","icon":{"prefix":"https:\/\/foursquare.com\/img\/categories_v2\/building\/school_","suffix":".png"},"primary":true}],"verified":false,"stats":{"checkinsCount":0,"usersCount":0,"tipCount":0},"likes":{"count":0,"groups":[]},"specials":{"count":0,"items":[]},"hereNow":{"count":0,"groups":[]}},{"id":"4ca30d34d5a2a14397c04590","name":"セブンイレブン 京都伏見醍醐店","contact":{"phone":"+81755727055","formattedPhone":"+81 75-572-7055"},"location":{"address":"伏見区醍醐新開11-2","lat":34.943905424208396,"lng":135.8082675933838,"city":"京都市","state":"京都府","country":"Japan"},"categories":[{"id":"4d954b0ea243a5684a65b473","name":"Convenience Store","pluralName":"Convenience Stores","shortName":"Convenience Stores","icon":{"prefix":"https:\/\/foursquare.com\/img\/categories_v2\/shops\/conveniencestore_","suffix":".png"},"primary":true}],"verified":false,"stats":{"checkinsCount":58,"usersCount":25,"tipCount":0},"likes":{"count":0,"groups":[]},"specials":{"count":0,"items":[]},"hereNow":{"count":0,"groups":[]}},{"id":"4d8daead1d06b1f72a74363b","name":"くら寿司 醍醐店","contact":{"phone":"+81755753815","formattedPhone":"+81 75-575-3815"},"location":{"address":"伏見区醍醐江奈志町3","lat":34.944334158305395,"lng":135.8078920841217,"city":"京都市","state":"京都府","country":"Japan"},"categories":[{"id":"4bf58dd8d48988d1d2941735","name":"Sushi Restaurant","pluralName":"Sushi Restaurants","shortName":"Sushi","icon":{"prefix":"https:\/\/foursquare.com\/img\/categories_v2\/food\/sushi_","suffix":".png"},"primary":true}],"verified":false,"stats":{"checkinsCount":62,"usersCount":27,"tipCount":0},"likes":{"count":0,"groups":[]},"specials":{"count":0,"items":[]},"hereNow":{"count":0,"groups":[]}},{"id":"4e49edcbb61c68864854cd51","name":"まいどおおきに食堂 京都伏見食堂","contact":{},"location":{"address":"醍醐江奈志町","lat":34.944801330566406,"lng":135.8084716796875,"city":"京都市伏見区","state":"京都府","country":"Japan"},"categories":[{"id":"4bf58dd8d48988d147941735","name":"Diner","pluralName":"Diners","shortName":"Diner","icon":{"prefix":"https:\/\/foursquare.com\/img\/categories_v2\/food\/diner_","suffix":".png"},"primary":true}],"verified":false,"stats":{"checkinsCount":10,"usersCount":5,"tipCount":0},"likes":{"count":0,"groups":[]},"specials":{"count":0,"items":[]},"hereNow":{"count":0,"groups":[]}},{"id":"4bb4c4a28786ef3beb9f6533","name":"サイゼリヤ 伏見醍醐店","contact":{"phone":"+81755756230","formattedPhone":"+81 75-575-6230"},"location":{"address":"伏見区江奈志町5","lat":34.944562815573846,"lng":135.80812275409698,"postalCode":"601-1364","city":"京都市","state":"京都府","country":"Japan"},"categories":[{"id":"4bf58dd8d48988d147941735","name":"Diner","pluralName":"Diners","shortName":"Diner","icon":{"prefix":"https:\/\/foursquare.com\/img\/categories_v2\/food\/diner_","suffix":".png"},"primary":true}],"verified":false,"stats":{"checkinsCount":21,"usersCount":16,"tipCount":0},"likes":{"count":0,"groups":[]},"specials":{"count":0,"items":[]},"hereNow":{"count":0,"groups":[]}},{"id":"4c833f2851ada1cd67932410","name":"コープ醍醐石田","contact":{"phone":"+81755711211","formattedPhone":"+81 75-571-1211"},"location":{"address":"醍醐新開11-13","lat":34.9434054653315,"lng":135.80728155990553,"postalCode":"6011365","city":"京都市伏見区","state":"京都府","country":"Japan"},"categories":[{"id":"4bf58dd8d48988d118951735","name":"Grocery Store","pluralName":"Grocery Stores","shortName":"Grocery Store","icon":{"prefix":"https:\/\/foursquare.com\/img\/categories_v2\/shops\/food_grocery_","suffix":".png"},"primary":true}],"verified":false,"stats":{"checkinsCount":20,"usersCount":7,"tipCount":0},"likes":{"count":0,"groups":[]},"specials":{"count":0,"items":[]},"hereNow":{"count":0,"groups":[]}},{"id":"4c8349732f1c236a6ce34143","name":"パンこっこ醍醐石田","contact":{"phone":"+81755711211","formattedPhone":"+81 75-571-1211"},"location":{"address":"醍醐新開11-13","crossStreet":"コープ醍醐石田","lat":34.943682,"lng":135.807559,"city":"京都市伏見区","state":"京都府","country":"Japan"},"categories":[{"id":"4bf58dd8d48988d16a941735","name":"Bakery","pluralName":"Bakeries","shortName":"Bakery","icon":{"prefix":"https:\/\/foursquare.com\/img\/categories_v2\/food\/bakery_","suffix":".png"},"primary":true}],"verified":false,"stats":{"checkinsCount":1,"usersCount":1,"tipCount":0},"likes":{"count":0,"groups":[]},"specials":{"count":0,"items":[]},"hereNow":{"count":0,"groups":[]}}]}}
