{"meta":{"code":200},"response":{"venues":[{"id":"4d108771c3dc370498913974","name":"セブンイレブン 山科勧修寺店","contact":{"phone":"+81755731118","formattedPhone":"+81 75-573-1118"},"location":{"address":"山科区勧修寺御所内町22-1","lat":34.95770074292539,"lng":135.81066012382507,"city":"京都市","state":"京都府","country":"Japan"},"categories":[{"id":"4d954b0ea243a5684a65b473","name":"Convenience Store","pluralName":"Convenience Stores","shortName":"Convenience Stores","icon":{"prefix":"https:\/\/foursquare.com\/img\/categories_v2\/shops\/conveniencestore_","suffix":".png"},"primary":true}],"verified":false,"stats":{"checkinsCount":76,"usersCount":18,"tipCount":1},"likes":{"count":0,"groups":[]},"specials":{"count":0,"items":[]},"hereNow":{"count":0,"groups":[]}},{"id":"4bb1ea56f964a5206baa3ce3","name":"ラーメン横綱 醍醐店","contact":{"phone":"+81755734527","formattedPhone":"+81 75-573-4527"},"location":{"address":"醍醐川久保町23-13","lat":34.955097947337336,"lng":135.81207633018494,"postalCode":"601-1378","city":"京都市伏見区","state":"京都府","country":"Japan"},"categories":[{"id":"4bf58dd8d48988d1d1941735","name":"Ramen \/  Noodle House","pluralName":"Ramen \/  Noodle House","shortName":"Ramen \/ Noodles","icon":{"prefix":"https:\/\/foursquare.com\/img\/categories_v2\/food\/ramen_","suffix":".png"},"primary":true}],"verified":false,"stats":{"checkinsCount":128,"usersCount":63,"tipCount":1},"likes":{"count":0,"groups":[]},"specials":{"count":0,"items":[]},"hereNow":{"count":0,"groups":[]}},{"id":"4fb71081e4b073afc6705015","name":"東出橋","contact":{},"location":{"address":"京都市山科区","lat":34.960176634183405,"lng":135.81102030335657,"state":"京都府","country":"Japan"},"categories":[{"id":"4bf58dd8d48988d1df941735","name":"Bridge","pluralName":"Bridges","shortName":"Bridge","icon":{"prefix":"https:\/\/foursquare.com\/img\/categories_v2\/parks_outdoors\/bridge_","suffix":".png"},"primary":true}],"verified":false,"stats":{"checkinsCount":5,"usersCount":3,"tipCount":0},"likes":{"count":0,"groups":[]},"specials":{"count":0,"items":[]},"hereNow":{"count":0,"groups":[]}},{"id":"4be62e00910020a1231bd414","name":"萬寿亭 橘","contact":{"phone":"+81755727001","formattedPhone":"+81 75-572-7001"},"location":{"address":"山科区小野御霊町49","lat":34.95989458919514,"lng":135.81497311592102,"city":"京都市","state":"京都府","country":"Japan"},"categories":[],"verified":false,"stats":{"checkinsCount":17,"usersCount":12,"tipCount":0},"likes":{"count":0,"groups":[]},"specials":{"count":0,"items":[]},"hereNow":{"count":0,"groups":[]}},{"id":"4d60eda1865a224b9435b185","name":"居酒屋 一旦","contact":{},"location":{"address":"京都市山科区小野西浦町68－20","lat":34.96112557941517,"lng":135.81472635269165,"city":"京都市","state":"京都府","country":"Japan"},"categories":[],"verified":false,"stats":{"checkinsCount":11,"usersCount":2,"tipCount":0},"likes":{"count":0,"groups":[]},"specials":{"count":0,"items":[]},"hereNow":{"count":0,"groups":[]}},{"id":"4fb5af60e4b033224625c00c","name":"新山科浄水場","contact":{},"location":{"lat":34.957908630371094,"lng":135.8157501220703,"country":"Japan"},"categories":[{"id":"4bf58dd8d48988d130941735","name":"Building","pluralName":"Buildings","shortName":"Other - Buildings","icon":{"prefix":"https:\/\/foursquare.com\/img\/categories_v2\/building\/default_","suffix":".png"},"primary":true}],"verified":false,"stats":{"checkinsCount":2,"usersCount":1,"tipCount":0},"likes":{"count":0,"groups":[]},"specials":{"count":0,"items":[]},"hereNow":{"count":0,"groups":[]}},{"id":"4d55f9bdfb65236a141200b4","name":"辻際醍醐診療所","contact":{},"location":{"lat":34.958572,"lng":135.81521,"country":"Japan"},"categories":[{"id":"4bf58dd8d48988d196941735","name":"Hospital","pluralName":"Hospitals","shortName":"Hospital","icon":{"prefix":"https:\/\/foursquare.com\/img\/categories_v2\/building\/medical_hospital_","suffix":".png"},"primary":true}],"verified":false,"stats":{"checkinsCount":1,"usersCount":1,"tipCount":0},"likes":{"count":0,"groups":[]},"specials":{"count":0,"items":[]},"hereNow":{"count":0,"groups":[]}},{"id":"4d7211cebce5721ea952c815","name":"スギ薬局 醍醐店","contact":{},"location":{"address":"醍醐川久保町43","lat":34.95566368103027,"lng":135.81213533878326,"city":"京都市伏見区","state":"京都府","country":"Japan"},"categories":[{"id":"4bf58dd8d48988d10f951735","name":"Drugstore \/ Pharmacy","pluralName":"Drugstores \/ Pharmacies","shortName":"Pharmacy","icon":{"prefix":"https:\/\/foursquare.com\/img\/categories_v2\/shops\/pharmacy_","suffix":".png"},"primary":true}],"verified":false,"stats":{"checkinsCount":26,"usersCount":10,"tipCount":0},"likes":{"count":0,"groups":[]},"specials":{"count":0,"items":[]},"hereNow":{"count":0,"groups":[]}},{"id":"4de60d75ae607cf3446b0434","name":"活魚料理 大将","contact":{"phone":"+81755722804","formattedPhone":"+81 75-572-2804"},"location":{"address":"勧修寺東出町43","crossStreet":"ニュープラザ小野1F","lat":34.957693,"lng":135.812734,"postalCode":"607-8216","city":"京都市山科区","state":"京都府","country":"Japan"},"categories":[{"id":"4bf58dd8d48988d111941735","name":"Japanese Restaurant","pluralName":"Japanese Restaurants","shortName":"Japanese","icon":{"prefix":"https:\/\/foursquare.com\/img\/categories_v2\/food\/japanese_","suffix":".png"},"primary":true}],"verified":false,"stats":{"checkinsCount":1,"usersCount":1,"tipCount":0},"likes":{"count":0,"groups":[]},"specials":{"count":0,"items":[]},"hereNow":{"count":0,"groups":[]}},{"id":"4dfd7c8f149599f28fcea442","name":"萬寿亭 橘","contact":{"phone":"+81755727001","formattedPhone":"+81 75-572-7001"},"location":{"address":"山科区小野御霊町49","lat":34.955615,"lng":135.811904,"city":"京都市","state":"京都府","country":"Japan"},"categories":[{"id":"4bf58dd8d48988d111941735","name":"Japanese Restaurant","pluralName":"Japanese Restaurants","shortName":"Japanese","icon":{"prefix":"https:\/\/foursquare.com\/img\/categories_v2\/food\/japanese_","suffix":".png"},"primary":true}],"verified":false,"stats":{"checkinsCount":1,"usersCount":1,"tipCount":0},"likes":{"count":0,"groups":[]},"specials":{"count":0,"items":[]},"hereNow":{"count":0,"groups":[]}},{"id":"4d86e53240a7a35d3ef43dbe","name":"ちきりやガーデン","contact":{},"location":{"address":"京都府京都市山科区勧修寺閑林寺８５−１","lat":34.955523,"lng":135.811589,"city":"Kyoto","state":"Kyoto Prefecture","country":"Japan"},"categories":[{"id":"4bf58dd8d48988d11b951735","name":"Flower Shop","pluralName":"Flower Shops","shortName":"Flower Shop","icon":{"prefix":"https:\/\/foursquare.com\/img\/categories_v2\/shops\/flowershop_","suffix":".png"},"primary":true}],"verified":false,"stats":{"checkinsCount":1,"usersCount":1,"tipCount":0},"likes":{"count":0,"groups":[]},"specials":{"count":0,"items":[]},"hereNow":{"count":0,"groups":[]}},{"id":"4c53a11c1b46c9b6af2141cd","name":"ダイソー 京都山科勧修寺店","contact":{"phone":"+81755738866","formattedPhone":"+81 75-573-8866"},"location":{"address":"山科区勧修寺東出町38","lat":34.9603,"lng":135.811476,"city":"京都市","state":"京都府","country":"Japan"},"categories":[{"id":"4bf58dd8d48988d1ff941735","name":"Miscellaneous Shop","pluralName":"Miscellaneous Shops","shortName":"Other - Shop","icon":{"prefix":"https:\/\/foursquare.com\/img\/categories_v2\/shops\/default_","suffix":".png"},"primary":true}],"verified":false,"stats":{"checkinsCount":23,"usersCount":7,"tipCount":1},"likes":{"count":0,"groups":[]},"specials":{"count":0,"items":[]},"hereNow":{"count":0,"groups":[]}},{"id":"4c5390e4a724e21e0e7af2f4","name":"ローソンストア100 山科小野駅前店","contact":{"phone":"+81755753299","formattedPhone":"+81 75-575-3299"},"location":{"address":"山科区勧修寺東出町30-1","crossStreet":"シャトー竹村2","lat":34.96101354805059,"lng":135.8124610441456,"postalCode":"日本","city":"京都市","state":"京都府","country":"Japan"},"categories":[{"id":"4bf58dd8d48988d1ff941735","name":"Miscellaneous Shop","pluralName":"Miscellaneous Shops","shortName":"Other - Shop","icon":{"prefix":"https:\/\/foursquare.com\/img\/categories_v2\/shops\/default_","suffix":".png"},"primary":true}],"verified":false,"stats":{"checkinsCount":32,"usersCount":9,"tipCount":0},"likes":{"count":0,"groups":[]},"specials":{"count":0,"items":[]},"hereNow":{"count":0,"groups":[]}},{"id":"4f601fbae4b0490587c9ec78","name":"京都中央信用金庫 南山科支店","contact":{},"location":{"lat":34.960693359375,"lng":135.8124237060547,"country":"Japan"},"categories":[{"id":"4bf58dd8d48988d10a951735","name":"Bank","pluralName":"Banks","shortName":"Bank \/ Financial","icon":{"prefix":"https:\/\/foursquare.com\/img\/categories_v2\/shops\/financial_","suffix":".png"},"primary":true}],"verified":false,"stats":{"checkinsCount":4,"usersCount":3,"tipCount":0},"likes":{"count":0,"groups":[]},"specials":{"count":0,"items":[]},"hereNow":{"count":0,"groups":[]}},{"id":"4dba4ef70437ffd207a14b75","name":"京阪バス 小野駅バス停(西行き)","contact":{},"location":{"crossStreet":"勧修寺東出町","lat":34.96018367428624,"lng":135.8121322537671,"city":"京都市山科区","state":"京都府","country":"Japan"},"categories":[{"id":"4bf58dd8d48988d1fe931735","name":"Bus Station","pluralName":"Bus Stations","shortName":"Bus Station","icon":{"prefix":"https:\/\/foursquare.com\/img\/categories_v2\/travel\/busstation_","suffix":".png"},"primary":true}],"verified":false,"stats":{"checkinsCount":9,"usersCount":5,"tipCount":0},"likes":{"count":0,"groups":[]},"specials":{"count":0,"items":[]},"hereNow":{"count":0,"groups":[]}},{"id":"4da131657aee548173c8bcfe","name":"京栄堂","contact":{},"location":{"lat":34.960486343406615,"lng":135.81202105756157,"country":"Japan"},"categories":[],"verified":false,"stats":{"checkinsCount":3,"usersCount":3,"tipCount":0},"likes":{"count":0,"groups":[]},"specials":{"count":0,"items":[]},"hereNow":{"count":0,"groups":[]}},{"id":"4d33e9dc8250f04daf1701e1","name":"レッドバロン山科","contact":{"phone":"+81755743300","formattedPhone":"+81 75-574-3300"},"location":{"address":"日本","crossStreet":"外環","lat":34.95948194,"lng":135.81222207,"city":"京都市山科区勧修寺東出町86","state":"京都府","country":"Japan"},"categories":[{"id":"4bf58dd8d48988d124951735","name":"Automotive Shop","pluralName":"Automotive Shops","shortName":"Automotive","icon":{"prefix":"https:\/\/foursquare.com\/img\/categories_v2\/shops\/automotive_","suffix":".png"},"primary":true}],"verified":false,"stats":{"checkinsCount":51,"usersCount":15,"tipCount":0},"likes":{"count":0,"groups":[]},"specials":{"count":0,"items":[]},"hereNow":{"count":0,"groups":[]}},{"id":"4d97db5161a3a1cd22d9c042","name":"Hotto Motto山科観修寺店","contact":{},"location":{"address":"京都市山科区観修寺","lat":34.958715,"lng":135.812256,"city":"Kyoto","state":"Kyoto Prefecture","country":"Japan"},"categories":[],"verified":false,"stats":{"checkinsCount":13,"usersCount":2,"tipCount":0},"likes":{"count":0,"groups":[]},"specials":{"count":0,"items":[]},"hereNow":{"count":0,"groups":[]}},{"id":"4deccc861f6e3ddebe070afb","name":"ほっともっと 山科勧修寺店","contact":{"phone":"+81755753176","formattedPhone":"+81 75-575-3176"},"location":{"address":"勧修寺閑林寺203","lat":34.958850145339966,"lng":135.81220507621765,"city":"京都市山科区","state":"京都府","country":"Japan"},"categories":[{"id":"4bf58dd8d48988d11f951735","name":"Deli or Bodega","pluralName":"Delis or Bodegas","shortName":"Deli \/ Bodega","icon":{"prefix":"https:\/\/foursquare.com\/img\/categories_v2\/shops\/food_deli_","suffix":".png"},"primary":true}],"verified":false,"stats":{"checkinsCount":6,"usersCount":4,"tipCount":0},"likes":{"count":0,"groups":[]},"specials":{"count":0,"items":[]},"hereNow":{"count":0,"groups":[]}},{"id":"4d6d9ff7619a236a18e1678f","name":"エムケイ石油 醍醐小野営業所","contact":{},"location":{"lat":34.959343,"lng":135.812432,"country":"Japan"},"categories":[{"id":"4bf58dd8d48988d113951735","name":"Gas Station \/ Garage","pluralName":"Gas Stations \/ Garages","shortName":"Gas Station \/ Garage","icon":{"prefix":"https:\/\/foursquare.com\/img\/categories_v2\/shops\/gas_","suffix":".png"},"primary":true}],"verified":false,"stats":{"checkinsCount":2,"usersCount":1,"tipCount":0},"likes":{"count":0,"groups":[]},"specials":{"count":0,"items":[]},"hereNow":{"count":0,"groups":[]}},{"id":"4ef58d196c25c411e9b2e7c2","name":"京都銀行 小野出張所","contact":{},"location":{"lat":34.96013259887695,"lng":135.81227111816406,"country":"Japan"},"categories":[{"id":"4bf58dd8d48988d10a951735","name":"Bank","pluralName":"Banks","shortName":"Bank \/ Financial","icon":{"prefix":"https:\/\/foursquare.com\/img\/categories_v2\/shops\/financial_","suffix":".png"},"primary":true}],"verified":false,"stats":{"checkinsCount":0,"usersCount":0,"tipCount":0},"likes":{"count":0,"groups":[]},"specials":{"count":0,"items":[]},"hereNow":{"count":0,"groups":[]}},{"id":"4b861f11f964a520718031e3","name":"シャルウィダンス","contact":{},"location":{"lat":34.960466,"lng":135.813006,"country":"Japan"},"categories":[],"verified":false,"stats":{"checkinsCount":2,"usersCount":1,"tipCount":0},"likes":{"count":0,"groups":[]},"specials":{"count":0,"items":[]},"hereNow":{"count":0,"groups":[]}}]}}
