{"meta":{"code":200},"response":{"venues":[{"id":"4f0bde3f7beb6538248c7d1b","name":"Shin-Arami Parking (Hayashi)","contact":{},"location":{"address":"3 Tai-Arami, Kumiyama-cho","lat":34.880522682221496,"lng":135.7380849123001,"postalCode":"613-0036","city":"Kuse-gun","state":"Kyoto","country":"Japan"},"categories":[{"id":"4c38df4de52ce0d596b336e1","name":"Parking","pluralName":"Parking","shortName":"Parking","icon":{"prefix":"https:\/\/foursquare.com\/img\/categories_v2\/building\/parking_","suffix":".png"},"primary":true}],"verified":true,"stats":{"checkinsCount":1,"usersCount":1,"tipCount":0},"likes":{"count":0,"groups":[]},"specials":{"count":0,"items":[]},"hereNow":{"count":0,"groups":[]}},{"id":"4c1c76b6b306c9282dfb63b7","name":"来来亭 久御山店","contact":{"phone":"+81774453439","formattedPhone":"+81 774-45-3439"},"location":{"address":"下津屋川原107-1","lat":34.87690304271308,"lng":135.74200361967087,"postalCode":"613-0035","city":"久世郡久御山町","state":"京都府","country":"Japan"},"categories":[{"id":"4bf58dd8d48988d1d1941735","name":"Ramen \/  Noodle House","pluralName":"Ramen \/  Noodle House","shortName":"Ramen \/ Noodles","icon":{"prefix":"https:\/\/foursquare.com\/img\/categories_v2\/food\/ramen_","suffix":".png"},"primary":true}],"verified":false,"stats":{"checkinsCount":37,"usersCount":29,"tipCount":1},"likes":{"count":0,"groups":[]},"specials":{"count":0,"items":[]},"hereNow":{"count":0,"groups":[]}},{"id":"4c08d1e7009a0f4795a6e6bf","name":"来来家","contact":{},"location":{"lat":34.87784262403064,"lng":135.7401716709137,"country":"Japan"},"categories":[{"id":"4bf58dd8d48988d113941735","name":"Korean Restaurant","pluralName":"Korean Restaurants","shortName":"Korean","icon":{"prefix":"https:\/\/foursquare.com\/img\/categories_v2\/food\/default_","suffix":".png"},"primary":true}],"verified":false,"stats":{"checkinsCount":3,"usersCount":3,"tipCount":0},"likes":{"count":0,"groups":[]},"specials":{"count":0,"items":[]},"hereNow":{"count":0,"groups":[]}},{"id":"4e9a28d95c5ce9b982cf321f","name":"木津川大橋","contact":{},"location":{"address":"八幡市\/久世郡久御山町","crossStreet":"京阪国道\/木津川","lat":34.87414584865432,"lng":135.73220014572144,"city":"八幡市\/久世郡久御山町","state":"京都府","country":"Japan"},"categories":[{"id":"4bf58dd8d48988d1df941735","name":"Bridge","pluralName":"Bridges","shortName":"Bridge","icon":{"prefix":"https:\/\/foursquare.com\/img\/categories_v2\/parks_outdoors\/bridge_","suffix":".png"},"primary":true}],"verified":false,"stats":{"checkinsCount":107,"usersCount":25,"tipCount":0},"likes":{"count":0,"groups":[]},"specials":{"count":0,"items":[]},"hereNow":{"count":0,"groups":[]}},{"id":"4b5fa850f964a520b3c629e3","name":"ヤマダ電機 テックランド京都八幡店","contact":{"phone":"+81759721515","formattedPhone":"+81 75-972-1515"},"location":{"address":"下奈良宮ノ道15-1","lat":34.87065906501985,"lng":135.7289419323206,"postalCode":"614-8131","city":"八幡市","state":"京都府","country":"Japan"},"categories":[{"id":"4bf58dd8d48988d122951735","name":"Electronics Store","pluralName":"Electronics Stores","shortName":"Electronics","icon":{"prefix":"https:\/\/foursquare.com\/img\/categories_v2\/shops\/technology_","suffix":".png"},"primary":true}],"verified":false,"stats":{"checkinsCount":202,"usersCount":99,"tipCount":1},"likes":{"count":0,"groups":[]},"specials":{"count":0,"items":[]},"hereNow":{"count":0,"groups":[]}},{"id":"4b6d2456f964a5209a682ce3","name":"家具楽","contact":{"phone":"+81774451001","formattedPhone":"+81 774-45-1001"},"location":{"address":"下津屋鯛ヶ鼻73","lat":34.874291,"lng":135.732304,"postalCode":"613-0035","city":"久世郡久御山町","state":"京都府","country":"Japan"},"categories":[{"id":"4bf58dd8d48988d1f8941735","name":"Furniture \/ Home Store","pluralName":"Furniture \/ Home Stores","shortName":"Furniture \/ Home","icon":{"prefix":"https:\/\/foursquare.com\/img\/categories_v2\/shops\/furniture_","suffix":".png"},"primary":true}],"verified":false,"stats":{"checkinsCount":8,"usersCount":2,"tipCount":0},"likes":{"count":0,"groups":[]},"specials":{"count":0,"items":[]},"hereNow":{"count":0,"groups":[]}},{"id":"4c05ccde517d0f47b223f515","name":"BIGBOY八幡店","contact":{},"location":{"lat":34.870776,"lng":135.729849,"country":"Japan"},"categories":[{"id":"4bf58dd8d48988d1c4941735","name":"Restaurant","pluralName":"Restaurants","shortName":"Other - Food","icon":{"prefix":"https:\/\/foursquare.com\/img\/categories_v2\/food\/default_","suffix":".png"},"primary":true}],"verified":false,"stats":{"checkinsCount":79,"usersCount":45,"tipCount":0},"likes":{"count":0,"groups":[]},"specials":{"count":0,"items":[]},"hereNow":{"count":0,"groups":[]}},{"id":"4d37c62d0f81b60cf4293a3a","name":"ファミリーマート 八幡国道店","contact":{"phone":"+81759720037","formattedPhone":"+81 75-972-0037"},"location":{"address":"下奈良新下13-5","lat":34.87031687033344,"lng":135.72863146662712,"city":"八幡市","state":"京都府","country":"Japan"},"categories":[{"id":"4d954b0ea243a5684a65b473","name":"Convenience Store","pluralName":"Convenience Stores","shortName":"Convenience Stores","icon":{"prefix":"https:\/\/foursquare.com\/img\/categories_v2\/shops\/conveniencestore_","suffix":".png"},"primary":true}],"verified":false,"stats":{"checkinsCount":53,"usersCount":22,"tipCount":0},"likes":{"count":0,"groups":[]},"specials":{"count":0,"items":[]},"hereNow":{"count":0,"groups":[]}},{"id":"4d8986a77d4c54814af35571","name":"幸楽苑 京都久御山店","contact":{},"location":{"address":"久御山町田井向野17-1","lat":34.879175,"lng":135.735932,"city":"久世郡","state":"京都府","country":"Japan"},"categories":[{"id":"4bf58dd8d48988d1d1941735","name":"Ramen \/  Noodle House","pluralName":"Ramen \/  Noodle House","shortName":"Ramen \/ Noodles","icon":{"prefix":"https:\/\/foursquare.com\/img\/categories_v2\/food\/ramen_","suffix":".png"},"primary":true}],"verified":false,"stats":{"checkinsCount":113,"usersCount":39,"tipCount":0},"likes":{"count":0,"groups":[]},"specials":{"count":0,"items":[]},"hereNow":{"count":0,"groups":[]}},{"id":"4c47c03119fde21ed3750976","name":"やよい軒 久御山店","contact":{"phone":"+81774412890","formattedPhone":"+81 774-41-2890"},"location":{"address":"久御山町下津屋北野町23-1-2","lat":34.878928,"lng":135.735937,"city":"久世郡","state":"京都府","country":"Japan"},"categories":[{"id":"4bf58dd8d48988d111941735","name":"Japanese Restaurant","pluralName":"Japanese Restaurants","shortName":"Japanese","icon":{"prefix":"https:\/\/foursquare.com\/img\/categories_v2\/food\/japanese_","suffix":".png"},"primary":true}],"verified":false,"stats":{"checkinsCount":110,"usersCount":37,"tipCount":0},"likes":{"count":0,"groups":[]},"specials":{"count":0,"items":[]},"hereNow":{"count":0,"groups":[]}},{"id":"4bdf95686198c9b65fdf17ff","name":"天下一品 木津川店","contact":{"phone":"+81774417903","formattedPhone":"+81 774-41-7903"},"location":{"address":"久御山町下津屋鯛ヶ鼻64-2","lat":34.87788663225998,"lng":135.73476433753967,"city":"久世郡","state":"京都府","country":"Japan"},"categories":[{"id":"4bf58dd8d48988d1d1941735","name":"Ramen \/  Noodle House","pluralName":"Ramen \/  Noodle House","shortName":"Ramen \/ Noodles","icon":{"prefix":"https:\/\/foursquare.com\/img\/categories_v2\/food\/ramen_","suffix":".png"},"primary":true}],"verified":false,"stats":{"checkinsCount":56,"usersCount":29,"tipCount":0},"likes":{"count":0,"groups":[]},"specials":{"count":0,"items":[]},"hereNow":{"count":0,"groups":[]}},{"id":"4ca853b9b0b8236a726fb2e6","name":"アストロプロダクツ 京都南店","contact":{"phone":"+81774453250","formattedPhone":"+81 774-45-3250"},"location":{"address":"田井向野15-1","lat":34.879044,"lng":135.736181,"city":"久世郡久御山町","state":"京都府","country":"Japan"},"categories":[{"id":"4bf58dd8d48988d124951735","name":"Automotive Shop","pluralName":"Automotive Shops","shortName":"Automotive","icon":{"prefix":"https:\/\/foursquare.com\/img\/categories_v2\/shops\/automotive_","suffix":".png"},"primary":true}],"verified":false,"stats":{"checkinsCount":122,"usersCount":25,"tipCount":0},"likes":{"count":0,"groups":[]},"specials":{"count":0,"items":[]},"hereNow":{"count":0,"groups":[]}},{"id":"4d43ff041911a0931356d3d8","name":"カラオケあそびば 京都久御山店","contact":{},"location":{"lat":34.87909,"lng":135.735855,"country":"Japan"},"categories":[],"verified":false,"stats":{"checkinsCount":32,"usersCount":11,"tipCount":1},"likes":{"count":0,"groups":[]},"specials":{"count":0,"items":[]},"hereNow":{"count":0,"groups":[]}},{"id":"4f9a10cce4b092f08b046f71","name":"本家かまどや 木津川店","contact":{"phone":"+81774462170","formattedPhone":"+81 774-46-2170"},"location":{"address":"久御山町下津屋64","lat":34.878231048583984,"lng":135.73526000976562,"city":"久世郡","state":"京都府","country":"Japan"},"categories":[{"id":"4bf58dd8d48988d146941735","name":"Deli\/Bodega","pluralName":"Delis\/Bodegas","shortName":"Deli \/ Bodega","icon":{"prefix":"https:\/\/foursquare.com\/img\/categories_v2\/food\/deli_","suffix":".png"},"primary":true}],"verified":false,"stats":{"checkinsCount":1,"usersCount":1,"tipCount":0},"likes":{"count":0,"groups":[]},"specials":{"count":0,"items":[]},"hereNow":{"count":0,"groups":[]}},{"id":"4cf085d71d18a14398484dec","name":"フォルクスワーゲン宇治","contact":{},"location":{"lat":34.879005,"lng":135.735944,"country":"Japan"},"categories":[{"id":"4eb1c1623b7b52c0e1adc2ec","name":"Car Dealership","pluralName":"Car Dealerships","shortName":"Car Dealer","icon":{"prefix":"https:\/\/foursquare.com\/img\/categories_v2\/shops\/automotive_","suffix":".png"},"primary":true}],"verified":false,"stats":{"checkinsCount":66,"usersCount":15,"tipCount":0},"likes":{"count":0,"groups":[]},"specials":{"count":0,"items":[]},"hereNow":{"count":0,"groups":[]}},{"id":"4e543d21b0fb1e3684c035fa","name":"KyotoAR (京都動物高度医療センター)","contact":{"phone":"+81774397413","formattedPhone":"+81 774-39-7413"},"location":{"address":"田井新荒見208-4","lat":34.879725,"lng":135.736875,"postalCode":"613-0036","city":"久世郡久御山町","state":"京都府","country":"Japan"},"categories":[{"id":"4d954af4a243a5684765b473","name":"Veterinarian","pluralName":"Veterinarians","shortName":"Veterinarians","icon":{"prefix":"https:\/\/foursquare.com\/img\/categories_v2\/building\/medical_veterinarian_","suffix":".png"},"primary":true}],"verified":false,"stats":{"checkinsCount":42,"usersCount":6,"tipCount":0},"likes":{"count":0,"groups":[]},"specials":{"count":0,"items":[]},"hereNow":{"count":0,"groups":[]}},{"id":"4e2a4b52d164223a6975d70d","name":"コスモ石油 セルフステーション京都","contact":{},"location":{"address":"田井向野16","lat":34.87955012605049,"lng":135.73694229125977,"city":"久世郡久御山町","state":"京都府","country":"Japan"},"categories":[{"id":"4bf58dd8d48988d113951735","name":"Gas Station \/ Garage","pluralName":"Gas Stations \/ Garages","shortName":"Gas Station \/ Garage","icon":{"prefix":"https:\/\/foursquare.com\/img\/categories_v2\/shops\/gas_","suffix":".png"},"primary":true}],"verified":false,"stats":{"checkinsCount":13,"usersCount":7,"tipCount":0},"likes":{"count":0,"groups":[]},"specials":{"count":0,"items":[]},"hereNow":{"count":0,"groups":[]}},{"id":"4dad1fe893a0faeb8dbce699","name":"久御山田井","contact":{},"location":{"lat":34.880208,"lng":135.73658202383092,"country":"Japan"},"categories":[{"id":"4bf58dd8d48988d1f9931735","name":"Road","pluralName":"Roads","shortName":"Road","icon":{"prefix":"https:\/\/foursquare.com\/img\/categories_v2\/travel\/highway_","suffix":".png"},"primary":true}],"verified":false,"stats":{"checkinsCount":1,"usersCount":1,"tipCount":0},"likes":{"count":0,"groups":[]},"specials":{"count":0,"items":[]},"hereNow":{"count":0,"groups":[]}},{"id":"4e2644d8d16486291b9f36f6","name":"あそびば 久御山店","contact":{},"location":{"lat":34.87869783946202,"lng":135.7361483888678,"country":"Japan"},"categories":[{"id":"4bf58dd8d48988d1f1931735","name":"General Entertainment","pluralName":"General Entertainment","shortName":"Other - Entertainment","icon":{"prefix":"https:\/\/foursquare.com\/img\/categories_v2\/arts_entertainment\/default_","suffix":".png"},"primary":true}],"verified":false,"stats":{"checkinsCount":6,"usersCount":2,"tipCount":0},"likes":{"count":0,"groups":[]},"specials":{"count":0,"items":[]},"hereNow":{"count":0,"groups":[]}},{"id":"4d8b66ab26a36ea8c76c08ae","name":"てらにし","contact":{},"location":{"lat":34.878968,"lng":135.735867,"country":"Japan"},"categories":[],"verified":false,"stats":{"checkinsCount":16,"usersCount":3,"tipCount":0},"likes":{"count":0,"groups":[]},"specials":{"count":0,"items":[]},"hereNow":{"count":0,"groups":[]}},{"id":"4cba5f5790c9a14378588ed6","name":"アウトレット・メガショップ家具楽","contact":{},"location":{"lat":34.878998,"lng":135.735887,"country":"Japan"},"categories":[{"id":"4bf58dd8d48988d1f8941735","name":"Furniture \/ Home Store","pluralName":"Furniture \/ Home Stores","shortName":"Furniture \/ Home","icon":{"prefix":"https:\/\/foursquare.com\/img\/categories_v2\/shops\/furniture_","suffix":".png"},"primary":true}],"verified":false,"stats":{"checkinsCount":28,"usersCount":5,"tipCount":0},"likes":{"count":0,"groups":[]},"specials":{"count":0,"items":[]},"hereNow":{"count":0,"groups":[]}},{"id":"4e13d54063657e2eebc3b4fa","name":"(株)京都スタンダードKSD 京都南SS","contact":{"phone":"+81774437246","formattedPhone":"+81 774-43-7246"},"location":{"address":"田井小字新荒見239-1","lat":34.88001880274599,"lng":135.73704421520233,"postalCode":"6130036","city":"久世郡久御山町","state":"京都府","country":"Japan"},"categories":[{"id":"4bf58dd8d48988d113951735","name":"Gas Station \/ Garage","pluralName":"Gas Stations \/ Garages","shortName":"Gas Station \/ Garage","icon":{"prefix":"https:\/\/foursquare.com\/img\/categories_v2\/shops\/gas_","suffix":".png"},"primary":true}],"verified":false,"stats":{"checkinsCount":9,"usersCount":6,"tipCount":0},"likes":{"count":0,"groups":[]},"specials":{"count":0,"items":[]},"hereNow":{"count":0,"groups":[]}}]}}
