{"meta":{"code":200},"response":{"venues":[{"id":"4ba32624f964a520b02d38e3","name":"TSUTAYA 藤の森店","contact":{},"location":{"address":"深草西浦町5-50","crossStreet":"アルカディアシティ","lat":34.95799531086792,"lng":135.76805591583252,"postalCode":"612-0029","city":"京都市伏見区","state":"京都府","country":"Japan"},"categories":[{"id":"4bf58dd8d48988d126951735","name":"Video Store","pluralName":"Video Stores","shortName":"Video Store","icon":{"prefix":"https:\/\/foursquare.com\/img\/categories_v2\/shops\/video_","suffix":".png"},"primary":true}],"verified":false,"stats":{"checkinsCount":62,"usersCount":20,"tipCount":0},"likes":{"count":0,"groups":[]},"specials":{"count":0,"items":[]},"hereNow":{"count":0,"groups":[]}},{"id":"4f2830ffe5e8940a57ec9347","name":"藤ノ森 バス停","contact":{},"location":{"address":"伏見区深草飯食町","crossStreet":"市バス南8・臨南5系統","lat":34.955498044603026,"lng":135.7685722410679,"city":"京都市","state":"京都府","country":"Japan"},"categories":[{"id":"4bf58dd8d48988d1fe931735","name":"Bus Station","pluralName":"Bus Stations","shortName":"Bus Station","icon":{"prefix":"https:\/\/foursquare.com\/img\/categories_v2\/travel\/busstation_","suffix":".png"},"primary":true}],"verified":false,"stats":{"checkinsCount":0,"usersCount":0,"tipCount":0},"likes":{"count":0,"groups":[]},"specials":{"count":0,"items":[]},"hereNow":{"count":0,"groups":[]}},{"id":"4dfefe781495f702193507b8","name":"ティールーム マヒシャ","contact":{},"location":{"lat":34.953198,"lng":135.767964,"country":"Japan"},"categories":[],"verified":false,"stats":{"checkinsCount":0,"usersCount":0,"tipCount":0},"likes":{"count":0,"groups":[]},"specials":{"count":0,"items":[]},"hereNow":{"count":0,"groups":[]}},{"id":"4dd74ca5d4c05d5096e707e5","name":"七瀬川公園","contact":{},"location":{"lat":34.953314,"lng":135.764051,"city":"Kyoto","state":"Kyoto Prefecture","country":"Japan"},"categories":[{"id":"4bf58dd8d48988d163941735","name":"Park","pluralName":"Parks","shortName":"Park","icon":{"prefix":"https:\/\/foursquare.com\/img\/categories_v2\/parks_outdoors\/park_","suffix":".png"},"primary":true}],"verified":false,"stats":{"checkinsCount":9,"usersCount":3,"tipCount":0},"likes":{"count":0,"groups":[]},"specials":{"count":0,"items":[]},"hereNow":{"count":0,"groups":[]}},{"id":"4d9564c3a2c6548167d2a653","name":"テラ・ルネッサンス事務局","contact":{},"location":{"lat":34.953496,"lng":135.764427,"city":"Kyoto","state":"Kyoto Prefecture","country":"Japan"},"categories":[{"id":"4bf58dd8d48988d124941735","name":"Office","pluralName":"Offices","shortName":"Corporate \/ Office","icon":{"prefix":"https:\/\/foursquare.com\/img\/categories_v2\/building\/default_","suffix":".png"},"primary":true}],"verified":false,"stats":{"checkinsCount":1,"usersCount":1,"tipCount":0},"likes":{"count":0,"groups":[]},"hereNow":{"count":0,"groups":[]}},{"id":"4faddb93e4b0c824b8639dfa","name":"つかさ薬局","contact":{},"location":{"address":"深草西浦町7-73-1","crossStreet":"ニューライフマンション藤森101","lat":34.95714315720729,"lng":135.7639437046095,"postalCode":"612-0029","city":"京都市伏見区","state":"京都府","country":"Japan"},"categories":[{"id":"4bf58dd8d48988d10f951735","name":"Drugstore \/ Pharmacy","pluralName":"Drugstores \/ Pharmacies","shortName":"Pharmacy","icon":{"prefix":"https:\/\/foursquare.com\/img\/categories_v2\/shops\/pharmacy_","suffix":".png"},"primary":true}],"verified":false,"stats":{"checkinsCount":0,"usersCount":0,"tipCount":0},"likes":{"count":0,"groups":[]},"specials":{"count":0,"items":[]},"hereNow":{"count":0,"groups":[]}},{"id":"4c9d5aba0e9bb1f74ac8dc5f","name":"まつむら医院","contact":{},"location":{"lat":34.957237,"lng":135.763704,"country":"Japan"},"categories":[],"verified":false,"stats":{"checkinsCount":1,"usersCount":1,"tipCount":0},"likes":{"count":0,"groups":[]},"specials":{"count":0,"items":[]},"hereNow":{"count":0,"groups":[]}},{"id":"4e8bf995e5fa774802bf83ea","name":"ファミリーマート 京都深草フチ町店","contact":{"phone":"+81756462464","formattedPhone":"+81 75-646-2464"},"location":{"address":"深草フチ町1番","lat":34.95600365923307,"lng":135.76309248805046,"city":"京都市伏見区","state":"京都府","country":"Japan"},"categories":[{"id":"4d954b0ea243a5684a65b473","name":"Convenience Store","pluralName":"Convenience Stores","shortName":"Convenience Stores","icon":{"prefix":"https:\/\/foursquare.com\/img\/categories_v2\/shops\/conveniencestore_","suffix":".png"},"primary":true}],"verified":false,"stats":{"checkinsCount":20,"usersCount":11,"tipCount":0},"likes":{"count":0,"groups":[]},"specials":{"count":0,"items":[]},"hereNow":{"count":0,"groups":[]}},{"id":"4e6c700db61c739ba88d441a","name":"Cafe de Gospel","contact":{},"location":{"lat":34.95625733647776,"lng":135.76287916048292,"country":"Japan"},"categories":[],"verified":false,"stats":{"checkinsCount":14,"usersCount":9,"tipCount":0},"likes":{"count":0,"groups":[]},"specials":{"count":0,"items":[]},"hereNow":{"count":0,"groups":[]}},{"id":"4facd6dae4b0bcc0c1705338","name":"East Village Guitars イーストビレッジギターズ","contact":{},"location":{"lat":34.956087,"lng":135.763429,"country":"Japan"},"categories":[{"id":"4bf58dd8d48988d1fe941735","name":"Music Store","pluralName":"Music Stores","shortName":"Music Store","icon":{"prefix":"https:\/\/foursquare.com\/img\/categories_v2\/shops\/music_instruments_","suffix":".png"},"primary":true}],"verified":false,"stats":{"checkinsCount":2,"usersCount":2,"tipCount":0},"likes":{"count":0,"groups":[]},"specials":{"count":0,"items":[]},"hereNow":{"count":0,"groups":[]}},{"id":"4da79aec81541df437ab2d13","name":"京都市立 藤森中学校","contact":{},"location":{"address":"深草池ノ内町55","lat":34.955955296229455,"lng":135.76507329940796,"postalCode":"612-0031","city":"京都市伏見区","state":"京都府","country":"Japan"},"categories":[{"id":"4bf58dd8d48988d13b941735","name":"School","pluralName":"Schools","shortName":"School","icon":{"prefix":"https:\/\/foursquare.com\/img\/categories_v2\/building\/school_","suffix":".png"},"primary":true}],"verified":false,"stats":{"checkinsCount":13,"usersCount":6,"tipCount":0},"likes":{"count":0,"groups":[]},"specials":{"count":0,"items":[]},"hereNow":{"count":0,"groups":[]}},{"id":"4b5ceb9af964a520d44a29e3","name":"京エコロジーセンター (京都市環境保全活動センター)","contact":{"phone":"+81756410911","formattedPhone":"+81 75-641-0911"},"location":{"address":"深草池ノ内町13","lat":34.95596848614236,"lng":135.76613545417786,"postalCode":"612-0031","city":"京都市伏見区","state":"京都府","country":"Japan"},"categories":[{"id":"4bf58dd8d48988d124941735","name":"Office","pluralName":"Offices","shortName":"Corporate \/ Office","icon":{"prefix":"https:\/\/foursquare.com\/img\/categories_v2\/building\/default_","suffix":".png"},"primary":true}],"verified":false,"stats":{"checkinsCount":110,"usersCount":18,"tipCount":0},"likes":{"count":0,"groups":[]},"hereNow":{"count":0,"groups":[]}},{"id":"4c9b0290b8e9224be7dc523d","name":"CHOCOLAT FURANSUYA","contact":{},"location":{"address":"日本","lat":34.95466741,"lng":135.76407543,"city":"京都市","state":"京都府","country":"Japan"},"categories":[],"verified":false,"stats":{"checkinsCount":1,"usersCount":1,"tipCount":0},"likes":{"count":0,"groups":[]},"specials":{"count":0,"items":[]},"hereNow":{"count":0,"groups":[]}},{"id":"4e0bef692271c698c734e328","name":"らーめん 喝采","contact":{},"location":{"address":"京都市伏見区深草キトロ町27","lat":34.95778056359458,"lng":135.7682252634843,"city":"京都市","state":"京都府","country":"Japan"},"categories":[{"id":"4bf58dd8d48988d145941735","name":"Chinese Restaurant","pluralName":"Chinese Restaurants","shortName":"Chinese","icon":{"prefix":"https:\/\/foursquare.com\/img\/categories_v2\/food\/chinese_","suffix":".png"},"primary":true}],"verified":false,"stats":{"checkinsCount":26,"usersCount":14,"tipCount":0},"likes":{"count":0,"groups":[]},"specials":{"count":0,"items":[]},"hereNow":{"count":0,"groups":[]}},{"id":"4bb07cb4f964a520ea473ce3","name":"京都市青少年科学センター","contact":{"phone":"+81756421601","formattedPhone":"+81 75-642-1601"},"location":{"address":"伏見区深草池ノ内町13","lat":34.95577503387364,"lng":135.7667577266693,"postalCode":"612-0031","city":"京都市","state":"京都府","country":"Japan"},"categories":[{"id":"4bf58dd8d48988d191941735","name":"Science Museum","pluralName":"Science Museums","shortName":"Science Museum","icon":{"prefix":"https:\/\/foursquare.com\/img\/categories_v2\/arts_entertainment\/museum_science_","suffix":".png"},"primary":true}],"verified":false,"stats":{"checkinsCount":65,"usersCount":47,"tipCount":1},"likes":{"count":0,"groups":[]},"specials":{"count":0,"items":[]},"hereNow":{"count":0,"groups":[]}},{"id":"4cb8f90b4495721ecdd9477a","name":"深草東児童公園","contact":{},"location":{"lat":34.956955,"lng":135.766743,"country":"Japan"},"categories":[{"id":"4bf58dd8d48988d163941735","name":"Park","pluralName":"Parks","shortName":"Park","icon":{"prefix":"https:\/\/foursquare.com\/img\/categories_v2\/parks_outdoors\/park_","suffix":".png"},"primary":true}],"verified":false,"stats":{"checkinsCount":6,"usersCount":5,"tipCount":0},"likes":{"count":0,"groups":[]},"specials":{"count":0,"items":[]},"hereNow":{"count":0,"groups":[]}},{"id":"4dc8a85b887721632c681e60","name":"ローソン 深草西浦店","contact":{"phone":"+81756471336","formattedPhone":"+81 75-647-1336","twitter":"akiko_lawson"},"location":{"address":"伏見区深草西浦町5丁目48-1","lat":34.95755565683318,"lng":135.76640367507935,"city":"京都市","state":"京都府","country":"Japan"},"categories":[{"id":"4d954b0ea243a5684a65b473","name":"Convenience Store","pluralName":"Convenience Stores","shortName":"Convenience Stores","icon":{"prefix":"https:\/\/foursquare.com\/img\/categories_v2\/shops\/conveniencestore_","suffix":".png"},"primary":true}],"verified":true,"stats":{"checkinsCount":65,"usersCount":20,"tipCount":0},"likes":{"count":0,"groups":[]},"specials":{"count":0,"items":[]},"hereNow":{"count":0,"groups":[]}},{"id":"4f640d34e4b0bca461e87f45","name":"浅本内科医院","contact":{},"location":{"address":"伏見区深草堀田町1番地","crossStreet":"ハイムウィスタリア　1階","lat":34.95674726896397,"lng":135.7681882321373,"postalCode":"612-0026","city":"京都市","state":"京都府","country":"Japan"},"categories":[{"id":"4bf58dd8d48988d177941735","name":"Doctor's Office","pluralName":"Doctor's Offices","shortName":"Doctor's Office","icon":{"prefix":"https:\/\/foursquare.com\/img\/categories_v2\/building\/medical_","suffix":".png"},"primary":true}],"verified":false,"stats":{"checkinsCount":3,"usersCount":1,"tipCount":0},"likes":{"count":0,"groups":[]},"specials":{"count":0,"items":[]},"hereNow":{"count":0,"groups":[]}},{"id":"4ea3c04a775b5c3e83b4f737","name":"双葉堂","contact":{"phone":"+81756231717","formattedPhone":"+81 75-623-1717"},"location":{"crossStreet":"和泉24-10","lat":34.9577694444,"lng":135.768283333,"postalCode":"612-8015","city":"京都市伏見区桃山町","state":"京都府","country":"Japan"},"categories":[],"verified":false,"stats":{"checkinsCount":0,"usersCount":0,"tipCount":0},"likes":{"count":0,"groups":[]},"specials":{"count":0,"items":[]},"hereNow":{"count":0,"groups":[]}},{"id":"4e507d82b61cf637a50512db","name":"福吉（手作り餃子専門店）","contact":{},"location":{"lat":34.95819738141063,"lng":135.76670237307152,"country":"Japan"},"categories":[{"id":"4bf58dd8d48988d142941735","name":"Asian Restaurant","pluralName":"Asian Restaurants","shortName":"Asian","icon":{"prefix":"https:\/\/foursquare.com\/img\/categories_v2\/food\/asian_","suffix":".png"},"primary":true}],"verified":false,"stats":{"checkinsCount":5,"usersCount":5,"tipCount":0},"likes":{"count":0,"groups":[]},"specials":{"count":0,"items":[]},"hereNow":{"count":0,"groups":[]}},{"id":"4bef968cc80dc9281e2728e3","name":"ドラッグユタカ 伏見西浦店","contact":{"phone":"+81756410008","formattedPhone":"+81 75-641-0008"},"location":{"address":"伏見区深草西浦町5丁目45番地3","lat":34.957454536071594,"lng":135.76707154512405,"postalCode":"612-0029","city":"京都市","state":"京都府","country":"Japan"},"categories":[{"id":"4bf58dd8d48988d10f951735","name":"Drugstore \/ Pharmacy","pluralName":"Drugstores \/ Pharmacies","shortName":"Pharmacy","icon":{"prefix":"https:\/\/foursquare.com\/img\/categories_v2\/shops\/pharmacy_","suffix":".png"},"primary":true}],"verified":false,"stats":{"checkinsCount":31,"usersCount":10,"tipCount":0},"likes":{"count":0,"groups":[]},"specials":{"count":0,"items":[]},"hereNow":{"count":0,"groups":[]}},{"id":"4b823195f964a520dccc30e3","name":"京都深草 バス停","contact":{},"location":{"address":"深草五反田町","lat":34.9565752198416,"lng":135.7654058933258,"city":"京都市伏見区","state":"京都府","country":"Japan"},"categories":[{"id":"4bf58dd8d48988d1fe931735","name":"Bus Station","pluralName":"Bus Stations","shortName":"Bus Station","icon":{"prefix":"https:\/\/foursquare.com\/img\/categories_v2\/travel\/busstation_","suffix":".png"},"primary":true}],"verified":false,"stats":{"checkinsCount":187,"usersCount":138,"tipCount":1},"likes":{"count":0,"groups":[]},"specials":{"count":0,"items":[]},"hereNow":{"count":0,"groups":[]}},{"id":"4e8198c75c5c0669143335ae","name":"AQUA SHOP wasabi アク ショップ ワサビ","contact":{},"location":{"lat":34.95847611664983,"lng":135.76728560194948,"city":"京都市伏見区深草西浦町５－４","country":"Japan"},"categories":[{"id":"4bf58dd8d48988d100951735","name":"Pet Store","pluralName":"Pet Stores","shortName":"Pet Store","icon":{"prefix":"https:\/\/foursquare.com\/img\/categories_v2\/shops\/pet_store_","suffix":".png"},"primary":true}],"verified":false,"stats":{"checkinsCount":6,"usersCount":4,"tipCount":0},"likes":{"count":0,"groups":[]},"specials":{"count":0,"items":[]},"hereNow":{"count":0,"groups":[]}},{"id":"4da5167ba86ed93def3086ee","name":"仲上整骨院","contact":{"phone":"+81755946392","formattedPhone":"+81 75-594-6392"},"location":{"address":"山科区椥辻東潰31-2","lat":34.957077,"lng":135.766426,"postalCode":"607-8163","city":"京都市","state":"京都府","country":"Japan"},"categories":[{"id":"4bf58dd8d48988d104941735","name":"Medical Center","pluralName":"Medical Centers","shortName":"Medical","icon":{"prefix":"https:\/\/foursquare.com\/img\/categories_v2\/building\/medical_","suffix":".png"},"primary":true}],"verified":false,"stats":{"checkinsCount":2,"usersCount":2,"tipCount":0},"likes":{"count":0,"groups":[]},"specials":{"count":0,"items":[]},"hereNow":{"count":0,"groups":[]}},{"id":"4f28ad53e5e8eae50766a4c3","name":"青少年科学センター前 バス停","contact":{},"location":{"address":"伏見区深草西浦町","crossStreet":"市バス南5・臨南5・南8系統\/京阪バス","lat":34.95721272504879,"lng":135.76634734869003,"city":"京都市","state":"京都府","country":"Japan"},"categories":[{"id":"4bf58dd8d48988d1fe931735","name":"Bus Station","pluralName":"Bus Stations","shortName":"Bus Station","icon":{"prefix":"https:\/\/foursquare.com\/img\/categories_v2\/travel\/busstation_","suffix":".png"},"primary":true}],"verified":false,"stats":{"checkinsCount":1,"usersCount":1,"tipCount":0},"likes":{"count":0,"groups":[]},"specials":{"count":0,"items":[]},"hereNow":{"count":0,"groups":[]}},{"id":"4eb3e921e30006eb11702a1d","name":"Chaps","contact":{"phone":"+81756470701","formattedPhone":"+81 75-647-0701"},"location":{"address":"深草西浦町7-73-3","lat":34.957366,"lng":135.764154,"city":"伏見区","state":"京都府","country":"Japan"},"categories":[{"id":"4bf58dd8d48988d116941735","name":"Bar","pluralName":"Bars","shortName":"Bar","icon":{"prefix":"https:\/\/foursquare.com\/img\/categories_v2\/nightlife\/bar_","suffix":".png"},"primary":true}],"verified":false,"stats":{"checkinsCount":1,"usersCount":1,"tipCount":0},"likes":{"count":0,"groups":[]},"specials":{"count":0,"items":[]},"hereNow":{"count":0,"groups":[]}},{"id":"4ca161e746978cfaadf9bb7f","name":"拉麺昭屋","contact":{},"location":{"lat":34.957222,"lng":135.765657,"city":"京都市伏見区","state":"京都府","country":"Japan"},"categories":[{"id":"4bf58dd8d48988d1d1941735","name":"Ramen \/  Noodle House","pluralName":"Ramen \/  Noodle House","shortName":"Ramen \/ Noodles","icon":{"prefix":"https:\/\/foursquare.com\/img\/categories_v2\/food\/ramen_","suffix":".png"},"primary":true}],"verified":false,"stats":{"checkinsCount":16,"usersCount":5,"tipCount":0},"likes":{"count":0,"groups":[]},"specials":{"count":0,"items":[]},"hereNow":{"count":0,"groups":[]}},{"id":"4d2b10056e27a14391263424","name":"勇気凛々","contact":{},"location":{"address":"日本","lat":34.95686351,"lng":135.76551327,"country":"Japan"},"categories":[],"verified":false,"stats":{"checkinsCount":3,"usersCount":3,"tipCount":0},"likes":{"count":0,"groups":[]},"specials":{"count":0,"items":[]},"hereNow":{"count":0,"groups":[]}},{"id":"4f05234d93adf931de654088","name":"河野商事株式会社","contact":{},"location":{"address":"日本","lat":34.95821188250259,"lng":135.76536930528897,"city":"京都市","state":"京都府","country":"Japan"},"categories":[{"id":"4bf58dd8d48988d124941735","name":"Office","pluralName":"Offices","shortName":"Corporate \/ Office","icon":{"prefix":"https:\/\/foursquare.com\/img\/categories_v2\/building\/default_","suffix":".png"},"primary":true}],"verified":false,"stats":{"checkinsCount":1,"usersCount":0,"tipCount":0},"likes":{"count":0,"groups":[]},"hereNow":{"count":0,"groups":[]}},{"id":"4f4d6e4ce4b0393386e3d12f","name":"児童療育センター","contact":{},"location":{"lat":34.95735168457031,"lng":135.7659454345703,"country":"Japan"},"categories":[{"id":"4f4531b14b9074f6e4fb0103","name":"Laboratory","pluralName":"Laboratories","shortName":"Lab","icon":{"prefix":"https:\/\/foursquare.com\/img\/categories_v2\/building\/medical_","suffix":".png"},"primary":true}],"verified":false,"stats":{"checkinsCount":1,"usersCount":1,"tipCount":0},"likes":{"count":0,"groups":[]},"specials":{"count":0,"items":[]},"hereNow":{"count":0,"groups":[]}},{"id":"4f501267e4b0b7a72feb6b4f","name":"きらきら園あおぞら教室","contact":{},"location":{"lat":34.95738983154297,"lng":135.7660675048828,"country":"Japan"},"categories":[{"id":"4bf58dd8d48988d130941735","name":"Building","pluralName":"Buildings","shortName":"Other - Buildings","icon":{"prefix":"https:\/\/foursquare.com\/img\/categories_v2\/building\/default_","suffix":".png"},"primary":true}],"verified":false,"stats":{"checkinsCount":0,"usersCount":0,"tipCount":0},"likes":{"count":0,"groups":[]},"specials":{"count":0,"items":[]},"hereNow":{"count":0,"groups":[]}},{"id":"4fb264c9a17c5518d6fbce76","name":"大河","contact":{},"location":{"address":"伏見区深草西浦町7-45-1","lat":34.95799531086792,"lng":135.76465487480164,"postalCode":"612-0029","city":"京都市","state":"京都府","country":"Japan"},"categories":[{"id":"4bf58dd8d48988d1d1941735","name":"Ramen \/  Noodle House","pluralName":"Ramen \/  Noodle House","shortName":"Ramen \/ Noodles","icon":{"prefix":"https:\/\/foursquare.com\/img\/categories_v2\/food\/ramen_","suffix":".png"},"primary":true}],"verified":false,"stats":{"checkinsCount":2,"usersCount":2,"tipCount":0},"likes":{"count":0,"groups":[]},"specials":{"count":0,"items":[]},"hereNow":{"count":0,"groups":[]}}]}}
