{"meta":{"code":200},"response":{"venues":[{"id":"4ba4b677f964a5205eae38e3","name":"ジョーシン 伏見店","contact":{"phone":"+81756051711","formattedPhone":"+81 75-605-1711"},"location":{"address":"下鳥羽但馬町101","lat":34.93234634788577,"lng":135.74832558631897,"postalCode":"612-8208","city":"京都市伏見区","state":"京都府","country":"Japan"},"categories":[{"id":"4bf58dd8d48988d122951735","name":"Electronics Store","pluralName":"Electronics Stores","shortName":"Electronics","icon":{"prefix":"https:\/\/foursquare.com\/img\/categories_v2\/shops\/technology_","suffix":".png"},"primary":true}],"verified":false,"stats":{"checkinsCount":126,"usersCount":60,"tipCount":0},"likes":{"count":0,"groups":[]},"specials":{"count":0,"items":[]},"hereNow":{"count":0,"groups":[]}},{"id":"4dd4df68d22d8e00fcd31dd4","name":"コジマ NEW伏見店","contact":{"phone":"+81756034413","formattedPhone":"+81 75-603-4413"},"location":{"address":"横大路芝生1","lat":34.930767485129415,"lng":135.74546098709106,"postalCode":"612-8246","city":"京都市伏見区","state":"京都府","country":"Japan"},"categories":[{"id":"4bf58dd8d48988d122951735","name":"Electronics Store","pluralName":"Electronics Stores","shortName":"Electronics","icon":{"prefix":"https:\/\/foursquare.com\/img\/categories_v2\/shops\/technology_","suffix":".png"},"primary":true}],"verified":false,"stats":{"checkinsCount":40,"usersCount":24,"tipCount":1},"likes":{"count":0,"groups":[]},"specials":{"count":0,"items":[]},"hereNow":{"count":0,"groups":[]}},{"id":"4da04d7bb787a1cd0d617d10","name":"炭火焼肉屋さかい 伏見横大路店","contact":{"phone":"+81756058929","formattedPhone":"+81 75-605-8929"},"location":{"address":"横大路芝生33-1","lat":34.927849367718004,"lng":135.74450612068176,"postalCode":"612-8246","city":"京都市伏見区","state":"京都府","country":"Japan"},"categories":[{"id":"4bf58dd8d48988d1df931735","name":"BBQ Joint","pluralName":"BBQ Joints","shortName":"BBQ","icon":{"prefix":"https:\/\/foursquare.com\/img\/categories_v2\/food\/bbq_","suffix":".png"},"primary":true}],"verified":false,"stats":{"checkinsCount":13,"usersCount":13,"tipCount":0},"url":"http:\/\/www.yakiniku.jp\/sumibi\/index.html","likes":{"count":0,"groups":[]},"specials":{"count":0,"items":[]},"hereNow":{"count":0,"groups":[]}},{"id":"4d578071bdac60fcd1c888d0","name":"ローソン 下鳥羽上三栖店","contact":{"phone":"+81756051950","formattedPhone":"+81 75-605-1950","twitter":"akiko_lawson"},"location":{"address":"下鳥羽上三栖町138","lat":34.93253655701649,"lng":135.7466720044613,"city":"京都市伏見区","state":"京都府","country":"Japan"},"categories":[{"id":"4d954b0ea243a5684a65b473","name":"Convenience Store","pluralName":"Convenience Stores","shortName":"Convenience Stores","icon":{"prefix":"https:\/\/foursquare.com\/img\/categories_v2\/shops\/conveniencestore_","suffix":".png"},"primary":true}],"verified":true,"stats":{"checkinsCount":5,"usersCount":5,"tipCount":0},"likes":{"count":0,"groups":[]},"specials":{"count":0,"items":[]},"hereNow":{"count":0,"groups":[]}},{"id":"4e191e3352b123a586ddfeaf","name":"焼肉さかい","contact":{},"location":{"lat":34.92839,"lng":135.744652,"city":"京都市","state":"京都府","country":"Japan"},"categories":[{"id":"4bf58dd8d48988d111941735","name":"Japanese Restaurant","pluralName":"Japanese Restaurants","shortName":"Japanese","icon":{"prefix":"https:\/\/foursquare.com\/img\/categories_v2\/food\/japanese_","suffix":".png"},"primary":true}],"verified":false,"stats":{"checkinsCount":2,"usersCount":2,"tipCount":0},"likes":{"count":0,"groups":[]},"specials":{"count":0,"items":[]},"hereNow":{"count":0,"groups":[]}},{"id":"4d268724467d6ea82ef8b495","name":"黄桜","contact":{},"location":{"lat":34.931115,"lng":135.747918,"country":"Japan"},"categories":[{"id":"4bf58dd8d48988d124941735","name":"Office","pluralName":"Offices","shortName":"Corporate \/ Office","icon":{"prefix":"https:\/\/foursquare.com\/img\/categories_v2\/building\/default_","suffix":".png"},"primary":true}],"verified":false,"stats":{"checkinsCount":1,"usersCount":1,"tipCount":0},"likes":{"count":0,"groups":[]},"hereNow":{"count":0,"groups":[]}},{"id":"4b716d14f964a52006462de3","name":"ラーメン幸樹 横大路店","contact":{"phone":"+81756446457","formattedPhone":"+81 75-644-6457"},"location":{"address":"横大路芝生30−7","lat":34.92820341763875,"lng":135.74508011341095,"postalCode":"612-8246","city":"京都市伏見区","state":"京都府","country":"Japan"},"categories":[{"id":"4bf58dd8d48988d1d1941735","name":"Ramen \/  Noodle House","pluralName":"Ramen \/  Noodle House","shortName":"Ramen \/ Noodles","icon":{"prefix":"https:\/\/foursquare.com\/img\/categories_v2\/food\/ramen_","suffix":".png"},"primary":true}],"verified":false,"stats":{"checkinsCount":24,"usersCount":19,"tipCount":0},"likes":{"count":0,"groups":[]},"specials":{"count":0,"items":[]},"hereNow":{"count":0,"groups":[]}},{"id":"4df18b9e45dd4e2693388f28","name":"COCONUTS CLUB","contact":{},"location":{"lat":34.931904,"lng":135.745438,"city":"Kyoto","state":"Kyoto Prefecture","country":"Japan"},"categories":[{"id":"4bf58dd8d48988d1c4941735","name":"Restaurant","pluralName":"Restaurants","shortName":"Other - Food","icon":{"prefix":"https:\/\/foursquare.com\/img\/categories_v2\/food\/default_","suffix":".png"},"primary":true}],"verified":false,"stats":{"checkinsCount":1,"usersCount":1,"tipCount":0},"likes":{"count":0,"groups":[]},"specials":{"count":0,"items":[]},"hereNow":{"count":0,"groups":[]}},{"id":"4cedf4e00acea35df642e7ae","name":"麺や もったいない","contact":{},"location":{"address":"伏見区","lat":34.932654,"lng":135.74596889,"city":"京都市","country":"Japan"},"categories":[{"id":"4bf58dd8d48988d1d1941735","name":"Ramen \/  Noodle House","pluralName":"Ramen \/  Noodle House","shortName":"Ramen \/ Noodles","icon":{"prefix":"https:\/\/foursquare.com\/img\/categories_v2\/food\/ramen_","suffix":".png"},"primary":true}],"verified":false,"stats":{"checkinsCount":31,"usersCount":27,"tipCount":0},"likes":{"count":0,"groups":[]},"specials":{"count":0,"items":[]},"hereNow":{"count":0,"groups":[]}},{"id":"4f2388336d863d628eae1207","name":"国道大手筋 バス停","contact":{},"location":{"address":"伏見区下鳥羽上三栖町","crossStreet":"市バス19・20・22・南3・南8系統","lat":34.93270587575601,"lng":135.74594110250473,"city":"京都市","state":"京都府","country":"Japan"},"categories":[{"id":"4bf58dd8d48988d1fe931735","name":"Bus Station","pluralName":"Bus Stations","shortName":"Bus Station","icon":{"prefix":"https:\/\/foursquare.com\/img\/categories_v2\/travel\/busstation_","suffix":".png"},"primary":true}],"verified":false,"stats":{"checkinsCount":1,"usersCount":1,"tipCount":0},"likes":{"count":0,"groups":[]},"specials":{"count":0,"items":[]},"hereNow":{"count":0,"groups":[]}},{"id":"4f24c879e4b04b5525d6f619","name":"カスノモーターサイクル","contact":{"phone":"+81756220225","formattedPhone":"+81 75-622-0225"},"location":{"address":"下鳥羽広長町217","lat":34.93087624198346,"lng":135.74264346083194,"postalCode":"612-8473","city":"京都市伏見区","state":"京都府","country":"Japan"},"categories":[{"id":"4eb1c1623b7b52c0e1adc2ec","name":"Car Dealership","pluralName":"Car Dealerships","shortName":"Car Dealer","icon":{"prefix":"https:\/\/foursquare.com\/img\/categories_v2\/shops\/automotive_","suffix":".png"},"primary":true}],"verified":false,"stats":{"checkinsCount":59,"usersCount":5,"tipCount":0},"likes":{"count":0,"groups":[]},"specials":{"count":0,"items":[]},"hereNow":{"count":0,"groups":[]}},{"id":"4d018b006289f04dc47e98cc","name":"大手筋交差点","contact":{},"location":{"address":"下鳥羽広長町","crossStreet":"京阪国道大手筋","lat":34.932649252969675,"lng":135.7449808716774,"city":"京都市伏見区","state":"京都府","country":"Japan"},"categories":[{"id":"4bf58dd8d48988d1f9931735","name":"Road","pluralName":"Roads","shortName":"Road","icon":{"prefix":"https:\/\/foursquare.com\/img\/categories_v2\/travel\/highway_","suffix":".png"},"primary":true}],"verified":false,"stats":{"checkinsCount":78,"usersCount":7,"tipCount":0},"likes":{"count":0,"groups":[]},"specials":{"count":0,"items":[]},"hereNow":{"count":0,"groups":[]}},{"id":"4b5be0bef964a5203e1b29e3","name":"アールエスタイチ京都","contact":{"phone":"+81756231417","formattedPhone":"+81 75-623-1417"},"location":{"address":"横大路朱雀36","lat":34.92955363126309,"lng":135.74344396591187,"postalCode":"612-8292","city":"京都市伏見区","state":"京都府","country":"Japan"},"categories":[{"id":"4bf58dd8d48988d124951735","name":"Automotive Shop","pluralName":"Automotive Shops","shortName":"Automotive","icon":{"prefix":"https:\/\/foursquare.com\/img\/categories_v2\/shops\/automotive_","suffix":".png"},"primary":true}],"verified":false,"stats":{"checkinsCount":306,"usersCount":106,"tipCount":0},"likes":{"count":0,"groups":[]},"specials":{"count":0,"items":[]},"hereNow":{"count":0,"groups":[]}},{"id":"4c8cb6ae5e38b1f7b2c333f9","name":"たこ仙人","contact":{},"location":{"lat":34.932004,"lng":135.744695,"country":"Japan"},"categories":[],"verified":false,"stats":{"checkinsCount":12,"usersCount":3,"tipCount":0},"likes":{"count":0,"groups":[]},"specials":{"count":0,"items":[]},"hereNow":{"count":0,"groups":[]}},{"id":"4d6a61de9bd6a143c5806cdf","name":"With You","contact":{},"location":{"lat":34.932004,"lng":135.74489,"country":"Japan"},"categories":[{"id":"4bf58dd8d48988d16d941735","name":"Café","pluralName":"Cafés","shortName":"Café","icon":{"prefix":"https:\/\/foursquare.com\/img\/categories_v2\/food\/cafe_","suffix":".png"},"primary":true}],"verified":false,"stats":{"checkinsCount":7,"usersCount":7,"tipCount":0},"likes":{"count":0,"groups":[]},"specials":{"count":0,"items":[]},"hereNow":{"count":0,"groups":[]}},{"id":"4ce5acebf3bda143667ba6e4","name":"安田産業株式会社 統括管理本部 会議室","contact":{},"location":{"lat":34.932369403925556,"lng":135.74480405511207,"country":"Japan"},"categories":[{"id":"4bf58dd8d48988d127941735","name":"Conference Room","pluralName":"Conference Rooms","shortName":"Conference room","icon":{"prefix":"https:\/\/foursquare.com\/img\/categories_v2\/building\/office_conferenceroom_","suffix":".png"},"primary":true}],"verified":false,"stats":{"checkinsCount":3,"usersCount":3,"tipCount":0},"likes":{"count":0,"groups":[]},"hereNow":{"count":0,"groups":[]}},{"id":"4dddae54227106a58b7be5ed","name":"ジェイアール西日本マルニックス京都支店","contact":{},"location":{"lat":34.931246,"lng":135.743713,"country":"Japan"},"categories":[{"id":"4bf58dd8d48988d174941735","name":"Coworking Space","pluralName":"Coworking Spaces","shortName":"Coworking Space","icon":{"prefix":"https:\/\/foursquare.com\/img\/categories_v2\/building\/office_coworkingspace_","suffix":".png"},"primary":true}],"verified":false,"stats":{"checkinsCount":1,"usersCount":1,"tipCount":0},"likes":{"count":0,"groups":[]},"specials":{"count":0,"items":[]},"hereNow":{"count":0,"groups":[]}},{"id":"4f0ef976c2eeb8e9e1674209","name":"ENEOS Dr.Driveセルフ大手筋店","contact":{"phone":"+81756110465","formattedPhone":"+81 75-611-0465"},"location":{"address":"下鳥羽広長町15","lat":34.933208332555566,"lng":135.74471801519394,"postalCode":"612-8473","city":"京都市伏見区","state":"京都府","country":"Japan"},"categories":[{"id":"4bf58dd8d48988d113951735","name":"Gas Station \/ Garage","pluralName":"Gas Stations \/ Garages","shortName":"Gas Station \/ Garage","icon":{"prefix":"https:\/\/foursquare.com\/img\/categories_v2\/shops\/gas_","suffix":".png"},"primary":true}],"verified":false,"stats":{"checkinsCount":0,"usersCount":0,"tipCount":0},"likes":{"count":0,"groups":[]},"specials":{"count":0,"items":[]},"hereNow":{"count":0,"groups":[]}},{"id":"4b653110f964a52046e82ae3","name":"スーパーオートバックス　京都伏見店","contact":{"phone":"+81756121222","formattedPhone":"+81 75-612-1222"},"location":{"address":"横大路芝生21","lat":34.92950085460064,"lng":135.74455976486206,"city":"京都市伏見区","state":"京都府","country":"Japan"},"categories":[{"id":"4bf58dd8d48988d124951735","name":"Automotive Shop","pluralName":"Automotive Shops","shortName":"Automotive","icon":{"prefix":"https:\/\/foursquare.com\/img\/categories_v2\/shops\/automotive_","suffix":".png"},"primary":true}],"verified":false,"stats":{"checkinsCount":147,"usersCount":90,"tipCount":0},"likes":{"count":0,"groups":[]},"specials":{"count":0,"items":[]},"hereNow":{"count":0,"groups":[]}},{"id":"4bbf21cb82a2ef3bc83d2cd2","name":"びっくりドンキー 伏見店","contact":{"phone":"+81756036448","formattedPhone":"+81 75-603-6448"},"location":{"address":"下鳥羽広長町159","lat":34.931438,"lng":135.744771,"city":"京都市伏見区","state":"京都府","country":"Japan"},"categories":[{"id":"4bf58dd8d48988d16c941735","name":"Burger Joint","pluralName":"Burger Joints","shortName":"Burgers","icon":{"prefix":"https:\/\/foursquare.com\/img\/categories_v2\/food\/burger_","suffix":".png"},"primary":true}],"verified":false,"stats":{"checkinsCount":124,"usersCount":61,"tipCount":1},"likes":{"count":0,"groups":[]},"specials":{"count":0,"items":[]},"hereNow":{"count":0,"groups":[]}},{"id":"4c2ee201452620a13bb11c0f","name":"TRIUMPH KYOTO","contact":{},"location":{"lat":34.930503605381936,"lng":135.7428753376007,"country":"Japan"},"categories":[{"id":"4bf58dd8d48988d115951735","name":"Bike Shop","pluralName":"Bike Shops","shortName":"Bike shop","icon":{"prefix":"https:\/\/foursquare.com\/img\/categories_v2\/shops\/bikeshop_","suffix":".png"},"primary":true}],"verified":false,"stats":{"checkinsCount":41,"usersCount":7,"tipCount":0},"likes":{"count":0,"groups":[]},"specials":{"count":0,"items":[]},"hereNow":{"count":0,"groups":[]}},{"id":"4c95c1c382b56dcbd8fedbaa","name":"洋麺屋 五右衛門 京都伏見店","contact":{"phone":"+81756212270","formattedPhone":"+81 75-621-2270"},"location":{"address":"横大路芝生2","crossStreet":"国道１号沿い","lat":34.930864240824164,"lng":135.7446026802063,"city":"京都市伏見区","state":"京都府","country":"Japan"},"categories":[{"id":"4bf58dd8d48988d110941735","name":"Italian Restaurant","pluralName":"Italian Restaurants","shortName":"Italian","icon":{"prefix":"https:\/\/foursquare.com\/img\/categories_v2\/food\/italian_","suffix":".png"},"primary":true}],"verified":false,"stats":{"checkinsCount":57,"usersCount":33,"tipCount":0},"likes":{"count":0,"groups":[]},"specials":{"count":0,"items":[]},"hereNow":{"count":0,"groups":[]}},{"id":"4b7652cbf964a5203c482ee3","name":"ゴルフ５伏見店","contact":{"phone":"+81756123646","formattedPhone":"+81 75-612-3646"},"location":{"address":"横大路芝生3","lat":34.93049230182304,"lng":135.74497061463015,"postalCode":"612-8246","city":"京都市伏見区","state":"京都府","country":"Japan"},"categories":[{"id":"4bf58dd8d48988d1f2941735","name":"Sporting Goods Shop","pluralName":"Sporting Goods Shops","shortName":"Sporting Goods","icon":{"prefix":"https:\/\/foursquare.com\/img\/categories_v2\/shops\/sports_outdoors_","suffix":".png"},"primary":true}],"verified":false,"stats":{"checkinsCount":19,"usersCount":10,"tipCount":0},"likes":{"count":0,"groups":[]},"specials":{"count":0,"items":[]},"hereNow":{"count":0,"groups":[]}},{"id":"4dce1ec7b0fb25f6e33c6ec3","name":"小さい部屋","contact":{},"location":{"lat":34.93109554848571,"lng":135.74474853540215,"city":"Kyoto","state":"Kyoto Prefecture","country":"Japan"},"categories":[{"id":"4bf58dd8d48988d127951735","name":"Arts & Crafts Store","pluralName":"Arts & Crafts Stores","shortName":"Arts & Crafts","icon":{"prefix":"https:\/\/foursquare.com\/img\/categories_v2\/shops\/artstore_","suffix":".png"},"primary":true}],"verified":false,"stats":{"checkinsCount":11,"usersCount":7,"tipCount":1},"likes":{"count":0,"groups":[]},"specials":{"count":0,"items":[]},"hereNow":{"count":0,"groups":[]}},{"id":"4d9a9d84422ea1cd0757ea4c","name":"Wellington","contact":{},"location":{"lat":34.930682,"lng":135.743219,"country":"Japan"},"categories":[{"id":"4bf58dd8d48988d116951735","name":"Antique Shop","pluralName":"Antique Shops","shortName":"Antiques","icon":{"prefix":"https:\/\/foursquare.com\/img\/categories_v2\/shops\/antique_","suffix":".png"},"primary":true}],"verified":false,"stats":{"checkinsCount":3,"usersCount":2,"tipCount":0},"likes":{"count":0,"groups":[]},"specials":{"count":0,"items":[]},"hereNow":{"count":0,"groups":[]}},{"id":"4d4b7d5ec87b54819fa7c488","name":"太陽カフェ","contact":{},"location":{"lat":34.928999,"lng":135.743835,"city":"京都市","state":"京都府","country":"Japan"},"categories":[{"id":"4bf58dd8d48988d16d941735","name":"Café","pluralName":"Cafés","shortName":"Café","icon":{"prefix":"https:\/\/foursquare.com\/img\/categories_v2\/food\/cafe_","suffix":".png"},"primary":true}],"verified":false,"stats":{"checkinsCount":5,"usersCount":4,"tipCount":0},"likes":{"count":0,"groups":[]},"specials":{"count":0,"items":[]},"hereNow":{"count":0,"groups":[]}}]}}
