{"meta":{"code":200},"response":{"venues":[{"id":"4e7dfab38b81954605694fdf","name":"スタジオラグ","contact":{},"location":{"lat":34.94024211801353,"lng":135.74725161331946,"country":"Japan"},"categories":[{"id":"4bf58dd8d48988d1e5931735","name":"Music Venue","pluralName":"Music Venues","shortName":"Music Venue","icon":{"prefix":"https:\/\/foursquare.com\/img\/categories_v2\/arts_entertainment\/musicvenue_","suffix":".png"},"primary":true}],"verified":false,"stats":{"checkinsCount":7,"usersCount":3,"tipCount":0},"likes":{"count":0,"groups":[]},"specials":{"count":0,"items":[]},"hereNow":{"count":0,"groups":[]}},{"id":"4e0f0f09d4c0f6d6b3ffdc60","name":"エイガノセカイ","contact":{},"location":{"lat":34.935804,"lng":135.750832,"city":"京都市","state":"京都府","country":"Japan"},"categories":[{"id":"4bf58dd8d48988d17e941735","name":"Indie Movie Theater","pluralName":"Indie Movie Theaters","shortName":"Indie Theater","icon":{"prefix":"https:\/\/foursquare.com\/img\/categories_v2\/arts_entertainment\/movietheater_indietheater_","suffix":".png"},"primary":true}],"verified":false,"stats":{"checkinsCount":56,"usersCount":5,"tipCount":0},"likes":{"count":0,"groups":[]},"specials":{"count":0,"items":[]},"hereNow":{"count":0,"groups":[]}},{"id":"4dfb264d62e19b42f1e32bd6","name":"スタジオラグ伏見店","contact":{},"location":{"lat":34.940230826645035,"lng":135.74737191242951,"city":"Kyoto","state":"Kyoto Prefecture","country":"Japan"},"categories":[{"id":"4bf58dd8d48988d1e9931735","name":"Rock Club","pluralName":"Rock Clubs","shortName":"Rock Club","icon":{"prefix":"https:\/\/foursquare.com\/img\/categories_v2\/arts_entertainment\/musicvenue_rockclub_","suffix":".png"},"primary":true}],"verified":false,"stats":{"checkinsCount":9,"usersCount":4,"tipCount":0},"likes":{"count":0,"groups":[]},"specials":{"count":0,"items":[]},"hereNow":{"count":0,"groups":[]}},{"id":"4e702cb745ddd3b861b8e0cc","name":"かどや食堂","contact":{},"location":{"lat":34.938761,"lng":135.747366,"city":"京都市","state":"京都府","country":"Japan"},"categories":[{"id":"4bf58dd8d48988d147941735","name":"Diner","pluralName":"Diners","shortName":"Diner","icon":{"prefix":"https:\/\/foursquare.com\/img\/categories_v2\/food\/diner_","suffix":".png"},"primary":true}],"verified":false,"stats":{"checkinsCount":0,"usersCount":0,"tipCount":0},"likes":{"count":0,"groups":[]},"specials":{"count":0,"items":[]},"hereNow":{"count":0,"groups":[]}},{"id":"4fbb6c13e4b0a192a8d8348f","name":"新鮮具味（阪神ファン常連店）","contact":{},"location":{"lat":34.9393444444,"lng":135.749322222,"country":"Japan"},"categories":[],"verified":false,"stats":{"checkinsCount":0,"usersCount":0,"tipCount":0},"likes":{"count":0,"groups":[]},"specials":{"count":0,"items":[]},"hereNow":{"count":0,"groups":[]}},{"id":"4e210d191838712abe6e4510","name":"Mac-House 新堀川店","contact":{},"location":{"lat":34.93633324433889,"lng":135.75090699117501,"city":"京都市","state":"京都府","country":"Japan"},"categories":[{"id":"4bf58dd8d48988d103951735","name":"Clothing Store","pluralName":"Clothing Stores","shortName":"Apparel","icon":{"prefix":"https:\/\/foursquare.com\/img\/categories_v2\/shops\/apparel_","suffix":".png"},"primary":true}],"verified":false,"stats":{"checkinsCount":4,"usersCount":2,"tipCount":0},"likes":{"count":0,"groups":[]},"specials":{"count":0,"items":[]},"hereNow":{"count":0,"groups":[]}},{"id":"4cd243013038236ad4e5e40e","name":"安田産業株式会社 統括管理本部","contact":{},"location":{"lat":34.937208929519976,"lng":135.7496946702098,"country":"Japan"},"categories":[{"id":"4bf58dd8d48988d124941735","name":"Office","pluralName":"Offices","shortName":"Corporate \/ Office","icon":{"prefix":"https:\/\/foursquare.com\/img\/categories_v2\/building\/default_","suffix":".png"},"primary":true}],"verified":false,"stats":{"checkinsCount":14,"usersCount":6,"tipCount":0},"likes":{"count":0,"groups":[]},"hereNow":{"count":0,"groups":[]}},{"id":"4d191cae816af04d80ff5ac2","name":"須釜児童公園","contact":{},"location":{"address":"伏見区下鳥羽葭田町","lat":34.93618562829475,"lng":135.74851870536804,"city":"京都市","state":"京都府","country":"Japan"},"categories":[{"id":"4bf58dd8d48988d163941735","name":"Park","pluralName":"Parks","shortName":"Park","icon":{"prefix":"https:\/\/foursquare.com\/img\/categories_v2\/parks_outdoors\/park_","suffix":".png"},"primary":true}],"verified":false,"stats":{"checkinsCount":28,"usersCount":9,"tipCount":0},"likes":{"count":0,"groups":[]},"specials":{"count":0,"items":[]},"hereNow":{"count":0,"groups":[]}},{"id":"4d7eee483e50b1f7f027d4d3","name":"ヤマト運輸 下鳥羽宅急便センター","contact":{},"location":{"lat":34.937478,"lng":135.749254,"country":"Japan"},"categories":[],"verified":false,"stats":{"checkinsCount":6,"usersCount":2,"tipCount":0},"likes":{"count":0,"groups":[]},"specials":{"count":0,"items":[]},"hereNow":{"count":0,"groups":[]}},{"id":"4bf15b28dc0e20a10afedfe2","name":"セブンイレブン 京都伏見寝小屋町店","contact":{"phone":"+81756220608","formattedPhone":"+81 75-622-0608"},"location":{"address":"伏見区南寝小屋町12","lat":34.938537,"lng":135.75083,"postalCode":"612-8379","city":"京都市","state":"京都府","country":"Japan"},"categories":[{"id":"4d954b0ea243a5684a65b473","name":"Convenience Store","pluralName":"Convenience Stores","shortName":"Convenience Stores","icon":{"prefix":"https:\/\/foursquare.com\/img\/categories_v2\/shops\/conveniencestore_","suffix":".png"},"primary":true}],"verified":false,"stats":{"checkinsCount":326,"usersCount":35,"tipCount":0},"likes":{"count":0,"groups":[]},"specials":{"count":0,"items":[]},"hereNow":{"count":0,"groups":[]}},{"id":"4e1a4048fa76194645a2faed","name":"DOUBLE FOUR","contact":{},"location":{"lat":34.940195,"lng":135.748794,"country":"Japan"},"categories":[{"id":"4bf58dd8d48988d124951735","name":"Automotive Shop","pluralName":"Automotive Shops","shortName":"Automotive","icon":{"prefix":"https:\/\/foursquare.com\/img\/categories_v2\/shops\/automotive_","suffix":".png"},"primary":true}],"verified":false,"stats":{"checkinsCount":3,"usersCount":1,"tipCount":0},"likes":{"count":0,"groups":[]},"specials":{"count":0,"items":[]},"hereNow":{"count":0,"groups":[]}},{"id":"4d3d476bd625224b914498fa","name":"(株)田中彰自工","contact":{},"location":{"address":"日本","lat":34.94117885,"lng":135.74908338,"city":"京都市","state":"京都府","country":"Japan"},"categories":[{"id":"4bf58dd8d48988d124951735","name":"Automotive Shop","pluralName":"Automotive Shops","shortName":"Automotive","icon":{"prefix":"https:\/\/foursquare.com\/img\/categories_v2\/shops\/automotive_","suffix":".png"},"primary":true}],"verified":false,"stats":{"checkinsCount":7,"usersCount":1,"tipCount":0},"likes":{"count":0,"groups":[]},"specials":{"count":0,"items":[]},"hereNow":{"count":0,"groups":[]}},{"id":"4c8067e2d92ea093def23772","name":"萬福 下鳥羽店","contact":{"phone":"+81756128550","formattedPhone":"+81 75-612-8550"},"location":{"address":"深草西浦町2丁目90","lat":34.940469,"lng":135.748831,"postalCode":"612-0029","city":"京都市伏見区","state":"京都府","country":"Japan"},"categories":[{"id":"4bf58dd8d48988d1d1941735","name":"Ramen \/  Noodle House","pluralName":"Ramen \/  Noodle House","shortName":"Ramen \/ Noodles","icon":{"prefix":"https:\/\/foursquare.com\/img\/categories_v2\/food\/ramen_","suffix":".png"},"primary":true}],"verified":false,"stats":{"checkinsCount":40,"usersCount":20,"tipCount":0},"likes":{"count":0,"groups":[]},"specials":{"count":0,"items":[]},"hereNow":{"count":0,"groups":[]}},{"id":"4c9818aa7b9d370438b7db85","name":"ほっかほっか亭 下鳥羽北ノ口店","contact":{"phone":"+81756054587","formattedPhone":"+81 75-605-4587"},"location":{"address":"下鳥羽北ノ口町87","lat":34.94019,"lng":135.7489,"city":"京都市伏見区","state":"京都府","country":"Japan"},"categories":[{"id":"4bf58dd8d48988d1c4941735","name":"Restaurant","pluralName":"Restaurants","shortName":"Other - Food","icon":{"prefix":"https:\/\/foursquare.com\/img\/categories_v2\/food\/default_","suffix":".png"},"primary":true}],"verified":false,"stats":{"checkinsCount":7,"usersCount":3,"tipCount":0},"likes":{"count":0,"groups":[]},"specials":{"count":0,"items":[]},"hereNow":{"count":0,"groups":[]}},{"id":"4d82f6847e8ef04d4151edbd","name":"快活CLUB 新堀川店","contact":{"phone":"+81756114688","formattedPhone":"+81 75-611-4688"},"location":{"address":"伏見区南寝小屋町21","lat":34.93765884397269,"lng":135.75073957443237,"city":"京都市","state":"京都府","country":"Japan"},"categories":[{"id":"4bf58dd8d48988d1f0941735","name":"Internet Cafe","pluralName":"Internet Cafes","shortName":"Internet Cafe","icon":{"prefix":"https:\/\/foursquare.com\/img\/categories_v2\/shops\/internetcafe_","suffix":".png"},"primary":true}],"verified":false,"stats":{"checkinsCount":105,"usersCount":20,"tipCount":2},"likes":{"count":0,"groups":[]},"specials":{"count":0,"items":[]},"hereNow":{"count":0,"groups":[]}},{"id":"4f3a25ade4b0550570895c38","name":"滋賀銀行 京都南支店","contact":{"phone":"+81756215777","formattedPhone":"+81 75-621-5777"},"location":{"address":"伏見区南寝小屋町13","lat":34.938336074540345,"lng":135.7508321106434,"city":"京都市","state":"京都府","country":"Japan"},"categories":[{"id":"4bf58dd8d48988d10a951735","name":"Bank","pluralName":"Banks","shortName":"Bank \/ Financial","icon":{"prefix":"https:\/\/foursquare.com\/img\/categories_v2\/shops\/financial_","suffix":".png"},"primary":true}],"verified":false,"stats":{"checkinsCount":1,"usersCount":1,"tipCount":0},"likes":{"count":0,"groups":[]},"specials":{"count":0,"items":[]},"hereNow":{"count":0,"groups":[]}},{"id":"4d4c205d32a3236af00008ea","name":"佐川急便 京都南店","contact":{"phone":"+81756042700","formattedPhone":"+81 75-604-2700"},"location":{"address":"南寝小屋町5","lat":34.938238,"lng":135.75075,"city":"京都市伏見区","state":"京都府","country":"Japan"},"categories":[],"verified":false,"stats":{"checkinsCount":7,"usersCount":7,"tipCount":0},"likes":{"count":0,"groups":[]},"specials":{"count":0,"items":[]},"hereNow":{"count":0,"groups":[]}},{"id":"4ba3b1caf964a520435538e3","name":"ラウンドワンスタジアム 京都伏見店","contact":{"phone":"+81756229911","formattedPhone":"+81 75-622-9911"},"location":{"address":"下鳥羽平塚町131","lat":34.93594815224628,"lng":135.74639439582825,"postalCode":"612-8387","city":"京都市伏見区","state":"京都府","country":"Japan"},"categories":[{"id":"4bf58dd8d48988d1e1931735","name":"Arcade","pluralName":"Arcades","shortName":"Arcade","icon":{"prefix":"https:\/\/foursquare.com\/img\/categories_v2\/arts_entertainment\/arcade_","suffix":".png"},"primary":true}],"verified":false,"stats":{"checkinsCount":505,"usersCount":186,"tipCount":0},"likes":{"count":0,"groups":[]},"specials":{"count":0,"items":[]},"hereNow":{"count":0,"groups":[]}},{"id":"4de439e681dcc9bc5e8394d8","name":"丸亀製麺 京都伏見店","contact":{"phone":"+81756122040","formattedPhone":"+81 75-612-2040","twitter":"marugame_sm"},"location":{"address":"伏見区下鳥羽平塚町156　","lat":34.938202,"lng":135.745153,"postalCode":"612-8387","city":"京都市","state":"京都府","country":"Japan"},"categories":[{"id":"4bf58dd8d48988d111941735","name":"Japanese Restaurant","pluralName":"Japanese Restaurants","shortName":"Japanese","icon":{"prefix":"https:\/\/foursquare.com\/img\/categories_v2\/food\/japanese_","suffix":".png"},"primary":true}],"verified":false,"stats":{"checkinsCount":139,"usersCount":63,"tipCount":1},"likes":{"count":0,"groups":[]},"specials":{"count":0,"items":[]},"hereNow":{"count":0,"groups":[]}},{"id":"4c3725200a71c9b6663e3ec9","name":"シダックス 京都伏見","contact":{},"location":{"address":"下鳥羽渡瀬町132","lat":34.93903984,"lng":135.745188,"city":"京都市伏見区","state":"京都府","country":"Japan"},"categories":[{"id":"4bf58dd8d48988d120941735","name":"Karaoke Bar","pluralName":"Karaoke Bars","shortName":"Karaoke","icon":{"prefix":"https:\/\/foursquare.com\/img\/categories_v2\/nightlife\/karaoke_","suffix":".png"},"primary":true}],"verified":false,"stats":{"checkinsCount":36,"usersCount":25,"tipCount":0},"likes":{"count":0,"groups":[]},"specials":{"count":0,"items":[]},"hereNow":{"count":0,"groups":[]}},{"id":"4b77b69ff964a520efa72ee3","name":"西友 下鳥羽店","contact":{"phone":"+81756029166","formattedPhone":"+81 75-602-9166"},"location":{"address":"下鳥羽渡瀬町101","lat":34.93952781085641,"lng":135.74593305587769,"postalCode":"612-8393","city":"京都市伏見区","state":"京都府","country":"Japan"},"categories":[{"id":"4bf58dd8d48988d1f6941735","name":"Department Store","pluralName":"Department Stores","shortName":"Department Store","icon":{"prefix":"https:\/\/foursquare.com\/img\/categories_v2\/shops\/departmentstore_","suffix":".png"},"primary":true}],"verified":false,"stats":{"checkinsCount":111,"usersCount":33,"tipCount":0},"likes":{"count":0,"groups":[]},"specials":{"count":0,"items":[]},"hereNow":{"count":0,"groups":[]}},{"id":"4f3a2cc9e4b05ef0ee01dab1","name":"アルファロメオ京都伏見","contact":{},"location":{"lat":34.93651198200974,"lng":135.74520194826073,"country":"Japan"},"categories":[{"id":"4eb1c1623b7b52c0e1adc2ec","name":"Car Dealership","pluralName":"Car Dealerships","shortName":"Car Dealer","icon":{"prefix":"https:\/\/foursquare.com\/img\/categories_v2\/shops\/automotive_","suffix":".png"},"primary":true}],"verified":false,"stats":{"checkinsCount":20,"usersCount":6,"tipCount":0},"likes":{"count":0,"groups":[]},"specials":{"count":0,"items":[]},"hereNow":{"count":0,"groups":[]}},{"id":"4f25e617e4b063d4020ac77e","name":"宝酒造株式会社 伏見工場(西)","contact":{},"location":{"address":"日本","lat":34.937318573187916,"lng":135.74695549372782,"city":"京都市","state":"京都府","country":"Japan"},"categories":[{"id":"4eb1bea83b7b6f98df247e06","name":"Factory","pluralName":"Factories","shortName":"Factory","icon":{"prefix":"https:\/\/foursquare.com\/img\/categories_v2\/building\/factory_","suffix":".png"},"primary":true}],"verified":false,"stats":{"checkinsCount":11,"usersCount":5,"tipCount":0},"likes":{"count":0,"groups":[]},"specials":{"count":0,"items":[]},"hereNow":{"count":0,"groups":[]}},{"id":"4cd4e8b7b2a437042ccc7a44","name":"安田産業株式会社 伏見工場","contact":{},"location":{"lat":34.93728046095064,"lng":135.74669176376682,"country":"Japan"},"categories":[{"id":"4bf58dd8d48988d124941735","name":"Office","pluralName":"Offices","shortName":"Corporate \/ Office","icon":{"prefix":"https:\/\/foursquare.com\/img\/categories_v2\/building\/default_","suffix":".png"},"primary":true}],"verified":false,"stats":{"checkinsCount":16,"usersCount":6,"tipCount":0},"likes":{"count":0,"groups":[]},"hereNow":{"count":0,"groups":[]}},{"id":"4ed96ad8f5b92139877f4ab4","name":"文明堂","contact":{},"location":{"lat":34.93851301621732,"lng":135.74653101789104,"country":"Japan"},"categories":[{"id":"4bf58dd8d48988d1d0941735","name":"Dessert Shop","pluralName":"Dessert Shops","shortName":"Desserts","icon":{"prefix":"https:\/\/foursquare.com\/img\/categories_v2\/food\/dessert_","suffix":".png"},"primary":true}],"verified":false,"stats":{"checkinsCount":1,"usersCount":1,"tipCount":0},"likes":{"count":0,"groups":[]},"specials":{"count":0,"items":[]},"hereNow":{"count":0,"groups":[]}},{"id":"4c821f2d74d7b60ca91f7dd8","name":"お好み焼き.もんじゃ ウッキー伏見下鳥羽店","contact":{},"location":{"lat":34.937805905255225,"lng":135.74535000237415,"country":"Japan"},"categories":[{"id":"4bf58dd8d48988d1c4941735","name":"Restaurant","pluralName":"Restaurants","shortName":"Other - Food","icon":{"prefix":"https:\/\/foursquare.com\/img\/categories_v2\/food\/default_","suffix":".png"},"primary":true}],"verified":false,"stats":{"checkinsCount":4,"usersCount":3,"tipCount":0},"likes":{"count":0,"groups":[]},"specials":{"count":0,"items":[]},"hereNow":{"count":0,"groups":[]}},{"id":"4d3906d31a57a1431fae8af3","name":"ひごペットフレンドリー京都店","contact":{"phone":"+81756120646","formattedPhone":"+81 75-612-0646"},"location":{"address":"京都市伏見区下鳥羽渡瀬町140番地","lat":34.93945305299879,"lng":135.74548244476318,"postalCode":"612-8393","city":"Kyoto","state":"Japan","country":"Japan"},"categories":[{"id":"4bf58dd8d48988d100951735","name":"Pet Store","pluralName":"Pet Stores","shortName":"Pet Store","icon":{"prefix":"https:\/\/foursquare.com\/img\/categories_v2\/shops\/pet_store_","suffix":".png"},"primary":true}],"verified":false,"stats":{"checkinsCount":61,"usersCount":25,"tipCount":1},"likes":{"count":0,"groups":[]},"specials":{"count":0,"items":[]},"hereNow":{"count":0,"groups":[]}},{"id":"4d104f8d59606dcb4584743e","name":"サーティワンアイスクリーム 京都南インター RS店","contact":{"phone":"+81756212831","formattedPhone":"+81 75-621-2831"},"location":{"address":"伏見区下鳥羽渡瀬町135","lat":34.93893045,"lng":135.745297,"city":"京都市","country":"Japan"},"categories":[{"id":"4bf58dd8d48988d1d0941735","name":"Dessert Shop","pluralName":"Dessert Shops","shortName":"Desserts","icon":{"prefix":"https:\/\/foursquare.com\/img\/categories_v2\/food\/dessert_","suffix":".png"},"primary":true}],"verified":false,"stats":{"checkinsCount":39,"usersCount":27,"tipCount":1},"likes":{"count":0,"groups":[]},"specials":{"count":0,"items":[]},"hereNow":{"count":0,"groups":[]}},{"id":"4ea3e5ace5facb29c7df0f18","name":"和食さと 下鳥羽店","contact":{},"location":{"address":"下鳥羽東柳長町4","lat":34.938697,"lng":135.745087,"city":"京都市伏見区","country":"Japan"},"categories":[{"id":"4bf58dd8d48988d111941735","name":"Japanese Restaurant","pluralName":"Japanese Restaurants","shortName":"Japanese","icon":{"prefix":"https:\/\/foursquare.com\/img\/categories_v2\/food\/japanese_","suffix":".png"},"primary":true}],"verified":false,"stats":{"checkinsCount":14,"usersCount":7,"tipCount":0},"likes":{"count":0,"groups":[]},"specials":{"count":0,"items":[]},"hereNow":{"count":0,"groups":[]}},{"id":"4d325e588250f04d5c34f3e0","name":"サイクルベース あさひ 京都南店","contact":{},"location":{"lat":34.93888069,"lng":135.7450309,"country":"Japan"},"categories":[{"id":"4bf58dd8d48988d115951735","name":"Bike Shop","pluralName":"Bike Shops","shortName":"Bike shop","icon":{"prefix":"https:\/\/foursquare.com\/img\/categories_v2\/shops\/bikeshop_","suffix":".png"},"primary":true}],"verified":false,"stats":{"checkinsCount":17,"usersCount":13,"tipCount":0},"likes":{"count":0,"groups":[]},"specials":{"count":0,"items":[]},"hereNow":{"count":0,"groups":[]}},{"id":"4d21d21df7a9a143e495399f","name":"ジョリーパスタ 伏見店","contact":{},"location":{"address":"下鳥羽渡瀬町134","lat":34.938806614564285,"lng":135.74524641036987,"city":"京都市伏見区","state":"京都府","country":"Japan"},"categories":[{"id":"4bf58dd8d48988d110941735","name":"Italian Restaurant","pluralName":"Italian Restaurants","shortName":"Italian","icon":{"prefix":"https:\/\/foursquare.com\/img\/categories_v2\/food\/italian_","suffix":".png"},"primary":true}],"verified":false,"stats":{"checkinsCount":8,"usersCount":7,"tipCount":0},"likes":{"count":0,"groups":[]},"specials":{"count":0,"items":[]},"hereNow":{"count":0,"groups":[]}},{"id":"4cac41f82776b60cade04f0d","name":"すし重","contact":{"phone":"+81756221288","formattedPhone":"+81 75-622-1288"},"location":{"lat":34.938557,"lng":135.74528,"city":"京都市伏見区","state":"京都府","country":"Japan"},"categories":[{"id":"4bf58dd8d48988d1d2941735","name":"Sushi Restaurant","pluralName":"Sushi Restaurants","shortName":"Sushi","icon":{"prefix":"https:\/\/foursquare.com\/img\/categories_v2\/food\/sushi_","suffix":".png"},"primary":true}],"verified":false,"stats":{"checkinsCount":8,"usersCount":3,"tipCount":0},"likes":{"count":0,"groups":[]},"specials":{"count":0,"items":[]},"hereNow":{"count":0,"groups":[]}},{"id":"4f3f4fcd003932281b04655d","name":"国道下鳥羽 バス停","contact":{},"location":{"address":"伏見区下鳥羽平塚町","crossStreet":"市バス19・22・南3系統","lat":34.93817116501459,"lng":135.7450895011425,"city":"京都市","state":"京都府","country":"Japan"},"categories":[{"id":"4bf58dd8d48988d1fe931735","name":"Bus Station","pluralName":"Bus Stations","shortName":"Bus Station","icon":{"prefix":"https:\/\/foursquare.com\/img\/categories_v2\/travel\/busstation_","suffix":".png"},"primary":true}],"verified":false,"stats":{"checkinsCount":0,"usersCount":0,"tipCount":0},"likes":{"count":0,"groups":[]},"specials":{"count":0,"items":[]},"hereNow":{"count":0,"groups":[]}},{"id":"4eae4626cc21b06a57f1de90","name":"麺好房れん","contact":{},"location":{"lat":34.9363950754705,"lng":135.74586356864793,"country":"Japan"},"categories":[{"id":"4bf58dd8d48988d1d1941735","name":"Ramen \/  Noodle House","pluralName":"Ramen \/  Noodle House","shortName":"Ramen \/ Noodles","icon":{"prefix":"https:\/\/foursquare.com\/img\/categories_v2\/food\/ramen_","suffix":".png"},"primary":true}],"verified":false,"stats":{"checkinsCount":11,"usersCount":3,"tipCount":0},"likes":{"count":0,"groups":[]},"specials":{"count":0,"items":[]},"hereNow":{"count":0,"groups":[]}},{"id":"4d8ea1f91d06b1f7a9444e3b","name":"Esso Express 大手筋店","contact":{},"location":{"lat":34.935639,"lng":135.745053,"country":"Japan"},"categories":[{"id":"4bf58dd8d48988d113951735","name":"Gas Station \/ Garage","pluralName":"Gas Stations \/ Garages","shortName":"Gas Station \/ Garage","icon":{"prefix":"https:\/\/foursquare.com\/img\/categories_v2\/shops\/gas_","suffix":".png"},"primary":true}],"verified":false,"stats":{"checkinsCount":28,"usersCount":10,"tipCount":0},"likes":{"count":0,"groups":[]},"specials":{"count":0,"items":[]},"hereNow":{"count":0,"groups":[]}},{"id":"4e2a61626284b96d7b7dcacb","name":"ホンダカーズ京都 伏見南","contact":{},"location":{"lat":34.936012268066406,"lng":135.7450408935547,"country":"Japan"},"categories":[{"id":"4bf58dd8d48988d124951735","name":"Automotive Shop","pluralName":"Automotive Shops","shortName":"Automotive","icon":{"prefix":"https:\/\/foursquare.com\/img\/categories_v2\/shops\/automotive_","suffix":".png"},"primary":true}],"verified":false,"stats":{"checkinsCount":26,"usersCount":7,"tipCount":0},"likes":{"count":0,"groups":[]},"specials":{"count":0,"items":[]},"hereNow":{"count":0,"groups":[]}},{"id":"4c4b20cc9c8d2d7fb5a28a6a","name":"デイリーヤマザキ 伏見平塚町店","contact":{},"location":{"address":"下鳥羽平塚町\u200e","lat":34.935846,"lng":135.745535,"city":"京都市","state":"京都府","country":"Japan"},"categories":[{"id":"4bf58dd8d48988d1f9941735","name":"Food & Drink Shop","pluralName":"Food & Drink Shops","shortName":"Food & Drink","icon":{"prefix":"https:\/\/foursquare.com\/img\/categories_v2\/shops\/foodanddrink_","suffix":".png"},"primary":true}],"verified":false,"stats":{"checkinsCount":12,"usersCount":10,"tipCount":0},"likes":{"count":0,"groups":[]},"specials":{"count":0,"items":[]},"hereNow":{"count":0,"groups":[]}},{"id":"4f488ea0e4b03377e75e85d3","name":"アプローチ京都店","contact":{},"location":{"lat":34.935613,"lng":135.74658,"country":"Japan"},"categories":[{"id":"4f4528bc4b90abdf24c9de85","name":"Sport","pluralName":"Sports","shortName":"Sport","icon":{"prefix":"https:\/\/foursquare.com\/img\/categories_v2\/shops\/sports_outdoors_","suffix":".png"},"primary":true}],"verified":false,"stats":{"checkinsCount":1,"usersCount":1,"tipCount":0},"likes":{"count":0,"groups":[]},"specials":{"count":0,"items":[]},"hereNow":{"count":0,"groups":[]}},{"id":"4e898f37cc216b8b4ce67ac2","name":"焼肉 でん 京都南店","contact":{},"location":{"lat":34.93456823,"lng":135.745106,"country":"Japan"},"categories":[{"id":"4bf58dd8d48988d1df931735","name":"BBQ Joint","pluralName":"BBQ Joints","shortName":"BBQ","icon":{"prefix":"https:\/\/foursquare.com\/img\/categories_v2\/food\/bbq_","suffix":".png"},"primary":true}],"verified":false,"stats":{"checkinsCount":13,"usersCount":7,"tipCount":0},"likes":{"count":0,"groups":[]},"specials":{"count":0,"items":[]},"hereNow":{"count":0,"groups":[]}},{"id":"4cd4ddc689eb6dcbed44251e","name":"Alfa Romeo Kyoto","contact":{},"location":{"lat":34.936108,"lng":135.745165,"country":"Japan"},"categories":[{"id":"4bf58dd8d48988d124951735","name":"Automotive Shop","pluralName":"Automotive Shops","shortName":"Automotive","icon":{"prefix":"https:\/\/foursquare.com\/img\/categories_v2\/shops\/automotive_","suffix":".png"},"primary":true}],"verified":false,"stats":{"checkinsCount":1,"usersCount":1,"tipCount":0},"likes":{"count":0,"groups":[]},"specials":{"count":0,"items":[]},"hereNow":{"count":0,"groups":[]}},{"id":"4d032b6d37036dcb1d6d08fb","name":"express 大手筋","contact":{},"location":{"lat":34.93558,"lng":135.74514,"country":"Japan"},"categories":[{"id":"4bf58dd8d48988d113951735","name":"Gas Station \/ Garage","pluralName":"Gas Stations \/ Garages","shortName":"Gas Station \/ Garage","icon":{"prefix":"https:\/\/foursquare.com\/img\/categories_v2\/shops\/gas_","suffix":".png"},"primary":true}],"verified":false,"stats":{"checkinsCount":5,"usersCount":3,"tipCount":0},"likes":{"count":0,"groups":[]},"specials":{"count":0,"items":[]},"hereNow":{"count":0,"groups":[]}},{"id":"4ce1077e7e2e236aee198e1b","name":"本格炭火焼肉でん 京都南店","contact":{"phone":"+81756044129","formattedPhone":"+81 75-604-4129"},"location":{"address":"下鳥羽澱女町122","lat":34.934519,"lng":135.745061,"postalCode":"612-8386","city":"京都市伏見区","state":"京都府","country":"Japan"},"categories":[{"id":"4bf58dd8d48988d1df931735","name":"BBQ Joint","pluralName":"BBQ Joints","shortName":"BBQ","icon":{"prefix":"https:\/\/foursquare.com\/img\/categories_v2\/food\/bbq_","suffix":".png"},"primary":true}],"verified":false,"stats":{"checkinsCount":1,"usersCount":1,"tipCount":0},"likes":{"count":0,"groups":[]},"specials":{"count":0,"items":[]},"hereNow":{"count":0,"groups":[]}},{"id":"4f862f81e4b0dc6fc45c9fb1","name":"つるやゴルフ 京都伏見店","contact":{},"location":{"lat":34.934408,"lng":135.745098,"country":"Japan"},"categories":[{"id":"4bf58dd8d48988d1f2941735","name":"Sporting Goods Shop","pluralName":"Sporting Goods Shops","shortName":"Sporting Goods","icon":{"prefix":"https:\/\/foursquare.com\/img\/categories_v2\/shops\/sports_outdoors_","suffix":".png"},"primary":true}],"verified":false,"stats":{"checkinsCount":1,"usersCount":1,"tipCount":0},"likes":{"count":0,"groups":[]},"specials":{"count":0,"items":[]},"hereNow":{"count":0,"groups":[]}}]}}
