{"meta":{"code":200},"response":{"venues":[{"id":"4d3df6748edf37048cf7bea5","name":"許波多神社","contact":{},"location":{"address":"五ヶ庄古川13","lat":34.9170490115633,"lng":135.79399824142456,"city":"宇治市","state":"京都府","country":"Japan"},"categories":[{"id":"4eb1d80a4b900d56c88a45ff","name":"Shrine","pluralName":"Shrines","shortName":"Shrine","icon":{"prefix":"https:\/\/foursquare.com\/img\/categories_v2\/building\/religious_shrine_","suffix":".png"},"primary":true}],"verified":false,"stats":{"checkinsCount":1,"usersCount":1,"tipCount":1},"likes":{"count":0,"groups":[]},"specials":{"count":0,"items":[]},"hereNow":{"count":0,"groups":[]}},{"id":"4f4d8ed6e4b0657aa575879e","name":"丸生","contact":{},"location":{"lat":34.91997528076172,"lng":135.79669189453125,"country":"Japan"},"categories":[{"id":"4bf58dd8d48988d1df931735","name":"BBQ Joint","pluralName":"BBQ Joints","shortName":"BBQ","icon":{"prefix":"https:\/\/foursquare.com\/img\/categories_v2\/food\/bbq_","suffix":".png"},"primary":true}],"verified":false,"stats":{"checkinsCount":2,"usersCount":2,"tipCount":0},"likes":{"count":0,"groups":[]},"specials":{"count":0,"items":[]},"hereNow":{"count":0,"groups":[]}},{"id":"4ee3620bc2eee7f3578a52bb","name":"宇治陵 14号","contact":{},"location":{"address":"木幡","lat":34.91867432400042,"lng":135.80032154917717,"city":"宇治市","state":"京都府","country":"Japan"},"categories":[{"id":"4bf58dd8d48988d15c941735","name":"Cemetery","pluralName":"Cemeteries","shortName":"Cemetery","icon":{"prefix":"https:\/\/foursquare.com\/img\/categories_v2\/parks_outdoors\/cemetery_","suffix":".png"},"primary":true}],"verified":false,"stats":{"checkinsCount":0,"usersCount":0,"tipCount":0},"likes":{"count":0,"groups":[]},"specials":{"count":0,"items":[]},"hereNow":{"count":0,"groups":[]}},{"id":"4ee361cdc2eee7f3578a4b68","name":"宇治陵 13号","contact":{},"location":{"address":"木幡","lat":34.919059203829114,"lng":135.80185174942017,"city":"宇治市","state":"京都府","country":"Japan"},"categories":[{"id":"4bf58dd8d48988d15c941735","name":"Cemetery","pluralName":"Cemeteries","shortName":"Cemetery","icon":{"prefix":"https:\/\/foursquare.com\/img\/categories_v2\/parks_outdoors\/cemetery_","suffix":".png"},"primary":true}],"verified":false,"stats":{"checkinsCount":0,"usersCount":0,"tipCount":0},"likes":{"count":0,"groups":[]},"specials":{"count":0,"items":[]},"hereNow":{"count":0,"groups":[]}},{"id":"4ea13fa59adff63439240fdc","name":"京都大学 宇治キャンパス 生協食堂","contact":{},"location":{"lat":34.909737,"lng":135.79921,"city":"宇治市","state":"京都府","country":"Japan"},"categories":[{"id":"4bf58dd8d48988d1a1941735","name":"College Cafeteria","pluralName":"College Cafeterias","shortName":"Cafeteria","icon":{"prefix":"https:\/\/foursquare.com\/img\/categories_v2\/education\/cafeteria_","suffix":".png"},"primary":true}],"verified":false,"stats":{"checkinsCount":145,"usersCount":11,"tipCount":0},"likes":{"count":0,"groups":[]},"specials":{"count":0,"items":[]},"hereNow":{"count":0,"groups":[]}},{"id":"4fd42667e4b03121ce525264","name":"魔窟木幡邸","contact":{},"location":{"isFuzzed":true,"lat":34.92099719313436,"lng":135.79476330128935,"country":"Japan"},"categories":[{"id":"4bf58dd8d48988d103941735","name":"Home (private)","pluralName":"Homes (private)","shortName":"Home","icon":{"prefix":"https:\/\/foursquare.com\/img\/categories_v2\/building\/home_","suffix":".png"},"primary":true}],"verified":false,"stats":{"checkinsCount":1,"usersCount":1,"tipCount":0},"likes":{"count":0,"groups":[]},"hereNow":{"count":0,"groups":[]}},{"id":"4da1247322a5f04d5875f654","name":"陸上自衛隊 宇治駐屯地","contact":{},"location":{"address":"五ケ庄梅林6","lat":34.91329681420576,"lng":135.79850435256958,"city":"宇治市","state":"京都府","country":"Japan"},"categories":[{"id":"4e52adeebd41615f56317744","name":"Military Base","pluralName":"Military Bases","shortName":"Military Base","icon":{"prefix":"https:\/\/foursquare.com\/img\/categories_v2\/building\/militarybase_","suffix":".png"},"primary":true}],"verified":false,"stats":{"checkinsCount":26,"usersCount":18,"tipCount":0},"likes":{"count":0,"groups":[]},"specials":{"count":0,"items":[]},"hereNow":{"count":0,"groups":[]}},{"id":"4e9672864690385f1acc4eb6","name":"京都大学 宇治キャンパス 生協購買部","contact":{},"location":{"lat":34.910098299527895,"lng":135.79930933098925,"city":"宇治市","state":"京都府","country":"Japan"},"categories":[{"id":"4d4b7105d754a06372d81259","name":"College & University","pluralName":"Colleges & Universities","shortName":"College & Education","icon":{"prefix":"https:\/\/foursquare.com\/img\/categories_v2\/education\/default_","suffix":".png"},"primary":true}],"verified":false,"stats":{"checkinsCount":20,"usersCount":4,"tipCount":0},"likes":{"count":0,"groups":[]},"specials":{"count":0,"items":[]},"hereNow":{"count":0,"groups":[]}},{"id":"4f5439dae4b0061516978d6c","name":"京都大学化学研究所 共同研究棟 大セミナー室","contact":{},"location":{"lat":34.911652,"lng":135.80036,"country":"Japan"},"categories":[{"id":"4bf58dd8d48988d198941735","name":"College Academic Building","pluralName":"College Academic Buildings","shortName":"Academic Building","icon":{"prefix":"https:\/\/foursquare.com\/img\/categories_v2\/education\/academicbuilding_","suffix":".png"},"primary":true}],"verified":false,"stats":{"checkinsCount":1,"usersCount":1,"tipCount":0},"likes":{"count":0,"groups":[]},"specials":{"count":0,"items":[]},"hereNow":{"count":0,"groups":[]}},{"id":"4e0362ecd22d034599eed50f","name":"Boseber","contact":{},"location":{"lat":34.91171,"lng":135.80099,"city":"宇治市","state":"京都府","country":"Japan"},"categories":[],"verified":false,"stats":{"checkinsCount":1,"usersCount":1,"tipCount":0},"likes":{"count":0,"groups":[]},"specials":{"count":0,"items":[]},"hereNow":{"count":0,"groups":[]}},{"id":"4d9b3d5f8e3dd7ce3a745cfe","name":"宇治市立東宇治幼稚園","contact":{"phone":"+81774399290","formattedPhone":"+81 774-39-9290"},"location":{"address":"五ヶ庄梅林官有地","lat":34.912435,"lng":135.801702,"postalCode":"611-0011","city":"宇治市","state":"京都府","country":"Japan"},"categories":[{"id":"4bf58dd8d48988d13b941735","name":"School","pluralName":"Schools","shortName":"School","icon":{"prefix":"https:\/\/foursquare.com\/img\/categories_v2\/building\/school_","suffix":".png"},"primary":true}],"verified":false,"stats":{"checkinsCount":0,"usersCount":0,"tipCount":0},"likes":{"count":0,"groups":[]},"specials":{"count":0,"items":[]},"hereNow":{"count":0,"groups":[]}},{"id":"4b721ee6f964a520b06f2de3","name":"フレスコ 木幡店","contact":{},"location":{"address":"木幡南端10","lat":34.91918236499309,"lng":135.79985082149506,"city":"宇治市","state":"京都府","country":"Japan"},"categories":[{"id":"4bf58dd8d48988d118951735","name":"Grocery Store","pluralName":"Grocery Stores","shortName":"Grocery Store","icon":{"prefix":"https:\/\/foursquare.com\/img\/categories_v2\/shops\/food_grocery_","suffix":".png"},"primary":true}],"verified":false,"stats":{"checkinsCount":42,"usersCount":13,"tipCount":0},"likes":{"count":0,"groups":[]},"specials":{"count":0,"items":[]},"hereNow":{"count":0,"groups":[]}},{"id":"4d6ce5008183a143cc519b9f","name":"ドラッグユタカ 宇治木幡南店","contact":{"phone":"+81774331032","formattedPhone":"+81 774-33-1032"},"location":{"address":"木幡南端9番","lat":34.9194022951834,"lng":135.79983472824097,"postalCode":"611-0002","city":"宇治市","state":"京都府","country":"Japan"},"categories":[{"id":"4bf58dd8d48988d10f951735","name":"Drugstore \/ Pharmacy","pluralName":"Drugstores \/ Pharmacies","shortName":"Pharmacy","icon":{"prefix":"https:\/\/foursquare.com\/img\/categories_v2\/shops\/pharmacy_","suffix":".png"},"primary":true}],"verified":false,"stats":{"checkinsCount":29,"usersCount":15,"tipCount":0},"likes":{"count":0,"groups":[]},"specials":{"count":0,"items":[]},"hereNow":{"count":0,"groups":[]}},{"id":"4ee35e657beb6b177aad85eb","name":"宇治陵 6号","contact":{},"location":{"address":"木幡","lat":34.9196926021322,"lng":135.8007788658142,"city":"宇治市","state":"京都府","country":"Japan"},"categories":[{"id":"4bf58dd8d48988d15c941735","name":"Cemetery","pluralName":"Cemeteries","shortName":"Cemetery","icon":{"prefix":"https:\/\/foursquare.com\/img\/categories_v2\/parks_outdoors\/cemetery_","suffix":".png"},"primary":true}],"verified":false,"stats":{"checkinsCount":0,"usersCount":0,"tipCount":0},"likes":{"count":0,"groups":[]},"specials":{"count":0,"items":[]},"hereNow":{"count":0,"groups":[]}},{"id":"4ee35e2e7beb6b177aad7e52","name":"宇治陵 5号","contact":{},"location":{"address":"木幡","lat":34.920097270711075,"lng":135.8008660376072,"city":"宇治市","state":"京都府","country":"Japan"},"categories":[{"id":"4bf58dd8d48988d15c941735","name":"Cemetery","pluralName":"Cemeteries","shortName":"Cemetery","icon":{"prefix":"https:\/\/foursquare.com\/img\/categories_v2\/parks_outdoors\/cemetery_","suffix":".png"},"primary":true}],"verified":false,"stats":{"checkinsCount":0,"usersCount":0,"tipCount":0},"likes":{"count":0,"groups":[]},"specials":{"count":0,"items":[]},"hereNow":{"count":0,"groups":[]}},{"id":"4ee3608bc2eee7f3578a20b8","name":"宇治陵 7号","contact":{},"location":{"address":"木幡","lat":34.91981576234567,"lng":135.8012107014656,"city":"宇治市","state":"京都府","country":"Japan"},"categories":[{"id":"4bf58dd8d48988d15c941735","name":"Cemetery","pluralName":"Cemeteries","shortName":"Cemetery","icon":{"prefix":"https:\/\/foursquare.com\/img\/categories_v2\/parks_outdoors\/cemetery_","suffix":".png"},"primary":true}],"verified":false,"stats":{"checkinsCount":0,"usersCount":0,"tipCount":0},"likes":{"count":0,"groups":[]},"specials":{"count":0,"items":[]},"hereNow":{"count":0,"groups":[]}},{"id":"4ee360b8c2eee7f3578a269b","name":"宇治陵 8号","contact":{},"location":{"address":"木幡","lat":34.92002689371026,"lng":135.8014440536499,"city":"宇治市","state":"京都府","country":"Japan"},"categories":[{"id":"4bf58dd8d48988d15c941735","name":"Cemetery","pluralName":"Cemeteries","shortName":"Cemetery","icon":{"prefix":"https:\/\/foursquare.com\/img\/categories_v2\/parks_outdoors\/cemetery_","suffix":".png"},"primary":true}],"verified":false,"stats":{"checkinsCount":0,"usersCount":0,"tipCount":0},"likes":{"count":0,"groups":[]},"specials":{"count":0,"items":[]},"hereNow":{"count":0,"groups":[]}},{"id":"4ee360f1c2eee7f3578a2e35","name":"宇治陵 9号","contact":{},"location":{"address":"木幡","lat":34.91987734238314,"lng":135.80174446105957,"city":"宇治市","state":"京都府","country":"Japan"},"categories":[{"id":"4bf58dd8d48988d15c941735","name":"Cemetery","pluralName":"Cemeteries","shortName":"Cemetery","icon":{"prefix":"https:\/\/foursquare.com\/img\/categories_v2\/parks_outdoors\/cemetery_","suffix":".png"},"primary":true}],"verified":false,"stats":{"checkinsCount":0,"usersCount":0,"tipCount":0},"likes":{"count":0,"groups":[]},"specials":{"count":0,"items":[]},"hereNow":{"count":0,"groups":[]}},{"id":"4dd616131838b8561cc4a565","name":"山城農産","contact":{"phone":"+81774324670","formattedPhone":"+81 774-32-4670"},"location":{"address":"木幡南山畑29-6","lat":34.920796,"lng":135.801178,"postalCode":"611-0002","city":"Uji","state":"Kyoto Prefecture","country":"Japan"},"categories":[],"verified":false,"stats":{"checkinsCount":1,"usersCount":1,"tipCount":0},"likes":{"count":0,"groups":[]},"specials":{"count":0,"items":[]},"hereNow":{"count":0,"groups":[]}},{"id":"4ee6cc89a17ceecb163d1f50","name":"宇治陵 25号","contact":{},"location":{"address":"木幡","lat":34.920827428533514,"lng":135.80163717269897,"city":"宇治市","state":"京都府","country":"Japan"},"categories":[{"id":"4bf58dd8d48988d15c941735","name":"Cemetery","pluralName":"Cemeteries","shortName":"Cemetery","icon":{"prefix":"https:\/\/foursquare.com\/img\/categories_v2\/parks_outdoors\/cemetery_","suffix":".png"},"primary":true}],"verified":false,"stats":{"checkinsCount":0,"usersCount":0,"tipCount":0},"likes":{"count":0,"groups":[]},"specials":{"count":0,"items":[]},"hereNow":{"count":0,"groups":[]}}]}}
