{"meta":{"code":200},"response":{"venues":[{"id":"4d0c2b04f393224bd6eb14ee","name":"京都府立山城総合運動公園太陽が丘陸上競技場","contact":{"phone":"+81774241313","formattedPhone":"+81 774-24-1313"},"location":{"address":"広野町八軒屋谷1","lat":34.871408367382145,"lng":135.80642759799957,"postalCode":"611-0031","city":"宇治市","state":"京都府","country":"Japan"},"categories":[{"id":"4bf58dd8d48988d187941735","name":"Track Stadium","pluralName":"Track Stadiums","shortName":"Track","icon":{"prefix":"https:\/\/foursquare.com\/img\/categories_v2\/arts_entertainment\/stadium_track_","suffix":".png"},"primary":true}],"verified":false,"stats":{"checkinsCount":62,"usersCount":41,"tipCount":0},"likes":{"count":0,"groups":[]},"specials":{"count":0,"items":[]},"hereNow":{"count":0,"groups":[]}},{"id":"4f18a5a2e4b0cae4b544d3f2","name":"折居清掃工場","contact":{},"location":{"lat":34.88380932779901,"lng":135.79964283161536,"country":"Japan"},"categories":[{"id":"4eb1bea83b7b6f98df247e06","name":"Factory","pluralName":"Factories","shortName":"Factory","icon":{"prefix":"https:\/\/foursquare.com\/img\/categories_v2\/building\/factory_","suffix":".png"},"primary":true}],"verified":false,"stats":{"checkinsCount":2,"usersCount":1,"tipCount":0},"likes":{"count":0,"groups":[]},"specials":{"count":0,"items":[]},"hereNow":{"count":0,"groups":[]}},{"id":"4c2c1add8ef52d7f538732ba","name":"ミニストップ 宇治折居台店","contact":{"phone":"+81774237144","formattedPhone":"+81 774-23-7144"},"location":{"address":"宇治下居146番1","lat":34.880293,"lng":135.802302,"city":"宇治市","state":"京都府","country":"Japan"},"categories":[{"id":"4d954b0ea243a5684a65b473","name":"Convenience Store","pluralName":"Convenience Stores","shortName":"Convenience Stores","icon":{"prefix":"https:\/\/foursquare.com\/img\/categories_v2\/shops\/conveniencestore_","suffix":".png"},"primary":true}],"verified":false,"stats":{"checkinsCount":38,"usersCount":12,"tipCount":0},"likes":{"count":0,"groups":[]},"specials":{"count":0,"items":[]},"hereNow":{"count":0,"groups":[]}},{"id":"4bdba78a2a3a0f47e84cb0b6","name":"太陽が丘 (京都府立山城総合運動公園)","contact":{},"location":{"address":"広野町八軒屋谷1","lat":34.87200692412799,"lng":135.80438375473022,"city":"宇治市","state":"京都府","country":"Japan"},"categories":[{"id":"4bf58dd8d48988d163941735","name":"Park","pluralName":"Parks","shortName":"Park","icon":{"prefix":"https:\/\/foursquare.com\/img\/categories_v2\/parks_outdoors\/park_","suffix":".png"},"primary":true}],"verified":false,"stats":{"checkinsCount":234,"usersCount":165,"tipCount":2},"likes":{"count":0,"groups":[]},"specials":{"count":0,"items":[]},"hereNow":{"count":0,"groups":[]}},{"id":"4cd0c95bde0f6dcb0d486d63","name":"宇治市文化センター","contact":{"phone":"+81774399333","formattedPhone":"+81 774-39-9333"},"location":{"address":"折居台1丁目1","lat":34.87955892751542,"lng":135.80470025539398,"postalCode":"611-0021","city":"宇治市","state":"京都府","country":"Japan"},"categories":[{"id":"4bf58dd8d48988d1e6931735","name":"Concert Hall","pluralName":"Concert Halls","shortName":"Concert Hall","icon":{"prefix":"https:\/\/foursquare.com\/img\/categories_v2\/arts_entertainment\/musicvenue_concerthall_","suffix":".png"},"primary":true}],"verified":false,"stats":{"checkinsCount":36,"usersCount":30,"tipCount":0},"likes":{"count":0,"groups":[]},"specials":{"count":0,"items":[]},"hereNow":{"count":0,"groups":[]}},{"id":"4e7beee8ae60255fdc6636cb","name":"太陽が丘球技場B","contact":{},"location":{"lat":34.87077611189413,"lng":135.8042240690131,"country":"Japan"},"categories":[{"id":"4cce455aebf7b749d5e191f5","name":"Soccer Field","pluralName":"Soccer Fields","shortName":"Soccer Field","icon":{"prefix":"https:\/\/foursquare.com\/img\/categories_v2\/arts_entertainment\/stadium_soccer_","suffix":".png"},"primary":true}],"verified":false,"stats":{"checkinsCount":9,"usersCount":7,"tipCount":0},"likes":{"count":0,"groups":[]},"specials":{"count":0,"items":[]},"hereNow":{"count":0,"groups":[]}},{"id":"4d60a023149637042433e894","name":"宇治茶会館","contact":{},"location":{"address":"日本","lat":34.87666612177352,"lng":135.80412215602067,"city":"宇治市","state":"京都府","country":"Japan"},"categories":[],"verified":false,"stats":{"checkinsCount":11,"usersCount":8,"tipCount":0},"likes":{"count":0,"groups":[]},"specials":{"count":0,"items":[]},"hereNow":{"count":0,"groups":[]}},{"id":"4e179e3214957dc705cf966c","name":"京都大作戦","contact":{},"location":{"lat":34.872897,"lng":135.805635,"city":"宇治市","state":"京都府","country":"Japan"},"categories":[],"verified":false,"stats":{"checkinsCount":29,"usersCount":24,"tipCount":1},"likes":{"count":0,"groups":[]},"specials":{"count":0,"items":[]},"hereNow":{"count":0,"groups":[]}},{"id":"4ba4519ef964a520a29538e3","name":"宇治市中央図書館","contact":{},"location":{"lat":34.87924,"lng":135.804852,"country":"Japan"},"categories":[{"id":"4bf58dd8d48988d1a7941735","name":"College Library","pluralName":"College Libraries","shortName":"Library","icon":{"prefix":"https:\/\/foursquare.com\/img\/categories_v2\/building\/library_","suffix":".png"},"primary":true}],"verified":false,"stats":{"checkinsCount":28,"usersCount":13,"tipCount":0},"likes":{"count":0,"groups":[]},"specials":{"count":0,"items":[]},"hereNow":{"count":0,"groups":[]}},{"id":"4dbdf06293a08f9274e1df44","name":"折居台一丁目","contact":{},"location":{"address":"日本","lat":34.87847004,"lng":135.80337698,"city":"宇治市","state":"京都府","country":"Japan"},"categories":[],"verified":false,"stats":{"checkinsCount":3,"usersCount":1,"tipCount":0},"likes":{"count":0,"groups":[]},"specials":{"count":0,"items":[]},"hereNow":{"count":0,"groups":[]}},{"id":"4fc1663be4b07a4edd7c70ab","name":"太陽が丘 第3・4野球場(京都府立山城総合運動公園)","contact":{},"location":{"lat":34.869258880615234,"lng":135.80271911621094,"country":"Japan"},"categories":[{"id":"4bf58dd8d48988d18c941735","name":"Baseball Stadium","pluralName":"Baseball Stadiums","shortName":"Baseball","icon":{"prefix":"https:\/\/foursquare.com\/img\/categories_v2\/arts_entertainment\/stadium_baseball_","suffix":".png"},"primary":true}],"verified":false,"stats":{"checkinsCount":1,"usersCount":1,"tipCount":1},"likes":{"count":0,"groups":[]},"specials":{"count":0,"items":[]},"hereNow":{"count":0,"groups":[]}}]}}
