{"meta":{"code":200},"response":{"venues":[{"id":"4f30b7e9e4b0871fe515e2c9","name":"旭産業","contact":{},"location":{"address":"京都市南区","lat":34.960818,"lng":135.736989,"city":"京都市","country":"Japan"},"categories":[{"id":"4bf58dd8d48988d112951735","name":"Hardware Store","pluralName":"Hardware Stores","shortName":"Hardware","icon":{"prefix":"https:\/\/foursquare.com\/img\/categories_v2\/shops\/hardware_","suffix":".png"},"primary":true}],"verified":false,"stats":{"checkinsCount":1,"usersCount":1,"tipCount":0},"likes":{"count":0,"groups":[]},"specials":{"count":0,"items":[]},"hereNow":{"count":0,"groups":[]}},{"id":"4ec7306d77c8be4922550bd8","name":"麺屋 棣鄂","contact":{},"location":{"lat":34.96400451660156,"lng":135.73899841308594,"country":"Japan"},"categories":[{"id":"4bf58dd8d48988d1d1941735","name":"Ramen \/  Noodle House","pluralName":"Ramen \/  Noodle House","shortName":"Ramen \/ Noodles","icon":{"prefix":"https:\/\/foursquare.com\/img\/categories_v2\/food\/ramen_","suffix":".png"},"primary":true}],"verified":false,"stats":{"checkinsCount":1,"usersCount":1,"tipCount":0},"likes":{"count":0,"groups":[]},"specials":{"count":0,"items":[]},"hereNow":{"count":0,"groups":[]}},{"id":"4e7aa37889981f5650c85d38","name":"蒲田文寿堂","contact":{},"location":{"lat":34.961811408802184,"lng":135.7328975200653,"country":"Japan"},"categories":[{"id":"4bf58dd8d48988d121951735","name":"Paper \/ Office Supplies Store","pluralName":"Paper \/ Office Supplies Stores","shortName":"Office Supplies","icon":{"prefix":"https:\/\/foursquare.com\/img\/categories_v2\/shops\/papergoods_","suffix":".png"},"primary":true}],"verified":false,"stats":{"checkinsCount":1,"usersCount":1,"tipCount":0},"likes":{"count":0,"groups":[]},"specials":{"count":0,"items":[]},"hereNow":{"count":0,"groups":[]}},{"id":"4d19b24525cda143c1fd88d6","name":"なか卯 久世橋通店","contact":{},"location":{"address":"吉祥院池田町47-2","lat":34.96617684207191,"lng":135.7354724407196,"postalCode":"601-8349","city":"京都市南区","state":"京都府","country":"Japan"},"categories":[{"id":"4bf58dd8d48988d16e941735","name":"Fast Food Restaurant","pluralName":"Fast Food Restaurants","shortName":"Fast Food","icon":{"prefix":"https:\/\/foursquare.com\/img\/categories_v2\/food\/fastfood_","suffix":".png"},"primary":true}],"verified":false,"stats":{"checkinsCount":63,"usersCount":20,"tipCount":0},"likes":{"count":0,"groups":[]},"specials":{"count":0,"items":[]},"hereNow":{"count":0,"groups":[]}},{"id":"4f5b2366771636118a00db9d","name":"吉祥院池田町 バス停","contact":{},"location":{"address":"南区 吉祥院観音堂南町・吉祥院池田南町・吉祥院池田町","crossStreet":"市バス","lat":34.96590868016718,"lng":135.73519349098206,"city":"京都市","state":"京都府","country":"Japan"},"categories":[{"id":"4bf58dd8d48988d1fe931735","name":"Bus Station","pluralName":"Bus Stations","shortName":"Bus Station","icon":{"prefix":"https:\/\/foursquare.com\/img\/categories_v2\/travel\/busstation_","suffix":".png"},"primary":true}],"verified":false,"stats":{"checkinsCount":0,"usersCount":0,"tipCount":0},"likes":{"count":0,"groups":[]},"specials":{"count":0,"items":[]},"hereNow":{"count":0,"groups":[]}},{"id":"4e7aa2fcd22d6b558eac4470","name":"京都信用金庫 上鳥羽支店","contact":{},"location":{"address":"吉祥院観音堂南町4番地の3","lat":34.96576800471864,"lng":135.73362708091736,"city":"京都市南区","state":"京都府","country":"Japan"},"categories":[{"id":"4bf58dd8d48988d10a951735","name":"Bank","pluralName":"Banks","shortName":"Bank \/ Financial","icon":{"prefix":"https:\/\/foursquare.com\/img\/categories_v2\/shops\/financial_","suffix":".png"},"primary":true}],"verified":false,"stats":{"checkinsCount":1,"usersCount":1,"tipCount":0},"likes":{"count":0,"groups":[]},"specials":{"count":0,"items":[]},"hereNow":{"count":0,"groups":[]}},{"id":"4ea3c32e8231f6dc6a97634e","name":"エネオス 鳥羽中央SS","contact":{},"location":{"lat":34.96038698750214,"lng":135.7340669631958,"country":"Japan"},"categories":[{"id":"4bf58dd8d48988d113951735","name":"Gas Station \/ Garage","pluralName":"Gas Stations \/ Garages","shortName":"Gas Station \/ Garage","icon":{"prefix":"https:\/\/foursquare.com\/img\/categories_v2\/shops\/gas_","suffix":".png"},"primary":true}],"verified":false,"stats":{"checkinsCount":41,"usersCount":5,"tipCount":1},"likes":{"count":0,"groups":[]},"specials":{"count":0,"items":[]},"hereNow":{"count":0,"groups":[]}},{"id":"4da40209d686b60cab6fd728","name":"京風カレーうどん　みね八","contact":{"phone":"+81756613868","formattedPhone":"+81 75-661-3868"},"location":{"address":"日本","lat":34.963178,"lng":135.73523083333333,"postalCode":"6018362","city":"京都市南区吉祥院長田町65－3","state":"京都府","country":"Japan"},"categories":[{"id":"4bf58dd8d48988d1d1941735","name":"Ramen \/  Noodle House","pluralName":"Ramen \/  Noodle House","shortName":"Ramen \/ Noodles","icon":{"prefix":"https:\/\/foursquare.com\/img\/categories_v2\/food\/ramen_","suffix":".png"},"primary":true}],"verified":false,"stats":{"checkinsCount":14,"usersCount":9,"tipCount":0},"likes":{"count":0,"groups":[]},"specials":{"count":0,"items":[]},"hereNow":{"count":0,"groups":[]}},{"id":"4dfd6445b0fb84d7ace3c9f1","name":"みね八","contact":{"phone":"+81756613868","formattedPhone":"+81 75-661-3868"},"location":{"address":"吉祥院長田町63−5","lat":34.963197,"lng":135.735168,"city":"京都市南区","country":"Japan"},"categories":[{"id":"4bf58dd8d48988d111941735","name":"Japanese Restaurant","pluralName":"Japanese Restaurants","shortName":"Japanese","icon":{"prefix":"https:\/\/foursquare.com\/img\/categories_v2\/food\/japanese_","suffix":".png"},"primary":true}],"verified":false,"stats":{"checkinsCount":7,"usersCount":6,"tipCount":0},"likes":{"count":0,"groups":[]},"specials":{"count":0,"items":[]},"hereNow":{"count":0,"groups":[]}},{"id":"4db92a178154ce84dc21cb54","name":"サークルK 吉祥院長田町店","contact":{"phone":"+81756819022","formattedPhone":"+81 75-681-9022"},"location":{"address":"南区吉祥院長田町63-1","lat":34.963666636454896,"lng":135.73553144931793,"postalCode":"601-8362","city":"京都市","state":"京都府","country":"Japan"},"categories":[{"id":"4d954b0ea243a5684a65b473","name":"Convenience Store","pluralName":"Convenience Stores","shortName":"Convenience Stores","icon":{"prefix":"https:\/\/foursquare.com\/img\/categories_v2\/shops\/conveniencestore_","suffix":".png"},"primary":true}],"verified":false,"stats":{"checkinsCount":18,"usersCount":6,"tipCount":0},"likes":{"count":0,"groups":[]},"specials":{"count":0,"items":[]},"hereNow":{"count":0,"groups":[]}},{"id":"4f5b1ffd771636118a007f62","name":"上鳥羽馬廻 バス停","contact":{},"location":{"address":"南区上鳥羽馬廻","crossStreet":"市バス臨13・特18・43系統","lat":34.96266429118603,"lng":135.73577284812927,"city":"京都市","state":"京都府","country":"Japan"},"categories":[{"id":"4bf58dd8d48988d1fe931735","name":"Bus Station","pluralName":"Bus Stations","shortName":"Bus Station","icon":{"prefix":"https:\/\/foursquare.com\/img\/categories_v2\/travel\/busstation_","suffix":".png"},"primary":true}],"verified":false,"stats":{"checkinsCount":0,"usersCount":0,"tipCount":0},"likes":{"count":0,"groups":[]},"specials":{"count":0,"items":[]},"hereNow":{"count":0,"groups":[]}}]}}
