{"meta":{"code":200},"response":{"venues":[{"id":"4e5df9aefa768fe5f2c0c9fc","name":"日本通運(株)京都支店 洛南物流センター","contact":{},"location":{"address":"上鳥羽城ケ前町57-63","lat":34.963764490850465,"lng":135.74478554853488,"city":"京都市南区","state":"京都府","country":"Japan"},"categories":[{"id":"4bf58dd8d48988d130941735","name":"Building","pluralName":"Buildings","shortName":"Other - Buildings","icon":{"prefix":"https:\/\/foursquare.com\/img\/categories_v2\/building\/default_","suffix":".png"},"primary":true}],"verified":false,"stats":{"checkinsCount":10,"usersCount":6,"tipCount":0},"likes":{"count":0,"groups":[]},"specials":{"count":0,"items":[]},"hereNow":{"count":0,"groups":[]}},{"id":"4dd4593b1f6ec4e0bb78630c","name":"サンクス 大宮通上鳥羽店","contact":{"phone":"+81756941222","formattedPhone":"+81 75-694-1222"},"location":{"address":"南区上鳥羽町田57番","lat":34.96366004211821,"lng":135.74841409921646,"postalCode":"601-8132","city":"京都市","state":"京都府","country":"Japan"},"categories":[{"id":"4d954b0ea243a5684a65b473","name":"Convenience Store","pluralName":"Convenience Stores","shortName":"Convenience Stores","icon":{"prefix":"https:\/\/foursquare.com\/img\/categories_v2\/shops\/conveniencestore_","suffix":".png"},"primary":true}],"verified":false,"stats":{"checkinsCount":31,"usersCount":14,"tipCount":0},"likes":{"count":0,"groups":[]},"specials":{"count":0,"items":[]},"hereNow":{"count":0,"groups":[]}},{"id":"4ec301016da18e9a96043ff9","name":"MK運行管理","contact":{},"location":{"lat":34.967010498046875,"lng":135.74754333496094,"country":"Japan"},"categories":[{"id":"4bf58dd8d48988d130951735","name":"Taxi","pluralName":"Taxis","shortName":"Taxi","icon":{"prefix":"https:\/\/foursquare.com\/img\/categories_v2\/travel\/taxi_","suffix":".png"},"primary":true}],"verified":false,"stats":{"checkinsCount":1,"usersCount":1,"tipCount":0},"likes":{"count":0,"groups":[]},"specials":{"count":0,"items":[]},"hereNow":{"count":0,"groups":[]}},{"id":"4e3fa76218a83d5b28614463","name":"STRAIGHT","contact":{},"location":{"lat":34.96776536919595,"lng":135.746081026307,"country":"Japan"},"categories":[{"id":"4bf58dd8d48988d112951735","name":"Hardware Store","pluralName":"Hardware Stores","shortName":"Hardware","icon":{"prefix":"https:\/\/foursquare.com\/img\/categories_v2\/shops\/hardware_","suffix":".png"},"primary":true}],"verified":false,"stats":{"checkinsCount":9,"usersCount":6,"tipCount":0},"likes":{"count":0,"groups":[]},"specials":{"count":0,"items":[]},"hereNow":{"count":0,"groups":[]}},{"id":"4bf2ae0a82002d7f89d0d0bb","name":"天下一品 上鳥羽店","contact":{"phone":"+81756819372","formattedPhone":"+81 75-681-9372"},"location":{"address":"上鳥羽南花名町36","crossStreet":"久瀬橋通大宮 ワインハイツ水仙","lat":34.96537455179096,"lng":135.7481700181961,"city":"京都市南区","state":"京都府","country":"Japan"},"categories":[{"id":"4bf58dd8d48988d1d1941735","name":"Ramen \/  Noodle House","pluralName":"Ramen \/  Noodle House","shortName":"Ramen \/ Noodles","icon":{"prefix":"https:\/\/foursquare.com\/img\/categories_v2\/food\/ramen_","suffix":".png"},"primary":true}],"verified":false,"stats":{"checkinsCount":75,"usersCount":52,"tipCount":1},"likes":{"count":0,"groups":[]},"specials":{"count":0,"items":[]},"hereNow":{"count":0,"groups":[]}},{"id":"4f13f549e4b067f6721c9659","name":"久世橋通大宮 交差点","contact":{},"location":{"lat":34.96553649477239,"lng":135.74827416544187,"country":"Japan"},"categories":[{"id":"4bf58dd8d48988d1f9931735","name":"Road","pluralName":"Roads","shortName":"Road","icon":{"prefix":"https:\/\/foursquare.com\/img\/categories_v2\/travel\/highway_","suffix":".png"},"primary":true}],"verified":false,"stats":{"checkinsCount":6,"usersCount":2,"tipCount":0},"likes":{"count":0,"groups":[]},"specials":{"count":0,"items":[]},"hereNow":{"count":0,"groups":[]}},{"id":"4b61a854f964a520f81b2ae3","name":"ドン・キホーテ 京都南インター店","contact":{"phone":"+81756922711","formattedPhone":"+81 75-692-2711"},"location":{"address":"上鳥羽北花名町1-2","lat":34.96707803548436,"lng":135.74621200561523,"postalCode":"601-8127","city":"京都市南区","state":"京都府","country":"Japan"},"categories":[{"id":"4bf58dd8d48988d1fb941735","name":"Hobby Shop","pluralName":"Hobby Shops","shortName":"Hobbies","icon":{"prefix":"https:\/\/foursquare.com\/img\/categories_v2\/shops\/hobbyshop_","suffix":".png"},"primary":true}],"verified":false,"stats":{"checkinsCount":295,"usersCount":167,"tipCount":2},"likes":{"count":0,"groups":[]},"specials":{"count":0,"items":[]},"hereNow":{"count":0,"groups":[]}},{"id":"4bdfe47f0ee3a593f79935b0","name":"くら寿司 京都南インター店","contact":{"phone":"+81756821602","formattedPhone":"+81 75-682-1602"},"location":{"address":"上鳥羽鴨田12-1","lat":34.96408,"lng":135.745765,"city":"京都市南区","state":"京都府","country":"Japan"},"categories":[{"id":"4bf58dd8d48988d1d2941735","name":"Sushi Restaurant","pluralName":"Sushi Restaurants","shortName":"Sushi","icon":{"prefix":"https:\/\/foursquare.com\/img\/categories_v2\/food\/sushi_","suffix":".png"},"primary":true}],"verified":false,"stats":{"checkinsCount":55,"usersCount":48,"tipCount":0},"likes":{"count":0,"groups":[]},"specials":{"count":0,"items":[]},"hereNow":{"count":0,"groups":[]}},{"id":"4be0423d2d77a59338d77c3f","name":"カレーハウス CoCo壱番屋 南区上鳥羽店","contact":{"phone":"+81756828533","formattedPhone":"+81 75-682-8533"},"location":{"address":"上鳥羽鴨田18-4","lat":34.963442,"lng":135.745725,"city":"京都市南区","state":"京都府","country":"Japan"},"categories":[{"id":"4bf58dd8d48988d10f941735","name":"Indian Restaurant","pluralName":"Indian Restaurants","shortName":"Indian","icon":{"prefix":"https:\/\/foursquare.com\/img\/categories_v2\/food\/default_","suffix":".png"},"primary":true}],"verified":false,"stats":{"checkinsCount":35,"usersCount":26,"tipCount":1},"likes":{"count":0,"groups":[]},"specials":{"count":0,"items":[]},"hereNow":{"count":0,"groups":[]}},{"id":"4cd2908983e0721e589d5797","name":"肉家 かぐら","contact":{},"location":{"address":"上鳥羽南花名町10-2","lat":34.96530641170652,"lng":135.74714541435242,"city":"京都市南区","state":"京都府","country":"Japan"},"categories":[{"id":"4bf58dd8d48988d111941735","name":"Japanese Restaurant","pluralName":"Japanese Restaurants","shortName":"Japanese","icon":{"prefix":"https:\/\/foursquare.com\/img\/categories_v2\/food\/japanese_","suffix":".png"},"primary":true}],"verified":false,"stats":{"checkinsCount":8,"usersCount":4,"tipCount":0},"likes":{"count":0,"groups":[]},"specials":{"count":0,"items":[]},"hereNow":{"count":0,"groups":[]}},{"id":"4f7ce7ebe4b0fe0940e44aaf","name":"中山稲荷交差点","contact":{},"location":{"lat":34.963775634765625,"lng":135.74533081054688,"country":"Japan"},"categories":[{"id":"4bf58dd8d48988d1f9931735","name":"Road","pluralName":"Roads","shortName":"Road","icon":{"prefix":"https:\/\/foursquare.com\/img\/categories_v2\/travel\/highway_","suffix":".png"},"primary":true}],"verified":false,"stats":{"checkinsCount":1,"usersCount":1,"tipCount":0},"likes":{"count":0,"groups":[]},"specials":{"count":0,"items":[]},"hereNow":{"count":0,"groups":[]}},{"id":"4d8c401d7bc4224bc1893e22","name":"日工自動車(株) 車検センター京都南","contact":{},"location":{"address":"京都府京都市南区上鳥羽鴨田町18-2","lat":34.963607,"lng":135.745833,"city":"京都市南区","state":"京都府","country":"Japan"},"categories":[{"id":"4bf58dd8d48988d124951735","name":"Automotive Shop","pluralName":"Automotive Shops","shortName":"Automotive","icon":{"prefix":"https:\/\/foursquare.com\/img\/categories_v2\/shops\/automotive_","suffix":".png"},"primary":true}],"verified":false,"stats":{"checkinsCount":2,"usersCount":2,"tipCount":0},"likes":{"count":0,"groups":[]},"specials":{"count":0,"items":[]},"hereNow":{"count":0,"groups":[]}},{"id":"4b5cd8d9f964a520154729e3","name":"国道1号久世橋 交差点","contact":{},"location":{"address":"上鳥羽北花名町","crossStreet":"京阪国道 \/ 久世橋通","lat":34.9655921600683,"lng":135.74576139450073,"city":"京都市南区","state":"京都府","country":"Japan"},"categories":[{"id":"4bf58dd8d48988d1f9931735","name":"Road","pluralName":"Roads","shortName":"Road","icon":{"prefix":"https:\/\/foursquare.com\/img\/categories_v2\/travel\/highway_","suffix":".png"},"primary":true}],"verified":false,"stats":{"checkinsCount":133,"usersCount":18,"tipCount":1},"likes":{"count":0,"groups":[]},"specials":{"count":0,"items":[]},"hereNow":{"count":0,"groups":[]}},{"id":"4bb18fcef964a520a5993ce3","name":"出光 上鳥羽SS","contact":{},"location":{"address":"上鳥羽北花名町1","lat":34.96654577,"lng":135.74575394,"city":"京都市南区","state":"京都府","country":"Japan"},"categories":[{"id":"4bf58dd8d48988d113951735","name":"Gas Station \/ Garage","pluralName":"Gas Stations \/ Garages","shortName":"Gas Station \/ Garage","icon":{"prefix":"https:\/\/foursquare.com\/img\/categories_v2\/shops\/gas_","suffix":".png"},"primary":true}],"verified":false,"stats":{"checkinsCount":29,"usersCount":20,"tipCount":0},"likes":{"count":0,"groups":[]},"specials":{"count":0,"items":[]},"hereNow":{"count":0,"groups":[]}},{"id":"4f3f4c417b0c93cd69a25327","name":"上鳥羽 バス停","contact":{},"location":{"address":"南区 上鳥羽南花名町・上鳥羽南島田町・上鳥羽鴨田","crossStreet":"市バス19・84系統","lat":34.96559655618915,"lng":135.7458458840847,"city":"京都市","state":"京都府","country":"Japan"},"categories":[{"id":"4bf58dd8d48988d1fe931735","name":"Bus Station","pluralName":"Bus Stations","shortName":"Bus Station","icon":{"prefix":"https:\/\/foursquare.com\/img\/categories_v2\/travel\/busstation_","suffix":".png"},"primary":true}],"verified":false,"stats":{"checkinsCount":0,"usersCount":0,"tipCount":0},"likes":{"count":0,"groups":[]},"specials":{"count":0,"items":[]},"hereNow":{"count":0,"groups":[]}},{"id":"4d12835c957fa1cd126f6e9f","name":"MKタクシー","contact":{},"location":{"lat":34.966355,"lng":135.746798,"country":"Japan"},"categories":[{"id":"4bf58dd8d48988d130951735","name":"Taxi","pluralName":"Taxis","shortName":"Taxi","icon":{"prefix":"https:\/\/foursquare.com\/img\/categories_v2\/travel\/taxi_","suffix":".png"},"primary":true}],"verified":false,"stats":{"checkinsCount":7,"usersCount":4,"tipCount":0},"likes":{"count":0,"groups":[]},"specials":{"count":0,"items":[]},"hereNow":{"count":0,"groups":[]}}]}}
