{"meta":{"code":200},"response":{"venues":[{"id":"4e9702ac239c25191dd69b84","name":"Beaux-Arts","contact":{"phone":"+81756330793","formattedPhone":"+81 75-633-0793"},"location":{"address":"京都府久世郡久御山町森南大内156-1ジャスコ久御山店2F","lat":34.89089,"lng":135.7493,"postalCode":"613-0024","city":"久世郡","state":"京都府","country":"Japan"},"categories":[{"id":"4bf58dd8d48988d103951735","name":"Clothing Store","pluralName":"Clothing Stores","shortName":"Apparel","icon":{"prefix":"https:\/\/foursquare.com\/img\/categories_v2\/shops\/apparel_","suffix":".png"},"primary":true}],"verified":true,"stats":{"checkinsCount":0,"usersCount":0,"tipCount":0},"url":"http:\/\/www.lbcmarket.jp","likes":{"count":0,"groups":[]},"specials":{"count":0,"items":[]},"hereNow":{"count":0,"groups":[]}},{"id":"4e9704c6aad21d6d4aa9c47f","name":"LBCmarket","contact":{"phone":"+81756330791","formattedPhone":"+81 75-633-0791"},"location":{"address":"京都府久世郡久御山町森南大内156-1　　　イオン久御山店１F","lat":34.89089,"lng":135.7493,"postalCode":"613-0024","city":"久世郡","state":"京都府","country":"Japan"},"categories":[{"id":"4bf58dd8d48988d103951735","name":"Clothing Store","pluralName":"Clothing Stores","shortName":"Apparel","icon":{"prefix":"https:\/\/foursquare.com\/img\/categories_v2\/shops\/apparel_","suffix":".png"},"primary":true}],"verified":true,"stats":{"checkinsCount":0,"usersCount":0,"tipCount":0},"url":"http:\/\/www.lbcmarket.jp","likes":{"count":0,"groups":[]},"specials":{"count":0,"items":[]},"hereNow":{"count":0,"groups":[]}}]}}
