{"meta":{"code":200},"response":{"venues":[{"id":"4cba21f5dd41a35d8469e6a0","name":"近畿スポーツランド","contact":{"phone":"+81774883633","formattedPhone":"+81 774-88-3633"},"location":{"address":"高雄字柏尾10-1","lat":34.871517,"lng":135.85167453624308,"postalCode":"610-0251","city":"綴喜郡宇治田原町","state":"京都府","country":"Japan"},"categories":[{"id":"4bf58dd8d48988d1f4931735","name":"Racetrack","pluralName":"Racetracks","shortName":"Racetrack","icon":{"prefix":"https:\/\/foursquare.com\/img\/categories_v2\/arts_entertainment\/racetrack_","suffix":".png"},"primary":true}],"verified":false,"stats":{"checkinsCount":32,"usersCount":22,"tipCount":0},"likes":{"count":0,"groups":[]},"specials":{"count":0,"items":[]},"hereNow":{"count":0,"groups":[]}},{"id":"4efc68216d866121e6b7dfc9","name":"弘法大師の霊泉","contact":{},"location":{"address":"宇治田原町高尾","lat":34.86815143814047,"lng":135.84818959236145,"city":"綴喜郡","state":"京都府","country":"Japan"},"categories":[{"id":"4bf58dd8d48988d162941735","name":"Other Great Outdoors","pluralName":"Other Great Outdoors","shortName":"Other Outdoors","icon":{"prefix":"https:\/\/foursquare.com\/img\/categories_v2\/parks_outdoors\/outdoors_","suffix":".png"},"primary":true}],"verified":false,"stats":{"checkinsCount":0,"usersCount":0,"tipCount":0},"likes":{"count":0,"groups":[]},"specials":{"count":0,"items":[]},"hereNow":{"count":0,"groups":[]}}]}}
