{"meta":{"code":200},"response":{"venues":[{"id":"4ddb541aae6092c836df7bec","name":"スズキアリーナ城陽","contact":{},"location":{"address":"日本","lat":34.846975207328796,"lng":135.78112363815308,"city":"城陽市","state":"京都府","country":"Japan"},"categories":[{"id":"4bf58dd8d48988d124951735","name":"Automotive Shop","pluralName":"Automotive Shops","shortName":"Automotive","icon":{"prefix":"https:\/\/foursquare.com\/img\/categories_v2\/shops\/automotive_","suffix":".png"},"primary":true}],"verified":false,"stats":{"checkinsCount":1,"usersCount":1,"tipCount":0},"likes":{"count":0,"groups":[]},"specials":{"count":0,"items":[]},"hereNow":{"count":0,"groups":[]}},{"id":"4dd8b26cd4c05d509709da29","name":"城陽警察署","contact":{"phone":"+81774530110","formattedPhone":"+81 774-53-0110"},"location":{"address":"富野久保田1-4","lat":34.846335489804105,"lng":135.77924609184265,"postalCode":"610-0111","city":"城陽市","state":"京都府","country":"Japan"},"categories":[{"id":"4bf58dd8d48988d12e941735","name":"Police Station","pluralName":"Police Stations","shortName":"Police Station","icon":{"prefix":"https:\/\/foursquare.com\/img\/categories_v2\/building\/government_policestation_","suffix":".png"},"primary":true}],"verified":false,"stats":{"checkinsCount":52,"usersCount":8,"tipCount":0},"likes":{"count":0,"groups":[]},"specials":{"count":0,"items":[]},"hereNow":{"count":0,"groups":[]}},{"id":"4c628b78e1621b8d6c9d2353","name":"温庵","contact":{},"location":{"lat":34.8502580329836,"lng":135.78045308589935,"country":"Japan"},"categories":[{"id":"4bf58dd8d48988d111941735","name":"Japanese Restaurant","pluralName":"Japanese Restaurants","shortName":"Japanese","icon":{"prefix":"https:\/\/foursquare.com\/img\/categories_v2\/food\/japanese_","suffix":".png"},"primary":true}],"verified":false,"stats":{"checkinsCount":5,"usersCount":2,"tipCount":0},"likes":{"count":0,"groups":[]},"specials":{"count":0,"items":[]},"hereNow":{"count":0,"groups":[]}},{"id":"4c9af0e5b8e9224bb763523d","name":"cafe le MISUGI","contact":{},"location":{"address":"日本","lat":34.85203654313911,"lng":135.78041285276413,"city":"城陽市","state":"京都府","country":"Japan"},"categories":[{"id":"4bf58dd8d48988d16d941735","name":"Café","pluralName":"Cafés","shortName":"Café","icon":{"prefix":"https:\/\/foursquare.com\/img\/categories_v2\/food\/cafe_","suffix":".png"},"primary":true}],"verified":false,"stats":{"checkinsCount":1,"usersCount":1,"tipCount":0},"likes":{"count":0,"groups":[]},"specials":{"count":0,"items":[]},"hereNow":{"count":0,"groups":[]}},{"id":"4c91a2a757e5b60cbf8e621c","name":"城陽市産業会館","contact":{},"location":{"address":"富野久保田1-1","lat":34.84615058416422,"lng":135.77990055084229,"city":"城陽市","state":"京都府","country":"Japan"},"categories":[{"id":"4bf58dd8d48988d1ff931735","name":"Convention Center","pluralName":"Convention Centers","shortName":"Convention Center","icon":{"prefix":"https:\/\/foursquare.com\/img\/categories_v2\/building\/conventioncenter_","suffix":".png"},"primary":true}],"verified":false,"stats":{"checkinsCount":148,"usersCount":15,"tipCount":0},"likes":{"count":0,"groups":[]},"specials":{"count":0,"items":[]},"hereNow":{"count":0,"groups":[]}},{"id":"4e9030f2e5fa2c09eb3b4fa9","name":"城陽市消防署","contact":{},"location":{"address":"富野久保田1-1","lat":34.84647637001276,"lng":135.77984154224396,"city":"城陽市","state":"京都府","country":"Japan"},"categories":[{"id":"4bf58dd8d48988d12c941735","name":"Fire Station","pluralName":"Fire Stations","shortName":"Fire Station","icon":{"prefix":"https:\/\/foursquare.com\/img\/categories_v2\/building\/government_firestation_","suffix":".png"},"primary":true}],"verified":false,"stats":{"checkinsCount":40,"usersCount":5,"tipCount":0},"likes":{"count":0,"groups":[]},"specials":{"count":0,"items":[]},"hereNow":{"count":0,"groups":[]}}]}}
