{"meta":{"code":200},"response":{"venues":[{"id":"4dca5f531f6e28126774d9b5","name":"ダイソー アルプラザ京田辺店","contact":{"phone":"+81774684308","formattedPhone":"+81 774-68-4308"},"location":{"address":"田辺中央5-2-1","crossStreet":"アルプラザ京田辺店内3F","lat":34.821748200894326,"lng":135.76867818832397,"city":"京田辺市","state":"京都府","country":"Japan"},"categories":[{"id":"4bf58dd8d48988d1ff941735","name":"Miscellaneous Shop","pluralName":"Miscellaneous Shops","shortName":"Other - Shop","icon":{"prefix":"https:\/\/foursquare.com\/img\/categories_v2\/shops\/default_","suffix":".png"},"primary":true}],"verified":false,"stats":{"checkinsCount":45,"usersCount":16,"tipCount":0},"likes":{"count":0,"groups":[]},"specials":{"count":0,"items":[]},"hereNow":{"count":0,"groups":[]}},{"id":"4e62da7c62e13e3bced6f72e","name":"正栄クリーニング アル・プラザ 京田辺店","contact":{"phone":"+81774640091","formattedPhone":"+81 774-64-0091"},"location":{"lat":34.82227645,"lng":135.76855269,"city":"京田辺市","state":"京都府","country":"Japan"},"categories":[{"id":"4bf58dd8d48988d1fc941735","name":"Laundry Service","pluralName":"Laundry Services","shortName":"Laundry","icon":{"prefix":"https:\/\/foursquare.com\/img\/categories_v2\/shops\/laundry_","suffix":".png"},"primary":true}],"verified":false,"stats":{"checkinsCount":20,"usersCount":6,"tipCount":0},"likes":{"count":0,"groups":[]},"specials":{"count":0,"items":[]},"hereNow":{"count":0,"groups":[]}},{"id":"4e5984b662e1de72f6f3c2fd","name":"ヤンマー農機販売(株)","contact":{},"location":{"lat":34.82205943138595,"lng":135.76664682783624,"city":"京田辺市","state":"京都府","country":"Japan"},"categories":[{"id":"4d4b7105d754a06375d81259","name":"Professional & Other Places","pluralName":"Professional & Other Places","shortName":"Professional & Other Places","icon":{"prefix":"https:\/\/foursquare.com\/img\/categories_v2\/building\/default_","suffix":".png"},"primary":true}],"verified":false,"stats":{"checkinsCount":6,"usersCount":1,"tipCount":0},"likes":{"count":0,"groups":[]},"specials":{"count":0,"items":[]},"hereNow":{"count":0,"groups":[]}}]}}
