{"meta":{"code":200},"response":{"venues":[{"id":"4c9f287fd3c2b60c690ad2bc","name":"伏見郵便局","contact":{"phone":"+81756436218","formattedPhone":"+81 75-643-6218"},"location":{"address":"撞木町1148","lat":34.945824816333904,"lng":135.7643437385559,"postalCode":"612-0085","city":"京都市伏見区","state":"京都府","country":"Japan"},"categories":[{"id":"4bf58dd8d48988d172941735","name":"Post Office","pluralName":"Post Offices","shortName":"Post Office","icon":{"prefix":"https:\/\/foursquare.com\/img\/categories_v2\/building\/postoffice_","suffix":".png"},"primary":true}],"verified":false,"stats":{"checkinsCount":127,"usersCount":36,"tipCount":0},"likes":{"count":0,"groups":[]},"specials":{"count":0,"items":[]},"hereNow":{"count":0,"groups":[]}},{"id":"4d598a0be2df60fc0303cae5","name":"ローソンストア100 伏見駅前店","contact":{"phone":"+81756463799","formattedPhone":"+81 75-646-3799"},"location":{"address":"深草柴田屋敷町62-1","crossStreet":"グランドール墨染","lat":34.946720956996124,"lng":135.76091051101685,"city":"京都市伏見区","state":"京都府","country":"Japan"},"categories":[{"id":"4d954b0ea243a5684a65b473","name":"Convenience Store","pluralName":"Convenience Stores","shortName":"Convenience Stores","icon":{"prefix":"https:\/\/foursquare.com\/img\/categories_v2\/shops\/conveniencestore_","suffix":".png"},"primary":true}],"verified":false,"stats":{"checkinsCount":32,"usersCount":10,"tipCount":2},"likes":{"count":0,"groups":[]},"specials":{"count":0,"items":[]},"hereNow":{"count":0,"groups":[]}},{"id":"4f895262e4b09efba15c12f4","name":"自宅","contact":{},"location":{"isFuzzed":true,"lat":34.94815457225135,"lng":135.75683716597732,"country":"Japan"},"categories":[{"id":"4bf58dd8d48988d103941735","name":"Home (private)","pluralName":"Homes (private)","shortName":"Home","icon":{"prefix":"https:\/\/foursquare.com\/img\/categories_v2\/building\/home_","suffix":".png"},"primary":true}],"verified":false,"stats":{"checkinsCount":0,"usersCount":0,"tipCount":0},"likes":{"count":0,"groups":[]},"hereNow":{"count":0,"groups":[]}},{"id":"4fc99da7e4b0b44b52e96cff","name":"超★次郎","contact":{},"location":{"lat":34.945316,"lng":135.765371,"country":"Japan"},"categories":[{"id":"4bf58dd8d48988d1d1941735","name":"Ramen \/  Noodle House","pluralName":"Ramen \/  Noodle House","shortName":"Ramen \/ Noodles","icon":{"prefix":"https:\/\/foursquare.com\/img\/categories_v2\/food\/ramen_","suffix":".png"},"primary":true}],"verified":false,"stats":{"checkinsCount":1,"usersCount":1,"tipCount":0},"likes":{"count":0,"groups":[]},"specials":{"count":0,"items":[]},"hereNow":{"count":0,"groups":[]}},{"id":"4b7fec49f964a520a04430e3","name":"ラーメン荘 地球規模で考えろ","contact":{"phone":"+81726447544","formattedPhone":"+81 72-644-7544"},"location":{"address":"撞木町1153-9","lat":34.94545545226837,"lng":135.765261054039,"city":"京都市伏見区","state":"京都府","country":"Japan"},"categories":[{"id":"4bf58dd8d48988d1d1941735","name":"Ramen \/  Noodle House","pluralName":"Ramen \/  Noodle House","shortName":"Ramen \/ Noodles","icon":{"prefix":"https:\/\/foursquare.com\/img\/categories_v2\/food\/ramen_","suffix":".png"},"primary":true}],"verified":false,"stats":{"checkinsCount":446,"usersCount":137,"tipCount":1},"likes":{"count":0,"groups":[]},"specials":{"count":0,"items":[]},"hereNow":{"count":0,"groups":[]}},{"id":"4eb521b3e5e87437050a4734","name":"パサージュ (PasSage)","contact":{},"location":{"address":"深草出羽屋敷町23","crossStreet":"イズミヤ伏見店 1F","lat":34.9468845301914,"lng":135.7633540034294,"city":"京都市伏見区","state":"京都府","country":"Japan"},"categories":[{"id":"4bf58dd8d48988d1c5941735","name":"Sandwich Place","pluralName":"Sandwich Places","shortName":"Sandwiches","icon":{"prefix":"https:\/\/foursquare.com\/img\/categories_v2\/food\/sandwiches_","suffix":".png"},"primary":true}],"verified":false,"stats":{"checkinsCount":0,"usersCount":0,"tipCount":0},"likes":{"count":0,"groups":[]},"specials":{"count":0,"items":[]},"hereNow":{"count":0,"groups":[]}},{"id":"4f63de83e4b0c65cc3ccf7ce","name":"Peace of Hair (ピースオブヘアー)","contact":{"phone":"+81756422115","formattedPhone":"+81 75-642-2115"},"location":{"address":"日本","lat":34.946250915527344,"lng":135.7623748779297,"city":"京都市","state":"京都府","country":"Japan"},"categories":[{"id":"4bf58dd8d48988d110951735","name":"Salon \/ Barbershop","pluralName":"Salons \/ Barbershops","shortName":"Salon \/ Barbershop","icon":{"prefix":"https:\/\/foursquare.com\/img\/categories_v2\/shops\/salon_barber_","suffix":".png"},"primary":true}],"verified":false,"stats":{"checkinsCount":1,"usersCount":1,"tipCount":0},"likes":{"count":0,"groups":[]},"specials":{"count":0,"items":[]},"hereNow":{"count":0,"groups":[]}},{"id":"4c2db1954e132d7f3cd39cdf","name":"清和荘","contact":{},"location":{"lat":34.9489313280786,"lng":135.7626153423542,"country":"Japan"},"categories":[{"id":"4bf58dd8d48988d1e2931735","name":"Art Gallery","pluralName":"Art Galleries","shortName":"Art Gallery","icon":{"prefix":"https:\/\/foursquare.com\/img\/categories_v2\/arts_entertainment\/artgallery_","suffix":".png"},"primary":true}],"verified":false,"stats":{"checkinsCount":25,"usersCount":19,"tipCount":0},"likes":{"count":0,"groups":[]},"specials":{"count":0,"items":[]},"hereNow":{"count":0,"groups":[]}},{"id":"4f88dbffe4b0e67b849a6df9","name":"清和の井","contact":{},"location":{"lat":34.94906763654233,"lng":135.76265699775112,"country":"Japan"},"categories":[{"id":"4f2a25ac4b909258e854f55f","name":"Neighborhood","pluralName":"Neighborhoods","shortName":"Neighborhood","icon":{"prefix":"https:\/\/foursquare.com\/img\/categories_v2\/parks_outdoors\/neighborhood_","suffix":".png"},"primary":true}],"verified":false,"stats":{"checkinsCount":2,"usersCount":2,"tipCount":0},"likes":{"count":0,"groups":[]},"specials":{"count":0,"items":[]},"hereNow":{"count":0,"groups":[]}},{"id":"4f88dae3e4b005c390a3a393","name":"近藤勇遭難の地","contact":{},"location":{"lat":34.949261,"lng":135.762663,"country":"Japan"},"categories":[{"id":"4deefb944765f83613cdba6e","name":"Historic Site","pluralName":"Historic Sites","shortName":"Historic Site","icon":{"prefix":"https:\/\/foursquare.com\/img\/categories_v2\/arts_entertainment\/historicsite_","suffix":".png"},"primary":true}],"verified":false,"stats":{"checkinsCount":1,"usersCount":1,"tipCount":0},"likes":{"count":0,"groups":[]},"specials":{"count":0,"items":[]},"hereNow":{"count":0,"groups":[]}},{"id":"4ebd5b7e469002701a3570af","name":"京都教育大学第二学舎","contact":{},"location":{"address":"深草越後屋敷町114","lat":34.948444975673205,"lng":135.76460095676808,"postalCode":"6128431","city":"京都市伏見区","state":"京都府","country":"Japan"},"categories":[{"id":"4bf58dd8d48988d1a3941735","name":"College Residence Hall","pluralName":"College Residence Halls","shortName":"Residence Hall","icon":{"prefix":"https:\/\/foursquare.com\/img\/categories_v2\/education\/residencehall_","suffix":".png"},"primary":true}],"verified":false,"stats":{"checkinsCount":3,"usersCount":2,"tipCount":0},"likes":{"count":0,"groups":[]},"specials":{"count":0,"items":[]},"hereNow":{"count":0,"groups":[]}},{"id":"4e655aa97d8b85408aea8b40","name":"サークルK 伏見墨染店","contact":{"phone":"+81756411728","formattedPhone":"+81 75-641-1728"},"location":{"address":"伏見区深草大島屋敷町32番地","lat":34.9485125493807,"lng":135.76578676700592,"postalCode":"612-0081","city":"京都市","state":"京都府","country":"Japan"},"categories":[{"id":"4d954b0ea243a5684a65b473","name":"Convenience Store","pluralName":"Convenience Stores","shortName":"Convenience Stores","icon":{"prefix":"https:\/\/foursquare.com\/img\/categories_v2\/shops\/conveniencestore_","suffix":".png"},"primary":true}],"verified":false,"stats":{"checkinsCount":2,"usersCount":2,"tipCount":0},"likes":{"count":0,"groups":[]},"specials":{"count":0,"items":[]},"hereNow":{"count":0,"groups":[]}},{"id":"4e78aabf091a2a74e04d4662","name":"麺屋 ひろ","contact":{"phone":"+81756456000","formattedPhone":"+81 75-645-6000"},"location":{"address":"伏見区撞木町1153-10","lat":34.945448856466356,"lng":135.76527446508408,"city":"京都市","state":"京都府","country":"Japan"},"categories":[{"id":"4bf58dd8d48988d1d1941735","name":"Ramen \/  Noodle House","pluralName":"Ramen \/  Noodle House","shortName":"Ramen \/ Noodles","icon":{"prefix":"https:\/\/foursquare.com\/img\/categories_v2\/food\/ramen_","suffix":".png"},"primary":true}],"verified":false,"stats":{"checkinsCount":0,"usersCount":0,"tipCount":0},"likes":{"count":0,"groups":[]},"specials":{"count":0,"items":[]},"hereNow":{"count":0,"groups":[]}},{"id":"4bad56aef964a520b6473be3","name":"近鉄 伏見駅 (Fushimi Sta.)","contact":{},"location":{"address":"深草柴田屋敷町79","lat":34.94609084537413,"lng":135.76137989759445,"postalCode":"612-8432","city":"京都市伏見区","state":"京都府","country":"Japan"},"categories":[{"id":"4bf58dd8d48988d129951735","name":"Train Station","pluralName":"Train Stations","shortName":"Train Station","icon":{"prefix":"https:\/\/foursquare.com\/img\/categories_v2\/travel\/trainstation_","suffix":".png"},"primary":true}],"verified":false,"stats":{"checkinsCount":573,"usersCount":133,"tipCount":3},"likes":{"count":0,"groups":[]},"specials":{"count":0,"items":[]},"hereNow":{"count":1,"groups":[{"type":"others","name":"Other people here","count":1,"items":[]}]}},{"id":"4cc1182a22ce4688059e3b47","name":"サークルＫ 伏見出羽屋敷店","contact":{"phone":"+81756437518","formattedPhone":"+81 75-643-7518"},"location":{"address":"深草出羽屋敷町23-11","lat":34.94597432036358,"lng":135.7637482881546,"city":"京都市伏見区","state":"京都府","country":"Japan"},"categories":[{"id":"4bf58dd8d48988d118951735","name":"Grocery Store","pluralName":"Grocery Stores","shortName":"Grocery Store","icon":{"prefix":"https:\/\/foursquare.com\/img\/categories_v2\/shops\/food_grocery_","suffix":".png"},"primary":true}],"verified":false,"stats":{"checkinsCount":45,"usersCount":26,"tipCount":1},"likes":{"count":0,"groups":[]},"specials":{"count":0,"items":[]},"hereNow":{"count":0,"groups":[]}},{"id":"4bda25d7ffafd13a05fd9a85","name":"イズミヤ 伏見店","contact":{"phone":"+81756414892","formattedPhone":"+81 75-641-4892"},"location":{"address":"深草出羽屋敷町23","crossStreet":"国道24号線","lat":34.94629281227391,"lng":135.7630411547944,"postalCode":"612-0088","city":"京都市伏見区","state":"京都府","country":"Japan"},"categories":[{"id":"4bf58dd8d48988d1fd941735","name":"Mall","pluralName":"Malls","shortName":"Mall","icon":{"prefix":"https:\/\/foursquare.com\/img\/categories_v2\/shops\/mall_","suffix":".png"},"primary":true}],"verified":false,"stats":{"checkinsCount":108,"usersCount":41,"tipCount":1},"likes":{"count":0,"groups":[]},"specials":{"count":0,"items":[]},"hereNow":{"count":0,"groups":[]}},{"id":"4fa100f3e4b0343b08f60dac","name":"ぶちかまし超次郎","contact":{},"location":{"lat":34.94646517546284,"lng":135.7608936178017,"country":"Japan"},"categories":[{"id":"4bf58dd8d48988d1d1941735","name":"Ramen \/  Noodle House","pluralName":"Ramen \/  Noodle House","shortName":"Ramen \/ Noodles","icon":{"prefix":"https:\/\/foursquare.com\/img\/categories_v2\/food\/ramen_","suffix":".png"},"primary":true}],"verified":false,"stats":{"checkinsCount":12,"usersCount":7,"tipCount":0},"likes":{"count":0,"groups":[]},"specials":{"count":0,"items":[]},"hereNow":{"count":0,"groups":[]}},{"id":"4efc2dabc2ee80dc2e58a6f2","name":"曙橋","contact":{},"location":{"address":"深草紺屋町","lat":34.94563134012614,"lng":135.76366782188416,"city":"京都市伏見区","state":"京都府","country":"Japan"},"categories":[{"id":"4bf58dd8d48988d1df941735","name":"Bridge","pluralName":"Bridges","shortName":"Bridge","icon":{"prefix":"https:\/\/foursquare.com\/img\/categories_v2\/parks_outdoors\/bridge_","suffix":".png"},"primary":true}],"verified":false,"stats":{"checkinsCount":5,"usersCount":2,"tipCount":0},"likes":{"count":0,"groups":[]},"specials":{"count":0,"items":[]},"hereNow":{"count":0,"groups":[]}},{"id":"4e34cb0d52b17fb1c601e8f5","name":"マクドナルド 伏見イズミヤ店","contact":{"phone":"+81756460511","formattedPhone":"+81 75-646-0511"},"location":{"address":"深草出羽屋敷町23","lat":34.94647144435227,"lng":135.76293470132768,"postalCode":"612-0088","city":"京都市伏見区","state":"京都府","country":"Japan"},"categories":[{"id":"4bf58dd8d48988d16e941735","name":"Fast Food Restaurant","pluralName":"Fast Food Restaurants","shortName":"Fast Food","icon":{"prefix":"https:\/\/foursquare.com\/img\/categories_v2\/food\/fastfood_","suffix":".png"},"primary":true}],"verified":false,"stats":{"checkinsCount":15,"usersCount":7,"tipCount":0},"likes":{"count":0,"groups":[]},"specials":{"count":0,"items":[]},"hereNow":{"count":0,"groups":[]}},{"id":"4bda2afcffafd13a1ffe9a85","name":"ミスタードーナツ　伏見ショップ","contact":{"phone":"+81756416668","formattedPhone":"+81 75-641-6668"},"location":{"address":"深草出羽屋敷町23","crossStreet":"国道24号線","lat":34.9460099,"lng":135.762947,"postalCode":"612-0088","city":"京都市伏見区","state":"京都府","country":"Japan"},"categories":[{"id":"4bf58dd8d48988d148941735","name":"Donut Shop","pluralName":"Donut Shops","shortName":"Donuts","icon":{"prefix":"https:\/\/foursquare.com\/img\/categories_v2\/food\/donuts_","suffix":".png"},"primary":true}],"verified":false,"stats":{"checkinsCount":55,"usersCount":30,"tipCount":3},"likes":{"count":0,"groups":[]},"specials":{"count":0,"items":[]},"hereNow":{"count":0,"groups":[]}},{"id":"4eb4ede5d3e3644ca5ff3409","name":"業務スーパー 深草店","contact":{},"location":{"lat":34.94594891894368,"lng":135.76341605802696,"country":"Japan"},"categories":[{"id":"4bf58dd8d48988d118951735","name":"Grocery Store","pluralName":"Grocery Stores","shortName":"Grocery Store","icon":{"prefix":"https:\/\/foursquare.com\/img\/categories_v2\/shops\/food_grocery_","suffix":".png"},"primary":true}],"verified":false,"stats":{"checkinsCount":10,"usersCount":7,"tipCount":0},"likes":{"count":0,"groups":[]},"specials":{"count":0,"items":[]},"hereNow":{"count":0,"groups":[]}},{"id":"4e298bec52b1c37d35cd10cc","name":"南国電波","contact":{},"location":{"address":"深草柴田屋敷町76","lat":34.946324610790775,"lng":135.7610139513669,"city":"京都市伏見区","state":"京都府","country":"Japan"},"categories":[{"id":"4bf58dd8d48988d11e941735","name":"Cocktail Bar","pluralName":"Cocktail Bars","shortName":"Cocktail","icon":{"prefix":"https:\/\/foursquare.com\/img\/categories_v2\/nightlife\/cocktails_","suffix":".png"},"primary":true}],"verified":false,"stats":{"checkinsCount":18,"usersCount":9,"tipCount":0},"likes":{"count":0,"groups":[]},"specials":{"count":0,"items":[]},"hereNow":{"count":0,"groups":[]}},{"id":"4e60b01fc65b2dc89ed70a08","name":"寿司 割烹 琴","contact":{},"location":{"address":"津知橋町36","lat":34.946227,"lng":135.761025,"city":"京都市伏見区","state":"京都府","country":"Japan"},"categories":[{"id":"4bf58dd8d48988d1d2941735","name":"Sushi Restaurant","pluralName":"Sushi Restaurants","shortName":"Sushi","icon":{"prefix":"https:\/\/foursquare.com\/img\/categories_v2\/food\/sushi_","suffix":".png"},"primary":true}],"verified":false,"stats":{"checkinsCount":3,"usersCount":1,"tipCount":0},"likes":{"count":0,"groups":[]},"specials":{"count":0,"items":[]},"hereNow":{"count":0,"groups":[]}},{"id":"4d7c771179c4b1f7c836fcf2","name":"ヒーリンフィーリン 伏見深草店","contact":{},"location":{"lat":34.945671963970916,"lng":135.7637789952253,"country":"Japan"},"categories":[],"verified":false,"stats":{"checkinsCount":6,"usersCount":4,"tipCount":0},"likes":{"count":0,"groups":[]},"specials":{"count":0,"items":[]},"hereNow":{"count":0,"groups":[]}},{"id":"4da158b30f578cfa23938a18","name":"KON'S CYCLE 伏見店","contact":{"phone":"+81756461644","formattedPhone":"+81 75-646-1644"},"location":{"address":"深草紺屋町4","lat":34.94571048953904,"lng":135.76263785362244,"city":"京都市伏見区","state":"京都府","country":"Japan"},"categories":[{"id":"4bf58dd8d48988d115951735","name":"Bike Shop","pluralName":"Bike Shops","shortName":"Bike shop","icon":{"prefix":"https:\/\/foursquare.com\/img\/categories_v2\/shops\/bikeshop_","suffix":".png"},"primary":true}],"verified":false,"stats":{"checkinsCount":20,"usersCount":7,"tipCount":0},"likes":{"count":0,"groups":[]},"specials":{"count":0,"items":[]},"hereNow":{"count":0,"groups":[]}},{"id":"4ed1ba6ad3e3521ce755bbfd","name":"楽膳","contact":{},"location":{"lat":34.94631837350627,"lng":135.76131941485858,"country":"Japan"},"categories":[{"id":"4bf58dd8d48988d111941735","name":"Japanese Restaurant","pluralName":"Japanese Restaurants","shortName":"Japanese","icon":{"prefix":"https:\/\/foursquare.com\/img\/categories_v2\/food\/japanese_","suffix":".png"},"primary":true}],"verified":false,"stats":{"checkinsCount":4,"usersCount":3,"tipCount":0},"likes":{"count":0,"groups":[]},"specials":{"count":0,"items":[]},"hereNow":{"count":0,"groups":[]}},{"id":"4fcb4603e4b03cd963d7f077","name":"手打ちうどん 福来る","contact":{},"location":{"lat":34.946466055386686,"lng":135.761573969264,"country":"Japan"},"categories":[{"id":"4bf58dd8d48988d111941735","name":"Japanese Restaurant","pluralName":"Japanese Restaurants","shortName":"Japanese","icon":{"prefix":"https:\/\/foursquare.com\/img\/categories_v2\/food\/japanese_","suffix":".png"},"primary":true}],"verified":false,"stats":{"checkinsCount":1,"usersCount":1,"tipCount":0},"likes":{"count":0,"groups":[]},"specials":{"count":0,"items":[]},"hereNow":{"count":0,"groups":[]}}]}}
