{"meta":{"code":200},"response":{"venues":[{"id":"4f9e3c5de4b08ea03ac2d562","name":"月見館","contact":{},"location":{"address":"桃山町泰長老160-4","lat":34.92835816344045,"lng":135.7698824457098,"city":"京都市伏見区","state":"京都府","country":"Japan"},"categories":[{"id":"4bf58dd8d48988d1fa931735","name":"Hotel","pluralName":"Hotels","shortName":"Hotel","icon":{"prefix":"https:\/\/foursquare.com\/img\/categories_v2\/travel\/hotel_","suffix":".png"},"primary":true}],"verified":false,"stats":{"checkinsCount":4,"usersCount":3,"tipCount":0},"likes":{"count":0,"groups":[]},"specials":{"count":0,"items":[]},"hereNow":{"count":0,"groups":[]}},{"id":"4efc23e7c2ee80dc2e57943c","name":"平戸橋","contact":{},"location":{"address":"平戸町","lat":34.92733588266482,"lng":135.7659698277712,"city":"京都市伏見区","state":"京都府","country":"Japan"},"categories":[{"id":"4bf58dd8d48988d1df941735","name":"Bridge","pluralName":"Bridges","shortName":"Bridge","icon":{"prefix":"https:\/\/foursquare.com\/img\/categories_v2\/parks_outdoors\/bridge_","suffix":".png"},"primary":true}],"verified":false,"stats":{"checkinsCount":3,"usersCount":1,"tipCount":0},"likes":{"count":0,"groups":[]},"specials":{"count":0,"items":[]},"hereNow":{"count":0,"groups":[]}},{"id":"4bca699668f976b035735f83","name":"伏見公園","contact":{"phone":"+81753139131","formattedPhone":"+81 75-313-9131"},"location":{"address":"京都市伏見区桃陵町","lat":34.92917539776519,"lng":135.7665753364563,"postalCode":"612-8107","city":"京都市","state":"京都府","country":"Japan"},"categories":[{"id":"4bf58dd8d48988d1e8941735","name":"Baseball Field","pluralName":"Baseball Fields","shortName":"Baseball Field","icon":{"prefix":"https:\/\/foursquare.com\/img\/categories_v2\/parks_outdoors\/baseballfield_","suffix":".png"},"primary":true}],"verified":false,"stats":{"checkinsCount":10,"usersCount":4,"tipCount":0},"likes":{"count":0,"groups":[]},"specials":{"count":0,"items":[]},"hereNow":{"count":0,"groups":[]}},{"id":"4f7e9347e4b0ac821cddb918","name":"京都市立桃陵中学校","contact":{},"location":{"lat":34.928659410650276,"lng":135.7662163544575,"country":"Japan"},"categories":[{"id":"4f4533814b9074f6e4fb0106","name":"Middle School","pluralName":"Middle Schools","shortName":"Middle School","icon":{"prefix":"https:\/\/foursquare.com\/img\/categories_v2\/building\/school_","suffix":".png"},"primary":true}],"verified":false,"stats":{"checkinsCount":1,"usersCount":0,"tipCount":0},"likes":{"count":0,"groups":[]},"specials":{"count":0,"items":[]},"hereNow":{"count":0,"groups":[]}},{"id":"4f1c5a0c6d86a4e1b7ee023f","name":"桃陵団地前 バス停","contact":{},"location":{"address":"伏見区桃山町泰長老","crossStreet":"市バス南8系統\/近鉄バス","lat":34.93014626687096,"lng":135.76800361275673,"city":"京都市","state":"京都府","country":"Japan"},"categories":[{"id":"4bf58dd8d48988d1fe931735","name":"Bus Station","pluralName":"Bus Stations","shortName":"Bus Station","icon":{"prefix":"https:\/\/foursquare.com\/img\/categories_v2\/travel\/busstation_","suffix":".png"},"primary":true}],"verified":false,"stats":{"checkinsCount":0,"usersCount":0,"tipCount":0},"likes":{"count":0,"groups":[]},"specials":{"count":0,"items":[]},"hereNow":{"count":0,"groups":[]}},{"id":"4dc8972f1f6e936efe47f410","name":"京都南労働基準監督署","contact":{},"location":{"address":"日本","lat":34.93009150028229,"lng":135.76544880867004,"city":"京都市","state":"京都府","country":"Japan"},"categories":[],"verified":false,"stats":{"checkinsCount":6,"usersCount":2,"tipCount":0},"likes":{"count":0,"groups":[]},"specials":{"count":0,"items":[]},"hereNow":{"count":0,"groups":[]}},{"id":"4b5c1fa7f964a520d22429e3","name":"京阪 観月橋駅 (Kangetsukyo Sta.)","contact":{},"location":{"address":"伏見区豊後橋町761","lat":34.928090165811646,"lng":135.768411308527,"postalCode":"612-8106","city":"京都市","state":"京都府","country":"Japan"},"categories":[{"id":"4bf58dd8d48988d129951735","name":"Train Station","pluralName":"Train Stations","shortName":"Train Station","icon":{"prefix":"https:\/\/foursquare.com\/img\/categories_v2\/travel\/trainstation_","suffix":".png"},"primary":true}],"verified":false,"stats":{"checkinsCount":353,"usersCount":98,"tipCount":1},"likes":{"count":0,"groups":[]},"specials":{"count":0,"items":[]},"hereNow":{"count":1,"groups":[{"type":"others","name":"Other people here","count":1,"items":[]}]}},{"id":"4b71403cf964a520133e2de3","name":"ビデオ1 観月橋店","contact":{"phone":"+81756055733","formattedPhone":"+81 75-605-5733"},"location":{"address":"豊後橋町760","crossStreet":"国道24号線","lat":34.928025,"lng":135.768046,"postalCode":"612-8106","city":"京都市伏見区","state":"京都府","country":"Japan"},"categories":[{"id":"4bf58dd8d48988d126951735","name":"Video Store","pluralName":"Video Stores","shortName":"Video Store","icon":{"prefix":"https:\/\/foursquare.com\/img\/categories_v2\/shops\/video_","suffix":".png"},"primary":true}],"verified":false,"stats":{"checkinsCount":90,"usersCount":21,"tipCount":0},"likes":{"count":0,"groups":[]},"specials":{"count":0,"items":[]},"hereNow":{"count":0,"groups":[]}},{"id":"4d27376a915fa0934a5bf109","name":"京じゅばん&町家の美術館 紫織庵","contact":{"phone":"+81752410215","formattedPhone":"+81 75-241-0215"},"location":{"address":"新町通六角上ル三条町","lat":34.927940368652344,"lng":135.76751947402954,"postalCode":"604-8205","city":"京都市中京区","state":"京都府","country":"Japan"},"categories":[{"id":"4bf58dd8d48988d181941735","name":"Museum","pluralName":"Museums","shortName":"Museum","icon":{"prefix":"https:\/\/foursquare.com\/img\/categories_v2\/arts_entertainment\/museum_","suffix":".png"},"primary":true}],"verified":false,"stats":{"checkinsCount":2,"usersCount":2,"tipCount":0},"likes":{"count":0,"groups":[]},"specials":{"count":0,"items":[]},"hereNow":{"count":0,"groups":[]}},{"id":"4fc03c85e4b06229f8f68855","name":"観月橋北詰","contact":{},"location":{"address":"京都府京都市伏見区豊後橋町","lat":34.92830815143099,"lng":135.76847059688492,"country":"Japan"},"categories":[{"id":"4bf58dd8d48988d1f9931735","name":"Road","pluralName":"Roads","shortName":"Road","icon":{"prefix":"https:\/\/foursquare.com\/img\/categories_v2\/travel\/highway_","suffix":".png"},"primary":true}],"verified":false,"stats":{"checkinsCount":7,"usersCount":2,"tipCount":0},"likes":{"count":0,"groups":[]},"specials":{"count":0,"items":[]},"hereNow":{"count":0,"groups":[]}},{"id":"4ddd261f1f6e54b34d9a2f9b","name":"第1もふとんエリア","contact":{},"location":{"isFuzzed":true,"lat":34.92580075879288,"lng":135.7663158721512,"country":"Japan"},"categories":[{"id":"4bf58dd8d48988d103941735","name":"Home (private)","pluralName":"Homes (private)","shortName":"Home","icon":{"prefix":"https:\/\/foursquare.com\/img\/categories_v2\/building\/home_","suffix":".png"},"primary":true}],"verified":false,"stats":{"checkinsCount":21,"usersCount":2,"tipCount":1},"likes":{"count":0,"groups":[]},"hereNow":{"count":0,"groups":[]}}]}}
