{"meta":{"code":200},"response":{"venues":[{"id":"4c0d71e1c700c9b6dc6ba2dd","name":"六地蔵総合病院","contact":{},"location":{"lat":34.93509171665568,"lng":135.79638203656435,"country":"Japan"},"categories":[],"verified":false,"stats":{"checkinsCount":22,"usersCount":8,"tipCount":0},"likes":{"count":0,"groups":[]},"specials":{"count":0,"items":[]},"hereNow":{"count":0,"groups":[]}},{"id":"4b658117f964a520a7f22ae3","name":"ビッグボーイ 宇治店","contact":{"phone":"+81774332239","formattedPhone":"+81 774-33-2239"},"location":{"address":"六地蔵奈良町72-9","lat":34.934136275315794,"lng":135.79735100269318,"city":"宇治市","state":"京都府","country":"Japan"},"categories":[{"id":"4bf58dd8d48988d1cc941735","name":"Steakhouse","pluralName":"Steakhouses","shortName":"Steakhouse","icon":{"prefix":"https:\/\/foursquare.com\/img\/categories_v2\/food\/steakhouse_","suffix":".png"},"primary":true}],"verified":false,"stats":{"checkinsCount":250,"usersCount":41,"tipCount":1},"likes":{"count":0,"groups":[]},"specials":{"count":0,"items":[]},"hereNow":{"count":0,"groups":[]}},{"id":"4dbd5af06e810768bf7423eb","name":"鳥貴族 六地蔵店","contact":{"phone":"+81774322322","formattedPhone":"+81 774-32-2322"},"location":{"address":"六地蔵奈良町74-1","lat":34.93389879333398,"lng":135.79715251922607,"postalCode":"611-0001","city":"宇治市","state":"京都府","country":"Japan"},"categories":[{"id":"4bf58dd8d48988d147941735","name":"Diner","pluralName":"Diners","shortName":"Diner","icon":{"prefix":"https:\/\/foursquare.com\/img\/categories_v2\/food\/diner_","suffix":".png"},"primary":true}],"verified":false,"stats":{"checkinsCount":118,"usersCount":18,"tipCount":0},"likes":{"count":0,"groups":[]},"specials":{"count":0,"items":[]},"hereNow":{"count":0,"groups":[]}},{"id":"4cd0e5ebf6378cfa6956b8d6","name":"ジョーシン 六地蔵店","contact":{},"location":{"address":"六地蔵奈良町18-1","lat":34.935697,"lng":135.797931,"city":"宇治市","state":"京都府","country":"Japan"},"categories":[{"id":"4bf58dd8d48988d122951735","name":"Electronics Store","pluralName":"Electronics Stores","shortName":"Electronics","icon":{"prefix":"https:\/\/foursquare.com\/img\/categories_v2\/shops\/technology_","suffix":".png"},"primary":true}],"verified":false,"stats":{"checkinsCount":77,"usersCount":32,"tipCount":0},"likes":{"count":0,"groups":[]},"specials":{"count":0,"items":[]},"hereNow":{"count":0,"groups":[]}},{"id":"4ce90e12e888f04d6efd456b","name":"串八 六地蔵店","contact":{"phone":"+81774338330","formattedPhone":"+81 774-33-8330"},"location":{"address":"六地蔵奈良町21-2","lat":34.93500263893855,"lng":135.79784989356995,"city":"宇治市","state":"京都府","country":"Japan"},"categories":[{"id":"4bf58dd8d48988d111941735","name":"Japanese Restaurant","pluralName":"Japanese Restaurants","shortName":"Japanese","icon":{"prefix":"https:\/\/foursquare.com\/img\/categories_v2\/food\/japanese_","suffix":".png"},"primary":true}],"verified":false,"stats":{"checkinsCount":19,"usersCount":12,"tipCount":0},"likes":{"count":0,"groups":[]},"specials":{"count":0,"items":[]},"hereNow":{"count":0,"groups":[]}},{"id":"4c2afc0d8abca593df7eff1f","name":"天下一品 六地蔵店","contact":{"phone":"+81774381881","formattedPhone":"+81 774-38-1881"},"location":{"address":"六地蔵奈良町21-3","lat":34.935503982235886,"lng":135.79794108867645,"city":"宇治市","state":"京都府","country":"Japan"},"categories":[{"id":"4bf58dd8d48988d1d1941735","name":"Ramen \/  Noodle House","pluralName":"Ramen \/  Noodle House","shortName":"Ramen \/ Noodles","icon":{"prefix":"https:\/\/foursquare.com\/img\/categories_v2\/food\/ramen_","suffix":".png"},"primary":true}],"verified":false,"stats":{"checkinsCount":54,"usersCount":33,"tipCount":1},"likes":{"count":0,"groups":[]},"specials":{"count":0,"items":[]},"hereNow":{"count":0,"groups":[]}},{"id":"4f7dba3877161da045e96582","name":"ゆうちょ銀行 大阪支店 イトーヨーカドー六地蔵店内出張所","contact":{},"location":{"address":"六地蔵奈良町67-1","crossStreet":"イトーヨーカドー六地蔵店1階ATMコーナー","lat":34.93437375661007,"lng":135.7975172996521,"postalCode":"611-0001","city":"宇治市","state":"京都府","country":"Japan"},"categories":[{"id":"4bf58dd8d48988d10a951735","name":"Bank","pluralName":"Banks","shortName":"Bank \/ Financial","icon":{"prefix":"https:\/\/foursquare.com\/img\/categories_v2\/shops\/financial_","suffix":".png"},"primary":true}],"verified":false,"stats":{"checkinsCount":0,"usersCount":0,"tipCount":0},"likes":{"count":0,"groups":[]},"specials":{"count":0,"items":[]},"hereNow":{"count":0,"groups":[]}}]}}
