{"meta":{"code":200},"response":{"venues":[{"id":"4b70de8bf964a52068322de3","name":"御香宮神社","contact":{},"location":{"address":"伏見区御香宮門前町","lat":34.93443972351422,"lng":135.76746314764023,"postalCode":"612-8039","city":"京都市","state":"京都府","country":"Japan"},"categories":[{"id":"4eb1d80a4b900d56c88a45ff","name":"Shrine","pluralName":"Shrines","shortName":"Shrine","icon":{"prefix":"https:\/\/foursquare.com\/img\/categories_v2\/building\/religious_shrine_","suffix":".png"},"primary":true}],"verified":false,"stats":{"checkinsCount":349,"usersCount":161,"tipCount":2},"likes":{"count":0,"groups":[]},"specials":{"count":0,"items":[]},"hereNow":{"count":0,"groups":[]}},{"id":"4f2e5393e4b00ef1a607c828","name":"京都教育大学附属小学校","contact":{},"location":{"lat":34.93650571739226,"lng":135.76773922934345,"country":"Japan"},"categories":[{"id":"4bf58dd8d48988d13b941735","name":"School","pluralName":"Schools","shortName":"School","icon":{"prefix":"https:\/\/foursquare.com\/img\/categories_v2\/building\/school_","suffix":".png"},"primary":true}],"verified":false,"stats":{"checkinsCount":3,"usersCount":2,"tipCount":0},"likes":{"count":0,"groups":[]},"specials":{"count":0,"items":[]},"hereNow":{"count":0,"groups":[]}},{"id":"4deecd79d22ddfee16e94f21","name":"こぱん","contact":{},"location":{"address":"鷹匠町39-2","lat":34.93403906,"lng":135.76542671,"city":"京都市伏見区","state":"京都府","country":"Japan"},"categories":[{"id":"4bf58dd8d48988d16d941735","name":"Café","pluralName":"Cafés","shortName":"Café","icon":{"prefix":"https:\/\/foursquare.com\/img\/categories_v2\/food\/cafe_","suffix":".png"},"primary":true}],"verified":false,"stats":{"checkinsCount":16,"usersCount":8,"tipCount":1},"likes":{"count":0,"groups":[]},"specials":{"count":0,"items":[]},"hereNow":{"count":0,"groups":[]}},{"id":"4e511f76e4cdc76dc9c815f7","name":"太子山 観音寺","contact":{"phone":"+81756114523","formattedPhone":"+81 75-611-4523"},"location":{"address":"観音寺町201","lat":34.93385245,"lng":135.76542033,"city":"京都市伏見区","state":"京都府","country":"Japan"},"categories":[{"id":"4bf58dd8d48988d13a941735","name":"Temple","pluralName":"Temples","shortName":"Temple","icon":{"prefix":"https:\/\/foursquare.com\/img\/categories_v2\/building\/religious_temple_","suffix":".png"},"primary":true}],"verified":false,"stats":{"checkinsCount":2,"usersCount":2,"tipCount":0},"likes":{"count":0,"groups":[]},"specials":{"count":0,"items":[]},"hereNow":{"count":0,"groups":[]}}]}}
