{"meta":{"code":200},"response":{"venues":[{"id":"4e6594367d8b85408b0239ef","name":"中華料理 桃園","contact":{},"location":{"lat":34.932831,"lng":135.759265,"city":"京都市","state":"京都府","country":"Japan"},"categories":[{"id":"4bf58dd8d48988d145941735","name":"Chinese Restaurant","pluralName":"Chinese Restaurants","shortName":"Chinese","icon":{"prefix":"https:\/\/foursquare.com\/img\/categories_v2\/food\/chinese_","suffix":".png"},"primary":true}],"verified":false,"stats":{"checkinsCount":2,"usersCount":2,"tipCount":0},"likes":{"count":0,"groups":[]},"specials":{"count":0,"items":[]},"hereNow":{"count":0,"groups":[]}},{"id":"4c96cdf703413704d6d187ef","name":"京菓子司 富英堂","contact":{"phone":"+81756011366","formattedPhone":"+81 75-601-1366"},"location":{"address":"中油掛町93","lat":34.93148875210851,"lng":135.7606154680252,"city":"京都市伏見区","state":"京都府","country":"Japan"},"categories":[{"id":"4bf58dd8d48988d1d0941735","name":"Dessert Shop","pluralName":"Dessert Shops","shortName":"Desserts","icon":{"prefix":"https:\/\/foursquare.com\/img\/categories_v2\/food\/dessert_","suffix":".png"},"primary":true}],"verified":false,"stats":{"checkinsCount":9,"usersCount":4,"tipCount":1},"likes":{"count":0,"groups":[]},"specials":{"count":0,"items":[]},"hereNow":{"count":0,"groups":[]}},{"id":"4b6b9ec0f964a520e1122ce3","name":"寺田屋","contact":{"phone":"+81756220243","formattedPhone":"+81 75-622-0243"},"location":{"address":"南浜町263","lat":34.93022653073358,"lng":135.7595506310463,"city":"京都市伏見区","state":"京都府","country":"Japan"},"categories":[{"id":"4bf58dd8d48988d190941735","name":"History Museum","pluralName":"History Museums","shortName":"History Museum","icon":{"prefix":"https:\/\/foursquare.com\/img\/categories_v2\/arts_entertainment\/museum_history_","suffix":".png"},"primary":true}],"verified":false,"stats":{"checkinsCount":610,"usersCount":384,"tipCount":6},"likes":{"count":0,"groups":[]},"specials":{"count":0,"items":[]},"hereNow":{"count":0,"groups":[]}},{"id":"4bda8e082a3a0f47d06eabb6","name":"キザクラ カッパカントリー","contact":{"phone":"+81756119921","formattedPhone":"+81 75-611-9921"},"location":{"address":"塩屋町228","lat":34.93065313734304,"lng":135.76049208641052,"postalCode":"612-8046","city":"京都市伏見区","state":"京都府","country":"Japan"},"categories":[{"id":"4bf58dd8d48988d171941735","name":"Event Space","pluralName":"Event Spaces","shortName":"Event Space","icon":{"prefix":"https:\/\/foursquare.com\/img\/categories_v2\/building\/eventspace_","suffix":".png"},"primary":true}],"verified":false,"stats":{"checkinsCount":309,"usersCount":198,"tipCount":0},"likes":{"count":0,"groups":[]},"specials":{"count":0,"items":[]},"hereNow":{"count":0,"groups":[]}},{"id":"4ec86ea999115348da33b697","name":"「龍馬とお龍、愛の旅路」像","contact":{},"location":{"lat":34.929973,"lng":135.759301,"city":"京都市","state":"京都府","country":"Japan"},"categories":[{"id":"4deefb944765f83613cdba6e","name":"Historic Site","pluralName":"Historic Sites","shortName":"Historic Site","icon":{"prefix":"https:\/\/foursquare.com\/img\/categories_v2\/arts_entertainment\/historicsite_","suffix":".png"},"primary":true}],"verified":false,"stats":{"checkinsCount":20,"usersCount":11,"tipCount":0},"likes":{"count":0,"groups":[]},"specials":{"count":0,"items":[]},"hereNow":{"count":0,"groups":[]}},{"id":"4c7b642ba8683704c64f164d","name":"三菱東京UFJ銀行 伏見支店","contact":{"phone":"+81756113101","formattedPhone":"+81 75-611-3101"},"location":{"address":"風呂屋町276","lat":34.933019,"lng":135.759735,"postalCode":"612-8058","city":"京都市伏見区","state":"京都府","country":"Japan"},"categories":[{"id":"4bf58dd8d48988d10a951735","name":"Bank","pluralName":"Banks","shortName":"Bank \/ Financial","icon":{"prefix":"https:\/\/foursquare.com\/img\/categories_v2\/shops\/financial_","suffix":".png"},"primary":true}],"verified":false,"stats":{"checkinsCount":118,"usersCount":22,"tipCount":0},"likes":{"count":0,"groups":[]},"specials":{"count":0,"items":[]},"hereNow":{"count":0,"groups":[]}},{"id":"4f2bb3cfe4b0dd6b7749d2a9","name":"かっぱ天国 黄桜酒場 Kappa Tengoku","contact":{"phone":"+81756119919","formattedPhone":"+81 75-611-9919"},"location":{"address":"塩屋町228","lat":34.93090617175557,"lng":135.76049096538924,"postalCode":"612-8046","city":"伏見区","state":"京都","country":"Japan"},"categories":[{"id":"4bf58dd8d48988d111941735","name":"Japanese Restaurant","pluralName":"Japanese Restaurants","shortName":"Japanese","icon":{"prefix":"https:\/\/foursquare.com\/img\/categories_v2\/food\/japanese_","suffix":".png"},"primary":true}],"verified":false,"stats":{"checkinsCount":12,"usersCount":11,"tipCount":1},"url":"http:\/\/www.kizakura.co.jp\/","likes":{"count":0,"groups":[]},"specials":{"count":0,"items":[]},"hereNow":{"count":0,"groups":[]}},{"id":"4ec12d3a7beb534000622f9a","name":"電気鉄道事業発祥の地","contact":{},"location":{"address":"下油掛町174","crossStreet":"竹田街道","lat":34.93137605456103,"lng":135.75885493308306,"city":"京都市伏見区","state":"京都府","country":"Japan"},"categories":[{"id":"4deefb944765f83613cdba6e","name":"Historic Site","pluralName":"Historic Sites","shortName":"Historic Site","icon":{"prefix":"https:\/\/foursquare.com\/img\/categories_v2\/arts_entertainment\/historicsite_","suffix":".png"},"primary":true}],"verified":false,"stats":{"checkinsCount":16,"usersCount":4,"tipCount":0},"likes":{"count":0,"groups":[]},"specials":{"count":0,"items":[]},"hereNow":{"count":0,"groups":[]}},{"id":"4b6cde38f964a520565a2ce3","name":"京都大橋総合病院","contact":{"phone":"+81756211111","formattedPhone":"+81 75-621-1111"},"location":{"address":"下油掛町167","lat":34.93196372933899,"lng":135.75897932052612,"postalCode":"612-8364","city":"京都市伏見区","state":"京都府","country":"Japan"},"categories":[{"id":"4bf58dd8d48988d196941735","name":"Hospital","pluralName":"Hospitals","shortName":"Hospital","icon":{"prefix":"https:\/\/foursquare.com\/img\/categories_v2\/building\/medical_hospital_","suffix":".png"},"primary":true}],"verified":false,"stats":{"checkinsCount":30,"usersCount":5,"tipCount":0},"likes":{"count":0,"groups":[]},"specials":{"count":0,"items":[]},"hereNow":{"count":0,"groups":[]}},{"id":"4cc4e5ec914137042115c655","name":"ON THE MOVE","contact":{"phone":"+81756010629","formattedPhone":"+81 75-601-0629"},"location":{"address":"西大手町328","lat":34.93277596546298,"lng":135.75956071248098,"postalCode":"612-8369","city":"京都市伏見区","state":"京都府","country":"Japan"},"categories":[{"id":"4bf58dd8d48988d103951735","name":"Clothing Store","pluralName":"Clothing Stores","shortName":"Apparel","icon":{"prefix":"https:\/\/foursquare.com\/img\/categories_v2\/shops\/apparel_","suffix":".png"},"primary":true}],"verified":false,"stats":{"checkinsCount":8,"usersCount":2,"tipCount":0},"likes":{"count":0,"groups":[]},"specials":{"count":0,"items":[]},"hereNow":{"count":0,"groups":[]}},{"id":"4e047454d1649538d96cc448","name":"黒木屋","contact":{},"location":{"address":"東浜南町655-1","lat":34.93112805,"lng":135.75862949,"city":"京都市伏見区","state":"京都府","country":"Japan"},"categories":[{"id":"4bf58dd8d48988d111941735","name":"Japanese Restaurant","pluralName":"Japanese Restaurants","shortName":"Japanese","icon":{"prefix":"https:\/\/foursquare.com\/img\/categories_v2\/food\/japanese_","suffix":".png"},"primary":true}],"verified":false,"stats":{"checkinsCount":5,"usersCount":4,"tipCount":0},"likes":{"count":0,"groups":[]},"specials":{"count":0,"items":[]},"hereNow":{"count":0,"groups":[]}},{"id":"4f3839fa0cd697b1c8eb472e","name":"京橋 バス停","contact":{},"location":{"address":"伏見区 京橋町・南浜町","crossStreet":"市バス","lat":34.9307586891515,"lng":135.75884386897087,"city":"京都市","state":"京都府","country":"Japan"},"categories":[{"id":"4bf58dd8d48988d1fe931735","name":"Bus Station","pluralName":"Bus Stations","shortName":"Bus Station","icon":{"prefix":"https:\/\/foursquare.com\/img\/categories_v2\/travel\/busstation_","suffix":".png"},"primary":true}],"verified":false,"stats":{"checkinsCount":1,"usersCount":1,"tipCount":0},"likes":{"count":0,"groups":[]},"specials":{"count":0,"items":[]},"hereNow":{"count":0,"groups":[]}},{"id":"4cb2ce0c1168a0934d9c3d23","name":"Les Muses K'afe","contact":{"phone":"+81756220014","formattedPhone":"+81 75-622-0014","twitter":"LESMUSESKAFE"},"location":{"address":"納屋町１３２－１","lat":34.93235074578974,"lng":135.760760307312,"postalCode":"612-8363","city":"京都市伏見区","state":"京都府","country":"Japan"},"categories":[{"id":"4bf58dd8d48988d16d941735","name":"Café","pluralName":"Cafés","shortName":"Café","icon":{"prefix":"https:\/\/foursquare.com\/img\/categories_v2\/food\/cafe_","suffix":".png"},"primary":true}],"verified":false,"stats":{"checkinsCount":47,"usersCount":6,"tipCount":5},"likes":{"count":0,"groups":[]},"specials":{"count":0,"items":[]},"hereNow":{"count":0,"groups":[]}},{"id":"4b88f258f964a520c11432e3","name":"竜馬通り","contact":{},"location":{"address":"塩屋町\/車町\/南浜町","lat":34.93046260184644,"lng":135.75993096021912,"city":"京都市伏見区","state":"京都府","country":"Japan"},"categories":[{"id":"4bf58dd8d48988d1fd941735","name":"Mall","pluralName":"Malls","shortName":"Mall","icon":{"prefix":"https:\/\/foursquare.com\/img\/categories_v2\/shops\/mall_","suffix":".png"},"primary":true}],"verified":false,"stats":{"checkinsCount":340,"usersCount":102,"tipCount":0},"likes":{"count":0,"groups":[]},"specials":{"count":0,"items":[]},"hereNow":{"count":0,"groups":[]}},{"id":"4ebd06f62c5bf3359a73cc7d","name":"漁師のおだいどこ 漁祭","contact":{"phone":"+81756230023","formattedPhone":"+81 75-623-0023"},"location":{"address":"京都府京都市伏見区伯耆町11","crossStreet":"メゾンMUKAIDE 1F","lat":34.932629,"lng":135.760932,"city":"京都市","state":"京都府","country":"Japan"},"categories":[{"id":"4bf58dd8d48988d111941735","name":"Japanese Restaurant","pluralName":"Japanese Restaurants","shortName":"Japanese","icon":{"prefix":"https:\/\/foursquare.com\/img\/categories_v2\/food\/japanese_","suffix":".png"},"primary":true}],"verified":false,"stats":{"checkinsCount":4,"usersCount":3,"tipCount":0},"likes":{"count":0,"groups":[]},"specials":{"count":0,"items":[]},"hereNow":{"count":0,"groups":[]}},{"id":"4fbc8076e4b0f79ab31f2862","name":"喫茶ジャマイカ","contact":{},"location":{"lat":34.932651,"lng":135.760822,"country":"Japan"},"categories":[{"id":"4bf58dd8d48988d1dc931735","name":"Tea Room","pluralName":"Tea Rooms","shortName":"Tea Room","icon":{"prefix":"https:\/\/foursquare.com\/img\/categories_v2\/food\/tearoom_","suffix":".png"},"primary":true}],"verified":false,"stats":{"checkinsCount":1,"usersCount":1,"tipCount":0},"likes":{"count":0,"groups":[]},"specials":{"count":0,"items":[]},"hereNow":{"count":0,"groups":[]}},{"id":"4d018ba2e0c5a1cd5cdc77ae","name":"竹田街道大手筋","contact":{},"location":{"address":"西大手町","crossStreet":"竹田街道大手筋","lat":34.932945010393446,"lng":135.7583550363779,"city":"京都市伏見区","state":"京都府","country":"Japan"},"categories":[{"id":"4bf58dd8d48988d1f9931735","name":"Road","pluralName":"Roads","shortName":"Road","icon":{"prefix":"https:\/\/foursquare.com\/img\/categories_v2\/travel\/highway_","suffix":".png"},"primary":true}],"verified":false,"stats":{"checkinsCount":232,"usersCount":8,"tipCount":0},"likes":{"count":0,"groups":[]},"specials":{"count":0,"items":[]},"hereNow":{"count":0,"groups":[]}},{"id":"4e4e0f2a52b1e893ad479a3a","name":"油長茶舗","contact":{},"location":{"lat":34.93084673,"lng":135.7603712,"country":"Japan"},"categories":[],"verified":false,"stats":{"checkinsCount":6,"usersCount":2,"tipCount":0},"likes":{"count":0,"groups":[]},"specials":{"count":0,"items":[]},"hereNow":{"count":0,"groups":[]}},{"id":"4eab712b0aafb00bd8fc7171","name":"いちよし証券 伏見支店","contact":{"phone":"+81756016271","formattedPhone":"+81 75-601-6271"},"location":{"address":"西大手町307-30","crossStreet":"エイトビル","lat":34.93284330954088,"lng":135.75904369354248,"city":"京都市伏見区","state":"京都府","country":"Japan"},"categories":[{"id":"4bf58dd8d48988d124941735","name":"Office","pluralName":"Offices","shortName":"Corporate \/ Office","icon":{"prefix":"https:\/\/foursquare.com\/img\/categories_v2\/building\/default_","suffix":".png"},"primary":true}],"verified":false,"stats":{"checkinsCount":14,"usersCount":5,"tipCount":0},"likes":{"count":0,"groups":[]},"hereNow":{"count":0,"groups":[]}},{"id":"4d48612756eab60c74624186","name":"ホテルアーバンイン伏見","contact":{},"location":{"address":"西大手町307-53","crossStreet":"伏見区","lat":34.932468,"lng":135.758692,"city":"京都市","state":"京都府","country":"Japan"},"categories":[{"id":"4bf58dd8d48988d1fa931735","name":"Hotel","pluralName":"Hotels","shortName":"Hotel","icon":{"prefix":"https:\/\/foursquare.com\/img\/categories_v2\/travel\/hotel_","suffix":".png"},"primary":true}],"verified":false,"stats":{"checkinsCount":6,"usersCount":4,"tipCount":0},"likes":{"count":0,"groups":[]},"specials":{"count":0,"items":[]},"hereNow":{"count":0,"groups":[]}},{"id":"4ef4650c9a528bc5d85b1e5e","name":"寶式 中華そば寶 伏見店","contact":{},"location":{"address":"西大手町313-1","crossStreet":"竹田街道","lat":34.93269378157193,"lng":135.75853943824768,"city":"京都市伏見区","state":"京都府","country":"Japan"},"categories":[{"id":"4bf58dd8d48988d1d1941735","name":"Ramen \/  Noodle House","pluralName":"Ramen \/  Noodle House","shortName":"Ramen \/ Noodles","icon":{"prefix":"https:\/\/foursquare.com\/img\/categories_v2\/food\/ramen_","suffix":".png"},"primary":true}],"verified":false,"stats":{"checkinsCount":16,"usersCount":14,"tipCount":2},"likes":{"count":0,"groups":[]},"specials":{"count":0,"items":[]},"hereNow":{"count":0,"groups":[]}},{"id":"4ee17b25f5b9c102ea52d7a4","name":"伏見桃山郵便局","contact":{},"location":{"lat":34.93261822164763,"lng":135.75852403411878,"country":"Japan"},"categories":[{"id":"4bf58dd8d48988d172941735","name":"Post Office","pluralName":"Post Offices","shortName":"Post Office","icon":{"prefix":"https:\/\/foursquare.com\/img\/categories_v2\/building\/postoffice_","suffix":".png"},"primary":true}],"verified":false,"stats":{"checkinsCount":13,"usersCount":3,"tipCount":1},"likes":{"count":0,"groups":[]},"specials":{"count":0,"items":[]},"hereNow":{"count":0,"groups":[]}},{"id":"4e202c4b1f6effe84f635d07","name":"伏見味蔵 ひょうたん","contact":{"phone":"+81756215391","formattedPhone":"+81 75-621-5391"},"location":{"address":"伏見区西大手町","lat":34.93245629541397,"lng":135.7587432861328,"city":"京都市","state":"京都府","country":"Japan"},"categories":[{"id":"4bf58dd8d48988d11c941735","name":"Sake Bar","pluralName":"Sake Bars","shortName":"Sake Bar","icon":{"prefix":"https:\/\/foursquare.com\/img\/categories_v2\/nightlife\/sake_","suffix":".png"},"primary":true}],"verified":false,"stats":{"checkinsCount":5,"usersCount":3,"tipCount":0},"likes":{"count":0,"groups":[]},"specials":{"count":0,"items":[]},"hereNow":{"count":0,"groups":[]}},{"id":"4db56c0793a017099dead755","name":"すみ佳","contact":{},"location":{"lat":34.931676201744125,"lng":135.7608797331791,"city":"Kyoto","state":"Kyoto Prefecture","country":"Japan"},"categories":[],"verified":false,"stats":{"checkinsCount":7,"usersCount":3,"tipCount":0},"likes":{"count":0,"groups":[]},"specials":{"count":0,"items":[]},"hereNow":{"count":0,"groups":[]}},{"id":"4bd2c02f41b9ef3bffa8fee5","name":"ひょうたん","contact":{"phone":"+81756215391","formattedPhone":"+81 75-621-5391"},"location":{"address":"西大手町313-11","lat":34.932797131814866,"lng":135.75851529836655,"postalCode":"日本","city":"京都市伏見区","state":"京都府","country":"Japan"},"categories":[{"id":"4bf58dd8d48988d11c941735","name":"Sake Bar","pluralName":"Sake Bars","shortName":"Sake Bar","icon":{"prefix":"https:\/\/foursquare.com\/img\/categories_v2\/nightlife\/sake_","suffix":".png"},"primary":true}],"verified":false,"stats":{"checkinsCount":13,"usersCount":4,"tipCount":0},"likes":{"count":0,"groups":[]},"specials":{"count":0,"items":[]},"hereNow":{"count":0,"groups":[]}},{"id":"4f0fb8efe4b07e9ec8b15383","name":"京人形み彌け　伏見店","contact":{},"location":{"lat":34.93291878955587,"lng":135.75906551062823,"country":"Japan"},"categories":[{"id":"4bf58dd8d48988d127951735","name":"Arts & Crafts Store","pluralName":"Arts & Crafts Stores","shortName":"Arts & Crafts","icon":{"prefix":"https:\/\/foursquare.com\/img\/categories_v2\/shops\/artstore_","suffix":".png"},"primary":true}],"verified":false,"stats":{"checkinsCount":4,"usersCount":1,"tipCount":1},"likes":{"count":0,"groups":[]},"specials":{"count":0,"items":[]},"hereNow":{"count":0,"groups":[]}},{"id":"4e60517eb993678bb55bf56e","name":"さぬきうどん 浅右衛門","contact":{"phone":"+81756029208","formattedPhone":"+81 75-602-9208"},"location":{"address":"伏見区平野町59","lat":34.932148,"lng":135.760825,"postalCode":"612-8057","city":"京都市","state":"京都府","country":"Japan"},"categories":[{"id":"4bf58dd8d48988d1d1941735","name":"Ramen \/  Noodle House","pluralName":"Ramen \/  Noodle House","shortName":"Ramen \/ Noodles","icon":{"prefix":"https:\/\/foursquare.com\/img\/categories_v2\/food\/ramen_","suffix":".png"},"primary":true}],"verified":false,"stats":{"checkinsCount":4,"usersCount":4,"tipCount":0},"likes":{"count":0,"groups":[]},"specials":{"count":0,"items":[]},"hereNow":{"count":0,"groups":[]}},{"id":"4dd0d9bc7d8b975f19083c87","name":"京都西大手筋郵便局","contact":{"phone":"+81756019919","formattedPhone":"+81 75-601-9919"},"location":{"address":"伏見区周防町331-29","lat":34.93249133952145,"lng":135.758435,"postalCode":"612-0000","city":"京都市","state":"京都府","country":"Japan"},"categories":[{"id":"4bf58dd8d48988d172941735","name":"Post Office","pluralName":"Post Offices","shortName":"Post Office","icon":{"prefix":"https:\/\/foursquare.com\/img\/categories_v2\/building\/postoffice_","suffix":".png"},"primary":true}],"verified":false,"stats":{"checkinsCount":5,"usersCount":2,"tipCount":0},"url":"http:\/\/map.japanpost.jp\/pc\/syousai.php?id=300144290000","likes":{"count":0,"groups":[]},"specials":{"count":0,"items":[]},"hereNow":{"count":0,"groups":[]}},{"id":"4fc03bfde4b0a3bda053f853","name":"カッパカントリー","contact":{},"location":{"lat":34.930751,"lng":135.760296,"country":"Japan"},"categories":[{"id":"4eb1bea83b7b6f98df247e06","name":"Factory","pluralName":"Factories","shortName":"Factory","icon":{"prefix":"https:\/\/foursquare.com\/img\/categories_v2\/building\/factory_","suffix":".png"},"primary":true}],"verified":false,"stats":{"checkinsCount":1,"usersCount":1,"tipCount":0},"likes":{"count":0,"groups":[]},"specials":{"count":0,"items":[]},"hereNow":{"count":0,"groups":[]}},{"id":"4f4f490ee4b09d63cc3c5094","name":"玄平坊","contact":{},"location":{"lat":34.931881,"lng":135.76066,"country":"Japan"},"categories":[{"id":"4bf58dd8d48988d111941735","name":"Japanese Restaurant","pluralName":"Japanese Restaurants","shortName":"Japanese","icon":{"prefix":"https:\/\/foursquare.com\/img\/categories_v2\/food\/japanese_","suffix":".png"},"primary":true}],"verified":false,"stats":{"checkinsCount":1,"usersCount":1,"tipCount":0},"likes":{"count":0,"groups":[]},"specials":{"count":0,"items":[]},"hereNow":{"count":0,"groups":[]}},{"id":"4daa7c546e81162ae7d8a03b","name":"蓬来橋","contact":{},"location":{"lat":34.930192,"lng":135.760007,"city":"Kyoto","state":"Kyoto Prefecture","country":"Japan"},"categories":[{"id":"4bf58dd8d48988d1df941735","name":"Bridge","pluralName":"Bridges","shortName":"Bridge","icon":{"prefix":"https:\/\/foursquare.com\/img\/categories_v2\/parks_outdoors\/bridge_","suffix":".png"},"primary":true}],"verified":false,"stats":{"checkinsCount":1,"usersCount":1,"tipCount":0},"likes":{"count":0,"groups":[]},"specials":{"count":0,"items":[]},"hereNow":{"count":0,"groups":[]}},{"id":"4d5df7c99f67f04dd94b5bfb","name":"Chez Nishikawa","contact":{},"location":{"lat":34.93205,"lng":135.760793,"country":"Japan"},"categories":[{"id":"4bf58dd8d48988d1c4941735","name":"Restaurant","pluralName":"Restaurants","shortName":"Other - Food","icon":{"prefix":"https:\/\/foursquare.com\/img\/categories_v2\/food\/default_","suffix":".png"},"primary":true}],"verified":false,"stats":{"checkinsCount":3,"usersCount":1,"tipCount":0},"likes":{"count":0,"groups":[]},"specials":{"count":0,"items":[]},"hereNow":{"count":0,"groups":[]}},{"id":"4e9a67d20aaf5f690e5895a0","name":"オーテケンネル","contact":{"phone":"+81756215257","formattedPhone":"+81 75-621-5257"},"location":{"address":"西大手町312-3","lat":34.933014065694486,"lng":135.75837131108761,"city":"京都市伏見区","state":"京都府","country":"Japan"},"categories":[{"id":"4bf58dd8d48988d100951735","name":"Pet Store","pluralName":"Pet Stores","shortName":"Pet Store","icon":{"prefix":"https:\/\/foursquare.com\/img\/categories_v2\/shops\/pet_store_","suffix":".png"},"primary":true}],"verified":false,"stats":{"checkinsCount":120,"usersCount":3,"tipCount":0},"likes":{"count":0,"groups":[]},"specials":{"count":0,"items":[]},"hereNow":{"count":0,"groups":[]}},{"id":"4bd007af046076b03b536f71","name":"納屋町商店街","contact":{},"location":{"lat":34.932188023186306,"lng":135.7599824666977,"country":"Japan"},"categories":[{"id":"4bf58dd8d48988d1fd941735","name":"Mall","pluralName":"Malls","shortName":"Mall","icon":{"prefix":"https:\/\/foursquare.com\/img\/categories_v2\/shops\/mall_","suffix":".png"},"primary":true}],"verified":false,"stats":{"checkinsCount":258,"usersCount":27,"tipCount":2},"likes":{"count":0,"groups":[]},"specials":{"count":0,"items":[]},"hereNow":{"count":0,"groups":[]}},{"id":"4f3839960cd697b1c8eb3f86","name":"西大手筋 バス停","contact":{},"location":{"address":"伏見区 西大手町・村上町","crossStreet":"市バス\/京阪バス","lat":34.932944460659456,"lng":135.75835570693016,"city":"京都市","state":"京都府","country":"Japan"},"categories":[{"id":"4bf58dd8d48988d1fe931735","name":"Bus Station","pluralName":"Bus Stations","shortName":"Bus Station","icon":{"prefix":"https:\/\/foursquare.com\/img\/categories_v2\/travel\/busstation_","suffix":".png"},"primary":true}],"verified":false,"stats":{"checkinsCount":7,"usersCount":5,"tipCount":0},"likes":{"count":0,"groups":[]},"specials":{"count":0,"items":[]},"hereNow":{"count":0,"groups":[]}},{"id":"4e1278e745dde6c62ddd2383","name":"吉田たばこ店","contact":{},"location":{"address":"西大手町312","lat":34.933010428713054,"lng":135.75852870941162,"city":"京都市伏見区","state":"京都府","country":"Japan"},"categories":[{"id":"4bf58dd8d48988d123951735","name":"Smoke Shop","pluralName":"Smoke Shops","shortName":"Tobacco & Cigars","icon":{"prefix":"https:\/\/foursquare.com\/img\/categories_v2\/shops\/tobacco_","suffix":".png"},"primary":true}],"verified":false,"stats":{"checkinsCount":30,"usersCount":4,"tipCount":0},"likes":{"count":0,"groups":[]},"specials":{"count":0,"items":[]},"hereNow":{"count":0,"groups":[]}},{"id":"4e048d67ae60ed89a8028ce5","name":"西大手筋交差点","contact":{},"location":{"address":"京都市","lat":34.93294006278732,"lng":135.75835704803467,"city":"伏見区","state":"京都府","country":"Japan"},"categories":[{"id":"4bf58dd8d48988d1f9931735","name":"Road","pluralName":"Roads","shortName":"Road","icon":{"prefix":"https:\/\/foursquare.com\/img\/categories_v2\/travel\/highway_","suffix":".png"},"primary":true}],"verified":false,"stats":{"checkinsCount":18,"usersCount":2,"tipCount":1},"likes":{"count":0,"groups":[]},"specials":{"count":0,"items":[]},"hereNow":{"count":0,"groups":[]}},{"id":"4e9f7eaaf5b99725b99f3ebc","name":"おはぎの丹波屋","contact":{},"location":{"lat":34.933031427793196,"lng":135.7585518019952,"country":"Japan"},"categories":[{"id":"4bf58dd8d48988d1d0941735","name":"Dessert Shop","pluralName":"Dessert Shops","shortName":"Desserts","icon":{"prefix":"https:\/\/foursquare.com\/img\/categories_v2\/food\/dessert_","suffix":".png"},"primary":true}],"verified":false,"stats":{"checkinsCount":2,"usersCount":1,"tipCount":0},"likes":{"count":0,"groups":[]},"specials":{"count":0,"items":[]},"hereNow":{"count":0,"groups":[]}},{"id":"4f44b701e4b0a28181e0d844","name":"和み鉄板 きた","contact":{},"location":{"address":"伏見区西大手町315-4","lat":34.932857,"lng":135.758255,"city":"京都市","state":"京都府","country":"Japan"},"categories":[{"id":"4bf58dd8d48988d1df931735","name":"BBQ Joint","pluralName":"BBQ Joints","shortName":"BBQ","icon":{"prefix":"https:\/\/foursquare.com\/img\/categories_v2\/food\/bbq_","suffix":".png"},"primary":true}],"verified":false,"stats":{"checkinsCount":1,"usersCount":1,"tipCount":0},"likes":{"count":0,"groups":[]},"specials":{"count":0,"items":[]},"hereNow":{"count":0,"groups":[]}},{"id":"4de9bc6e88774880e30a5af3","name":"黄桜記念館","contact":{},"location":{"address":"塩屋町228","lat":34.93101400035494,"lng":135.76038914577788,"city":"京都市伏見区","state":"京都府","country":"Japan"},"categories":[{"id":"4d4b7105d754a06375d81259","name":"Professional & Other Places","pluralName":"Professional & Other Places","shortName":"Professional & Other Places","icon":{"prefix":"https:\/\/foursquare.com\/img\/categories_v2\/building\/default_","suffix":".png"},"primary":true}],"verified":false,"stats":{"checkinsCount":62,"usersCount":40,"tipCount":1},"likes":{"count":0,"groups":[]},"specials":{"count":0,"items":[]},"hereNow":{"count":0,"groups":[]}},{"id":"4efd3a8029c201c6fae016fc","name":"ふじわらや","contact":{},"location":{"address":"伏見区塩屋町","lat":34.9308750578121,"lng":135.75978286077867,"country":"Japan"},"categories":[{"id":"4bf58dd8d48988d1fa941735","name":"Farmers Market","pluralName":"Farmers Markets","shortName":"Farmer's Market","icon":{"prefix":"https:\/\/foursquare.com\/img\/categories_v2\/shops\/food_farmersmarket_","suffix":".png"},"primary":true}],"verified":false,"stats":{"checkinsCount":2,"usersCount":2,"tipCount":0},"likes":{"count":0,"groups":[]},"specials":{"count":0,"items":[]},"hereNow":{"count":0,"groups":[]}},{"id":"4cad65e48b57a1cd2aa49775","name":"cafe 月のとき","contact":{},"location":{"address":"中油掛町108","crossStreet":"竜馬通り","lat":34.931296947265594,"lng":135.76000038199032,"city":"京都市伏見区","state":"京都府","country":"Japan"},"categories":[{"id":"4bf58dd8d48988d16d941735","name":"Café","pluralName":"Cafés","shortName":"Café","icon":{"prefix":"https:\/\/foursquare.com\/img\/categories_v2\/food\/cafe_","suffix":".png"},"primary":true}],"verified":false,"stats":{"checkinsCount":18,"usersCount":8,"tipCount":2},"likes":{"count":0,"groups":[]},"specials":{"count":0,"items":[]},"hereNow":{"count":0,"groups":[]}},{"id":"4cff5a0f202e224b02a2ad2a","name":"創作dining 楽","contact":{"phone":"+81756027469","formattedPhone":"+81 75-602-7469"},"location":{"address":"納屋町123-4","lat":34.93166906786242,"lng":135.75999185442924,"postalCode":"6128363","city":"京都市伏見区","state":"京都府","country":"Japan"},"categories":[{"id":"4bf58dd8d48988d111941735","name":"Japanese Restaurant","pluralName":"Japanese Restaurants","shortName":"Japanese","icon":{"prefix":"https:\/\/foursquare.com\/img\/categories_v2\/food\/japanese_","suffix":".png"},"primary":true}],"verified":false,"stats":{"checkinsCount":15,"usersCount":7,"tipCount":0},"likes":{"count":0,"groups":[]},"specials":{"count":0,"items":[]},"hereNow":{"count":0,"groups":[]}},{"id":"4e5ae8ef1f6e804280d9cc62","name":"Miyako Bakery","contact":{},"location":{"address":"伯耆町1-2","lat":34.93293827,"lng":135.76027403,"city":"京都市伏見区","state":"京都府","country":"Japan"},"categories":[{"id":"4bf58dd8d48988d16a941735","name":"Bakery","pluralName":"Bakeries","shortName":"Bakery","icon":{"prefix":"https:\/\/foursquare.com\/img\/categories_v2\/food\/bakery_","suffix":".png"},"primary":true}],"verified":false,"stats":{"checkinsCount":30,"usersCount":6,"tipCount":0},"likes":{"count":0,"groups":[]},"specials":{"count":0,"items":[]},"hereNow":{"count":0,"groups":[]}},{"id":"4ce4844ef5f9236a52188661","name":"月桂冠 昭和蔵","contact":{},"location":{"lat":34.930929,"lng":135.76026,"country":"Japan"},"categories":[{"id":"4bf58dd8d48988d124941735","name":"Office","pluralName":"Offices","shortName":"Corporate \/ Office","icon":{"prefix":"https:\/\/foursquare.com\/img\/categories_v2\/building\/default_","suffix":".png"},"primary":true}],"verified":false,"stats":{"checkinsCount":4,"usersCount":4,"tipCount":0},"likes":{"count":0,"groups":[]},"hereNow":{"count":0,"groups":[]}},{"id":"4e4dd59f18383eb2af0b616b","name":"Muller","contact":{},"location":{"lat":34.930733,"lng":135.759961,"city":"京都市","state":"京都府","country":"Japan"},"categories":[{"id":"4bf58dd8d48988d111941735","name":"Japanese Restaurant","pluralName":"Japanese Restaurants","shortName":"Japanese","icon":{"prefix":"https:\/\/foursquare.com\/img\/categories_v2\/food\/japanese_","suffix":".png"},"primary":true}],"verified":false,"stats":{"checkinsCount":3,"usersCount":3,"tipCount":0},"likes":{"count":0,"groups":[]},"specials":{"count":0,"items":[]},"hereNow":{"count":0,"groups":[]}},{"id":"4ebb86f702d5a3de79374d44","name":"藪そば","contact":{},"location":{"lat":34.931809039531764,"lng":135.76026501726332,"city":"京都市","state":"京都府","country":"Japan"},"categories":[{"id":"4bf58dd8d48988d1d1941735","name":"Ramen \/  Noodle House","pluralName":"Ramen \/  Noodle House","shortName":"Ramen \/ Noodles","icon":{"prefix":"https:\/\/foursquare.com\/img\/categories_v2\/food\/ramen_","suffix":".png"},"primary":true}],"verified":false,"stats":{"checkinsCount":5,"usersCount":4,"tipCount":1},"likes":{"count":0,"groups":[]},"specials":{"count":0,"items":[]},"hereNow":{"count":0,"groups":[]}},{"id":"4daa86160cb6a89c6270a7e1","name":"安本茶舗","contact":{"phone":"+81756110087","formattedPhone":"+81 75-611-0087"},"location":{"address":"伏見区中油掛町108","lat":34.9313172318772,"lng":135.75999051332474,"postalCode":"612-8056","city":"京都市","state":"京都府","country":"Japan"},"categories":[{"id":"4bf58dd8d48988d1f9941735","name":"Food & Drink Shop","pluralName":"Food & Drink Shops","shortName":"Food & Drink","icon":{"prefix":"https:\/\/foursquare.com\/img\/categories_v2\/shops\/foodanddrink_","suffix":".png"},"primary":true}],"verified":false,"stats":{"checkinsCount":6,"usersCount":6,"tipCount":0},"url":"http:\/\/yasumoto-chaho.com\/","likes":{"count":0,"groups":[]},"specials":{"count":0,"items":[]},"hereNow":{"count":0,"groups":[]}},{"id":"4fc04840e4b045c5b4ca7648","name":"石臼挽き手打ちそば処 Müller","contact":{},"location":{"lat":34.931028,"lng":135.759846,"country":"Japan"},"categories":[{"id":"4bf58dd8d48988d111941735","name":"Japanese Restaurant","pluralName":"Japanese Restaurants","shortName":"Japanese","icon":{"prefix":"https:\/\/foursquare.com\/img\/categories_v2\/food\/japanese_","suffix":".png"},"primary":true}],"verified":false,"stats":{"checkinsCount":1,"usersCount":1,"tipCount":0},"likes":{"count":0,"groups":[]},"specials":{"count":0,"items":[]},"hereNow":{"count":0,"groups":[]}},{"id":"4d31621d2c76a14333f364c7","name":"Pesca Montagna","contact":{},"location":{"address":"伏見区 納屋町 128","lat":34.9311286,"lng":135.7601654,"city":"京都市","state":"京都府","country":"Japan"},"categories":[{"id":"4bf58dd8d48988d110941735","name":"Italian Restaurant","pluralName":"Italian Restaurants","shortName":"Italian","icon":{"prefix":"https:\/\/foursquare.com\/img\/categories_v2\/food\/italian_","suffix":".png"},"primary":true}],"verified":false,"stats":{"checkinsCount":6,"usersCount":6,"tipCount":0},"likes":{"count":0,"groups":[]},"specials":{"count":0,"items":[]},"hereNow":{"count":0,"groups":[]}}]}}
