{"meta":{"code":200},"response":{"venues":[{"id":"4e866701dab43a58d780aab1","name":"府民スポーツ広場多目的グラウンド","contact":{"phone":"+81774208881","formattedPhone":"+81 774-20-8881"},"location":{"address":"大字佐古小字梶石 1-2","crossStreet":"みどりが丘","lat":34.860158210987805,"lng":135.8307123184204,"city":"久世郡久御山町","state":"京都府","country":"Japan"},"categories":[{"id":"4bf58dd8d48988d15f941735","name":"Field","pluralName":"Fields","shortName":"Field","icon":{"prefix":"https:\/\/foursquare.com\/img\/categories_v2\/parks_outdoors\/field_","suffix":".png"},"primary":true}],"verified":false,"stats":{"checkinsCount":8,"usersCount":4,"tipCount":1},"url":"http:\/\/www.pref.kyoto.jp\/koen-annai\/spo.html","likes":{"count":0,"groups":[]},"specials":{"count":0,"items":[]},"hereNow":{"count":0,"groups":[]}},{"id":"4d0a23537397a090105c54fd","name":"府民スポーツ広場","contact":{"phone":"+81774208881","formattedPhone":"+81 774-20-8881"},"location":{"address":"大字佐古小字梶石 1-2","crossStreet":"みどりが丘","lat":34.85944952285253,"lng":135.83217680454254,"city":"久世郡久御山町","state":"京都府","country":"Japan"},"categories":[{"id":"4bf58dd8d48988d1e7941735","name":"Playground","pluralName":"Playgrounds","shortName":"Playground","icon":{"prefix":"https:\/\/foursquare.com\/img\/categories_v2\/parks_outdoors\/playground_","suffix":".png"},"primary":true}],"verified":false,"stats":{"checkinsCount":2,"usersCount":2,"tipCount":0},"url":"http:\/\/www.pref.kyoto.jp\/koen-annai\/spo.html","likes":{"count":0,"groups":[]},"specials":{"count":0,"items":[]},"hereNow":{"count":0,"groups":[]}}]}}
