{"meta":{"code":200},"response":{"venues":[{"id":"4c7656e6ff1fb60c4a8df8a7","name":"新田駅 (Shinden Sta.)","contact":{},"location":{"address":"広野町東裏","lat":34.87426687667083,"lng":135.78055769205093,"city":"宇治市","state":"京都府","country":"Japan"},"categories":[{"id":"4bf58dd8d48988d129951735","name":"Train Station","pluralName":"Train Stations","shortName":"Train Station","icon":{"prefix":"https:\/\/foursquare.com\/img\/categories_v2\/travel\/trainstation_","suffix":".png"},"primary":true}],"verified":false,"stats":{"checkinsCount":365,"usersCount":80,"tipCount":1},"likes":{"count":0,"groups":[]},"specials":{"count":0,"items":[]},"hereNow":{"count":0,"groups":[]}},{"id":"4bfa513f508c0f4736f03f31","name":"グルメリア 但馬","contact":{},"location":{"lat":34.87795391101085,"lng":135.7776969748883,"country":"Japan"},"categories":[{"id":"4bf58dd8d48988d142941735","name":"Asian Restaurant","pluralName":"Asian Restaurants","shortName":"Asian","icon":{"prefix":"https:\/\/foursquare.com\/img\/categories_v2\/food\/asian_","suffix":".png"},"primary":true}],"verified":false,"stats":{"checkinsCount":3,"usersCount":3,"tipCount":0},"likes":{"count":0,"groups":[]},"specials":{"count":0,"items":[]},"hereNow":{"count":0,"groups":[]}},{"id":"4c78e0e397028cfaa934d9fe","name":"中国料理 広東","contact":{},"location":{"lat":34.8737716646716,"lng":135.77520155655478,"country":"Japan"},"categories":[{"id":"4bf58dd8d48988d145941735","name":"Chinese Restaurant","pluralName":"Chinese Restaurants","shortName":"Chinese","icon":{"prefix":"https:\/\/foursquare.com\/img\/categories_v2\/food\/chinese_","suffix":".png"},"primary":true}],"verified":false,"stats":{"checkinsCount":27,"usersCount":5,"tipCount":1},"likes":{"count":0,"groups":[]},"specials":{"count":0,"items":[]},"hereNow":{"count":0,"groups":[]}},{"id":"4f825993e4b0bc1418e2f903","name":"きん太 近鉄大久保","contact":{"phone":"+81774451159","formattedPhone":"+81 774-45-1159"},"location":{"address":"大久保町北ノ山101","lat":34.87373844381217,"lng":135.77508118717185,"postalCode":"611-0033","city":"宇治市","state":"京都府","country":"Japan"},"categories":[{"id":"4bf58dd8d48988d111941735","name":"Japanese Restaurant","pluralName":"Japanese Restaurants","shortName":"Japanese","icon":{"prefix":"https:\/\/foursquare.com\/img\/categories_v2\/food\/japanese_","suffix":".png"},"primary":true}],"verified":false,"stats":{"checkinsCount":6,"usersCount":3,"tipCount":0},"url":"http:\/\/www.kinta.co.jp\/","likes":{"count":0,"groups":[]},"specials":{"count":0,"items":[]},"hereNow":{"count":0,"groups":[]}},{"id":"4d4245cafe6ab60c259b4a39","name":"セブンイレブン 宇治広野町店","contact":{"phone":"+81774443560","formattedPhone":"+81 774-44-3560"},"location":{"address":"広野町東裏61-5","lat":34.875652084642475,"lng":135.78107669949532,"postalCode":"611-0031","city":"宇治市","state":"京都府","country":"Japan"},"categories":[{"id":"4d954b0ea243a5684a65b473","name":"Convenience Store","pluralName":"Convenience Stores","shortName":"Convenience Stores","icon":{"prefix":"https:\/\/foursquare.com\/img\/categories_v2\/shops\/conveniencestore_","suffix":".png"},"primary":true}],"verified":false,"stats":{"checkinsCount":40,"usersCount":20,"tipCount":0},"likes":{"count":0,"groups":[]},"specials":{"count":0,"items":[]},"hereNow":{"count":0,"groups":[]}},{"id":"4e100f801838f8ad814f3dbe","name":"ランデヴー","contact":{"phone":"+81774456501","formattedPhone":"+81 774-45-6501"},"location":{"address":"日本","lat":34.87421398,"lng":135.78058171,"postalCode":"611-0031","city":"宇治市広野町東裏100-6","state":"京都府","country":"Japan"},"categories":[{"id":"4bf58dd8d48988d110951735","name":"Salon \/ Barbershop","pluralName":"Salons \/ Barbershops","shortName":"Salon \/ Barbershop","icon":{"prefix":"https:\/\/foursquare.com\/img\/categories_v2\/shops\/salon_barber_","suffix":".png"},"primary":true}],"verified":false,"stats":{"checkinsCount":2,"usersCount":2,"tipCount":0},"likes":{"count":0,"groups":[]},"specials":{"count":0,"items":[]},"hereNow":{"count":0,"groups":[]}},{"id":"4ba9b4e8f964a5201b353ae3","name":"富士書房 大久保店","contact":{"phone":"+81774445766","formattedPhone":"+81 774-44-5766"},"location":{"address":"広野町茶屋裏24-1","lat":34.87242062992025,"lng":135.77764213085175,"city":"宇治市","state":"京都府","country":"Japan"},"categories":[{"id":"4bf58dd8d48988d114951735","name":"Bookstore","pluralName":"Bookstores","shortName":"Bookstore","icon":{"prefix":"https:\/\/foursquare.com\/img\/categories_v2\/shops\/bookstore_","suffix":".png"},"primary":true}],"verified":false,"stats":{"checkinsCount":120,"usersCount":24,"tipCount":1},"likes":{"count":0,"groups":[]},"specials":{"count":0,"items":[]},"hereNow":{"count":0,"groups":[]}},{"id":"4ed854a1f5b92139862fd255","name":"京都銀行 大久保支店","contact":{"phone":"+81774432211","formattedPhone":"+81 774-43-2211"},"location":{"address":"広野町茶屋裏12-5","lat":34.87288054508622,"lng":135.77807128429413,"postalCode":"611-0031","city":"宇治市","state":"京都府","country":"Japan"},"categories":[{"id":"4bf58dd8d48988d10a951735","name":"Bank","pluralName":"Banks","shortName":"Bank \/ Financial","icon":{"prefix":"https:\/\/foursquare.com\/img\/categories_v2\/shops\/financial_","suffix":".png"},"primary":true}],"verified":false,"stats":{"checkinsCount":6,"usersCount":3,"tipCount":0},"likes":{"count":0,"groups":[]},"specials":{"count":0,"items":[]},"hereNow":{"count":0,"groups":[]}},{"id":"4f386821e4b02a70e2541c1d","name":"石田皮ふ科","contact":{},"location":{"lat":34.872585,"lng":135.777871,"country":"Japan"},"categories":[{"id":"4bf58dd8d48988d196941735","name":"Hospital","pluralName":"Hospitals","shortName":"Hospital","icon":{"prefix":"https:\/\/foursquare.com\/img\/categories_v2\/building\/medical_hospital_","suffix":".png"},"primary":true}],"verified":false,"stats":{"checkinsCount":2,"usersCount":1,"tipCount":0},"likes":{"count":0,"groups":[]},"specials":{"count":0,"items":[]},"hereNow":{"count":0,"groups":[]}},{"id":"4ebb8bbad3e31a8e6185935f","name":"フォーエル","contact":{},"location":{"lat":34.87248197081847,"lng":135.7779149757309,"country":"Japan"},"categories":[{"id":"4bf58dd8d48988d103951735","name":"Clothing Store","pluralName":"Clothing Stores","shortName":"Apparel","icon":{"prefix":"https:\/\/foursquare.com\/img\/categories_v2\/shops\/apparel_","suffix":".png"},"primary":true}],"verified":false,"stats":{"checkinsCount":3,"usersCount":3,"tipCount":0},"likes":{"count":0,"groups":[]},"specials":{"count":0,"items":[]},"hereNow":{"count":0,"groups":[]}},{"id":"4b595026f964a520cd8428e3","name":"マクドナルド 24号大久保店","contact":{"phone":"+81774454130","formattedPhone":"+81 774-45-4130"},"location":{"address":"広野町茶屋裏3-1","lat":34.87325903793402,"lng":135.77817052602768,"postalCode":"611-0031","city":"宇治市","state":"京都府","country":"Japan"},"categories":[{"id":"4bf58dd8d48988d16c941735","name":"Burger Joint","pluralName":"Burger Joints","shortName":"Burgers","icon":{"prefix":"https:\/\/foursquare.com\/img\/categories_v2\/food\/burger_","suffix":".png"},"primary":true}],"verified":false,"stats":{"checkinsCount":317,"usersCount":64,"tipCount":3},"likes":{"count":0,"groups":[]},"specials":{"count":0,"items":[]},"hereNow":{"count":0,"groups":[]}},{"id":"4ee98e5d775b562a39209a16","name":"ティカルアトリエプラス","contact":{},"location":{"lat":34.87285737346062,"lng":135.77782661057705,"country":"Japan"},"categories":[{"id":"4bf58dd8d48988d110951735","name":"Salon \/ Barbershop","pluralName":"Salons \/ Barbershops","shortName":"Salon \/ Barbershop","icon":{"prefix":"https:\/\/foursquare.com\/img\/categories_v2\/shops\/salon_barber_","suffix":".png"},"primary":true}],"verified":false,"stats":{"checkinsCount":3,"usersCount":1,"tipCount":0},"likes":{"count":0,"groups":[]},"specials":{"count":0,"items":[]},"hereNow":{"count":0,"groups":[]}},{"id":"4f3868a1e4b0b0eb8e4025c0","name":"おおくぼゆう薬局","contact":{},"location":{"lat":34.872683,"lng":135.777773,"country":"Japan"},"categories":[{"id":"4bf58dd8d48988d196941735","name":"Hospital","pluralName":"Hospitals","shortName":"Hospital","icon":{"prefix":"https:\/\/foursquare.com\/img\/categories_v2\/building\/medical_hospital_","suffix":".png"},"primary":true}],"verified":false,"stats":{"checkinsCount":0,"usersCount":0,"tipCount":0},"likes":{"count":0,"groups":[]},"specials":{"count":0,"items":[]},"hereNow":{"count":0,"groups":[]}},{"id":"4b5cd752f964a520bc4629e3","name":"大久保駅 (Okubo Sta.)","contact":{},"location":{"address":"広野町西裏81-2","lat":34.874618578192,"lng":135.77700713375657,"city":"宇治市","state":"京都府","country":"Japan"},"categories":[{"id":"4bf58dd8d48988d129951735","name":"Train Station","pluralName":"Train Stations","shortName":"Train Station","icon":{"prefix":"https:\/\/foursquare.com\/img\/categories_v2\/travel\/trainstation_","suffix":".png"},"primary":true}],"verified":false,"stats":{"checkinsCount":2584,"usersCount":470,"tipCount":4},"likes":{"count":0,"groups":[]},"specials":{"count":0,"items":[]},"hereNow":{"count":1,"groups":[{"type":"others","name":"Other people here","count":1,"items":[]}]}},{"id":"4cd63ac194848cfab105ecb1","name":"コーナンPRO 宇治大久保店","contact":{"phone":"+81774446886","formattedPhone":"+81 774-44-6886"},"location":{"address":"広野町茶屋裏 21","lat":34.87221817840966,"lng":135.77865600585938,"postalCode":"611-0031","city":"宇治市","state":"京都府","country":"Japan"},"categories":[{"id":"4bf58dd8d48988d112951735","name":"Hardware Store","pluralName":"Hardware Stores","shortName":"Hardware","icon":{"prefix":"https:\/\/foursquare.com\/img\/categories_v2\/shops\/hardware_","suffix":".png"},"primary":true}],"verified":false,"stats":{"checkinsCount":21,"usersCount":14,"tipCount":0},"likes":{"count":0,"groups":[]},"specials":{"count":0,"items":[]},"hereNow":{"count":0,"groups":[]}},{"id":"4de75988d16418878ffb8108","name":"川魚専門店ふな栄 大久保支店","contact":{},"location":{"lat":34.873904466878656,"lng":135.77966006733334,"city":"Uji","state":"Kyoto Prefecture","country":"Japan"},"categories":[{"id":"4bf58dd8d48988d10e951735","name":"Fish Market","pluralName":"Fish Markets","shortName":"Fish Market","icon":{"prefix":"https:\/\/foursquare.com\/img\/categories_v2\/shops\/food_fishmarket_","suffix":".png"},"primary":true}],"verified":false,"stats":{"checkinsCount":10,"usersCount":3,"tipCount":0},"likes":{"count":0,"groups":[]},"specials":{"count":0,"items":[]},"hereNow":{"count":0,"groups":[]}},{"id":"4c70fb7bb3ce224b877675c6","name":"お好み焼き 村祭り","contact":{},"location":{"lat":34.87352310167964,"lng":135.77937483787537,"country":"Japan"},"categories":[{"id":"4bf58dd8d48988d1c4941735","name":"Restaurant","pluralName":"Restaurants","shortName":"Other - Food","icon":{"prefix":"https:\/\/foursquare.com\/img\/categories_v2\/food\/default_","suffix":".png"},"primary":true}],"verified":false,"stats":{"checkinsCount":1,"usersCount":1,"tipCount":0},"likes":{"count":0,"groups":[]},"specials":{"count":0,"items":[]},"hereNow":{"count":0,"groups":[]}},{"id":"4c50002b3a6f2d7f6a73cf76","name":"宇治市名木百選 こぶし JR新田駅","contact":{},"location":{"lat":34.87438570400461,"lng":135.78049331903458,"country":"Japan"},"categories":[{"id":"4bf58dd8d48988d162941735","name":"Other Great Outdoors","pluralName":"Other Great Outdoors","shortName":"Other Outdoors","icon":{"prefix":"https:\/\/foursquare.com\/img\/categories_v2\/parks_outdoors\/outdoors_","suffix":".png"},"primary":true}],"verified":false,"stats":{"checkinsCount":2,"usersCount":1,"tipCount":0},"likes":{"count":0,"groups":[]},"specials":{"count":0,"items":[]},"hereNow":{"count":0,"groups":[]}},{"id":"4c4ffff93a6f2d7fbf24cf76","name":"宇治市名木百選 いちょう JR新田駅","contact":{},"location":{"lat":34.87429328275986,"lng":135.78049063682556,"country":"Japan"},"categories":[{"id":"4bf58dd8d48988d162941735","name":"Other Great Outdoors","pluralName":"Other Great Outdoors","shortName":"Other Outdoors","icon":{"prefix":"https:\/\/foursquare.com\/img\/categories_v2\/parks_outdoors\/outdoors_","suffix":".png"},"primary":true}],"verified":false,"stats":{"checkinsCount":2,"usersCount":1,"tipCount":0},"likes":{"count":0,"groups":[]},"specials":{"count":0,"items":[]},"hereNow":{"count":0,"groups":[]}},{"id":"4f449cd90039c3fbc1df1903","name":"うえまつ鍼灸治療院","contact":{"phone":"+81774434448","formattedPhone":"+81 774-43-4448"},"location":{"address":"広野町茶屋裏38-4","crossStreet":"今西税経センタービル","lat":34.87174945723829,"lng":135.7787311077118,"postalCode":"6110031","city":"宇治市","state":"京都府","country":"Japan"},"categories":[{"id":"4bf58dd8d48988d104941735","name":"Medical Center","pluralName":"Medical Centers","shortName":"Medical","icon":{"prefix":"https:\/\/foursquare.com\/img\/categories_v2\/building\/medical_","suffix":".png"},"primary":true}],"verified":false,"stats":{"checkinsCount":3,"usersCount":1,"tipCount":0},"likes":{"count":0,"groups":[]},"specials":{"count":0,"items":[]},"hereNow":{"count":0,"groups":[]}},{"id":"4df2e3a51f6e818dadff1779","name":"ミスタードーナツ 近鉄大久保ショップ","contact":{"phone":"+81774465886","formattedPhone":"+81 774-46-5886"},"location":{"address":"広野町字西裏1-16","crossStreet":"サンマルシェ大久保","lat":34.87459919571488,"lng":135.7769932444403,"city":"宇治市","state":"京都府","country":"Japan"},"categories":[{"id":"4bf58dd8d48988d148941735","name":"Donut Shop","pluralName":"Donut Shops","shortName":"Donuts","icon":{"prefix":"https:\/\/foursquare.com\/img\/categories_v2\/food\/donuts_","suffix":".png"},"primary":true}],"verified":false,"stats":{"checkinsCount":243,"usersCount":22,"tipCount":0},"likes":{"count":0,"groups":[]},"specials":{"count":0,"items":[]},"hereNow":{"count":0,"groups":[]}},{"id":"4bb8b08eb35776b0a21bc901","name":"mE・DI・A 大久保店","contact":{"phone":"+81774465801","formattedPhone":"+81 774-46-5801"},"location":{"address":"広野町字西裏1-16","crossStreet":"サンマルシェ大久保内","lat":34.874710586952425,"lng":135.77704417195312,"postalCode":"611-0031","city":"宇治市","state":"京都府","country":"Japan"},"categories":[],"verified":false,"stats":{"checkinsCount":153,"usersCount":10,"tipCount":0},"likes":{"count":0,"groups":[]},"specials":{"count":0,"items":[]},"hereNow":{"count":0,"groups":[]}},{"id":"4bbaf86553649c74678f49fb","name":"サンクス 宇治大久保店","contact":{"phone":"+81774445810","formattedPhone":"+81 774-44-5810"},"location":{"address":"広野町西裏49-1","lat":34.87611088150165,"lng":135.77850714325905,"postalCode":"611-0031","city":"宇治市","state":"京都府","country":"Japan"},"categories":[{"id":"4d954b0ea243a5684a65b473","name":"Convenience Store","pluralName":"Convenience Stores","shortName":"Convenience Stores","icon":{"prefix":"https:\/\/foursquare.com\/img\/categories_v2\/shops\/conveniencestore_","suffix":".png"},"primary":true}],"verified":false,"stats":{"checkinsCount":127,"usersCount":37,"tipCount":0},"likes":{"count":0,"groups":[]},"specials":{"count":0,"items":[]},"hereNow":{"count":0,"groups":[]}},{"id":"4f5c7ee2e4b075ad7a83b3c2","name":"Harves","contact":{},"location":{"lat":34.873905463537064,"lng":135.77705343150674,"country":"Japan"},"categories":[{"id":"4bf58dd8d48988d118951735","name":"Grocery Store","pluralName":"Grocery Stores","shortName":"Grocery Store","icon":{"prefix":"https:\/\/foursquare.com\/img\/categories_v2\/shops\/food_grocery_","suffix":".png"},"primary":true}],"verified":false,"stats":{"checkinsCount":26,"usersCount":5,"tipCount":0},"likes":{"count":0,"groups":[]},"specials":{"count":0,"items":[]},"hereNow":{"count":0,"groups":[]}},{"id":"4f20f0c5e4b053b17867f816","name":"カメラのキタムラ 宇治・大久保店","contact":{"phone":"+81774452563","formattedPhone":"+81 774-45-2563"},"location":{"address":"広野町西裏50-9","lat":34.87585952740209,"lng":135.77825255889235,"city":"宇治市","state":"京都府","country":"Japan"},"categories":[{"id":"4eb1bdf03b7b55596b4a7491","name":"Camera Store","pluralName":"Camera Stores","shortName":"Camera Store","icon":{"prefix":"https:\/\/foursquare.com\/img\/categories_v2\/shops\/camerastore_","suffix":".png"},"primary":true}],"verified":false,"stats":{"checkinsCount":47,"usersCount":12,"tipCount":0},"likes":{"count":0,"groups":[]},"specials":{"count":0,"items":[]},"hereNow":{"count":0,"groups":[]}},{"id":"4e83ee3929c2cfe72395efa2","name":"亀王 大久保店","contact":{"phone":"+81774465788","formattedPhone":"+81 774-46-5788"},"location":{"address":"広野町西裏1-16","lat":34.87404242457178,"lng":135.77689111232758,"postalCode":"611-0031","city":"宇治市","state":"京都府","country":"Japan"},"categories":[{"id":"4bf58dd8d48988d1d1941735","name":"Ramen \/  Noodle House","pluralName":"Ramen \/  Noodle House","shortName":"Ramen \/ Noodles","icon":{"prefix":"https:\/\/foursquare.com\/img\/categories_v2\/food\/ramen_","suffix":".png"},"primary":true}],"verified":false,"stats":{"checkinsCount":49,"usersCount":11,"tipCount":0},"url":"http:\/\/www.kiou.co.jp\/","likes":{"count":0,"groups":[]},"specials":{"count":0,"items":[]},"hereNow":{"count":0,"groups":[]}},{"id":"4d721455f7c38cfa0d83a03d","name":"ハーベス 大久保店","contact":{},"location":{"address":"広野町西裏1-46","lat":34.87447657,"lng":135.77703852,"city":"宇治市","state":"京都府","country":"Japan"},"categories":[{"id":"4bf58dd8d48988d118951735","name":"Grocery Store","pluralName":"Grocery Stores","shortName":"Grocery Store","icon":{"prefix":"https:\/\/foursquare.com\/img\/categories_v2\/shops\/food_grocery_","suffix":".png"},"primary":true}],"verified":false,"stats":{"checkinsCount":77,"usersCount":15,"tipCount":0},"likes":{"count":0,"groups":[]},"specials":{"count":0,"items":[]},"hereNow":{"count":1,"groups":[{"type":"others","name":"Other people here","count":1,"items":[]}]}},{"id":"4d3536cf5c2db60c98a8da6c","name":"ソフトバンク 宇治大久保","contact":{"phone":"+81774464440","formattedPhone":"+81 774-46-4440","twitter":"sbujiokubo"},"location":{"address":"広野町西裏31-3","lat":34.87740254044148,"lng":135.77816247940063,"postalCode":"611-0031","city":"宇治市","state":"京都府","country":"Japan"},"categories":[{"id":"4f04afc02fb6e1c99f3db0bc","name":"Mobile Phone Shop","pluralName":"Mobile Phone Shops","shortName":"Mobile Phone","icon":{"prefix":"https:\/\/foursquare.com\/img\/categories_v2\/shops\/mobilephoneshop_","suffix":".png"},"primary":true}],"verified":false,"stats":{"checkinsCount":28,"usersCount":10,"tipCount":0},"likes":{"count":0,"groups":[]},"specials":{"count":0,"items":[]},"hereNow":{"count":0,"groups":[]}},{"id":"4df859a962847bdf4fec0b19","name":"TSUTAYA メディア大久保店","contact":{},"location":{"address":"広野町西裏1-16","lat":34.87454736,"lng":135.77713,"city":"宇治市","state":"京都府","country":"Japan"},"categories":[{"id":"4bf58dd8d48988d126951735","name":"Video Store","pluralName":"Video Stores","shortName":"Video Store","icon":{"prefix":"https:\/\/foursquare.com\/img\/categories_v2\/shops\/video_","suffix":".png"},"primary":true}],"verified":false,"stats":{"checkinsCount":104,"usersCount":12,"tipCount":0},"likes":{"count":0,"groups":[]},"specials":{"count":0,"items":[]},"hereNow":{"count":0,"groups":[]}},{"id":"4e05b38a6284d9ee92ca16fd","name":"WAKAN-CHI(わかんち)","contact":{},"location":{"lat":34.87342196319815,"lng":135.7774562238297,"city":"宇治市","state":"京都府","country":"Japan"},"categories":[{"id":"4d4b7105d754a06374d81259","name":"Food","pluralName":"Food","shortName":"Food","icon":{"prefix":"https:\/\/foursquare.com\/img\/categories_v2\/food\/default_","suffix":".png"},"primary":true}],"verified":false,"stats":{"checkinsCount":15,"usersCount":3,"tipCount":0},"likes":{"count":0,"groups":[]},"specials":{"count":0,"items":[]},"hereNow":{"count":0,"groups":[]}},{"id":"4ec09319b8f7963bce11fdf5","name":"エムズ 大久保店","contact":{},"location":{"address":"広野町茶屋裏46-2","lat":34.8743440649738,"lng":135.7770349124013,"city":"宇治市","state":"京都府","country":"Japan"},"categories":[{"id":"4bf58dd8d48988d17c941735","name":"Casino","pluralName":"Casinos","shortName":"Casino","icon":{"prefix":"https:\/\/foursquare.com\/img\/categories_v2\/arts_entertainment\/casino_","suffix":".png"},"primary":true}],"verified":false,"stats":{"checkinsCount":28,"usersCount":8,"tipCount":0},"likes":{"count":0,"groups":[]},"specials":{"count":0,"items":[]},"hereNow":{"count":0,"groups":[]}},{"id":"4c185e70834e2d7febd72880","name":"ゴーゴーカレー大久保店","contact":{"phone":"+81774435755","formattedPhone":"+81 774-43-5755"},"location":{"address":"広野茶屋裏8-6","lat":34.87299,"lng":135.776999,"city":"宇治市","state":"京都府","country":"Japan"},"categories":[{"id":"4bf58dd8d48988d111941735","name":"Japanese Restaurant","pluralName":"Japanese Restaurants","shortName":"Japanese","icon":{"prefix":"https:\/\/foursquare.com\/img\/categories_v2\/food\/japanese_","suffix":".png"},"primary":true}],"verified":false,"stats":{"checkinsCount":159,"usersCount":83,"tipCount":1},"url":"http:\/\/www.gogocurry.com\/","likes":{"count":0,"groups":[]},"specials":{"count":0,"items":[]},"hereNow":{"count":0,"groups":[]}},{"id":"4c4e4ff81b8e1b8d763af826","name":"お好み焼き 山崎屋","contact":{},"location":{"lat":34.87391699519068,"lng":135.77707886695862,"country":"Japan"},"categories":[{"id":"4bf58dd8d48988d111941735","name":"Japanese Restaurant","pluralName":"Japanese Restaurants","shortName":"Japanese","icon":{"prefix":"https:\/\/foursquare.com\/img\/categories_v2\/food\/japanese_","suffix":".png"},"primary":true}],"verified":false,"stats":{"checkinsCount":12,"usersCount":4,"tipCount":0},"likes":{"count":0,"groups":[]},"specials":{"count":0,"items":[]},"hereNow":{"count":0,"groups":[]}},{"id":"4e2fe78a1f6ed9df90242eed","name":"やきとり花","contact":{},"location":{"lat":34.87467,"lng":135.777061,"country":"Japan"},"categories":[{"id":"4bf58dd8d48988d11a941735","name":"Other Nightlife","pluralName":"Other Nightlife","shortName":"Other - Nightlife","icon":{"prefix":"https:\/\/foursquare.com\/img\/categories_v2\/nightlife\/default_","suffix":".png"},"primary":true}],"verified":false,"stats":{"checkinsCount":9,"usersCount":5,"tipCount":0},"likes":{"count":0,"groups":[]},"specials":{"count":0,"items":[]},"hereNow":{"count":0,"groups":[]}},{"id":"4e0afcb8a8097aad936a417a","name":"焼肉VSもつ鍋","contact":{},"location":{"lat":34.87288494617586,"lng":135.77672481536865,"city":"宇治市","state":"京都府","country":"Japan"},"categories":[{"id":"4bf58dd8d48988d1c4941735","name":"Restaurant","pluralName":"Restaurants","shortName":"Other - Food","icon":{"prefix":"https:\/\/foursquare.com\/img\/categories_v2\/food\/default_","suffix":".png"},"primary":true}],"verified":false,"stats":{"checkinsCount":6,"usersCount":4,"tipCount":0},"likes":{"count":0,"groups":[]},"specials":{"count":0,"items":[]},"hereNow":{"count":0,"groups":[]}},{"id":"4c96b62c94a0236a407da112","name":"平和堂 100BAN店","contact":{"phone":"+81774444555","formattedPhone":"+81 774-44-4555"},"location":{"address":"広野町西裏100番地","lat":34.87384657861217,"lng":135.77889740467072,"postalCode":"611-0031","city":"宇治市","state":"京都府","country":"Japan"},"categories":[{"id":"4bf58dd8d48988d118951735","name":"Grocery Store","pluralName":"Grocery Stores","shortName":"Grocery Store","icon":{"prefix":"https:\/\/foursquare.com\/img\/categories_v2\/shops\/food_grocery_","suffix":".png"},"primary":true}],"verified":false,"stats":{"checkinsCount":56,"usersCount":14,"tipCount":0},"likes":{"count":0,"groups":[]},"specials":{"count":0,"items":[]},"hereNow":{"count":0,"groups":[]}},{"id":"4ee57f702c5b5fc6cd6457c6","name":"居酒屋 呑亭","contact":{},"location":{"address":"広野町西裏","lat":34.875222231217464,"lng":135.77698861466908,"state":"京都府","country":"Japan"},"categories":[{"id":"4bf58dd8d48988d1d4941735","name":"Speakeasy","pluralName":"Speakeasies","shortName":"Speakeasy \/ Secret Spot","icon":{"prefix":"https:\/\/foursquare.com\/img\/categories_v2\/nightlife\/secretbar_","suffix":".png"},"primary":true}],"verified":false,"stats":{"checkinsCount":8,"usersCount":3,"tipCount":0},"likes":{"count":0,"groups":[]},"specials":{"count":0,"items":[]},"hereNow":{"count":0,"groups":[]}},{"id":"4eb07ffe6da152b3a8ead9f6","name":"El Galan","contact":{"phone":"+81774465777","formattedPhone":"+81 774-46-5777"},"location":{"address":"広野町西裏1-16","crossStreet":"近鉄大久保駅高架下 サンマルシェ大久保","lat":34.87552704531004,"lng":135.7772849209318,"city":"宇治市","state":"京都府","country":"Japan"},"categories":[{"id":"4bf58dd8d48988d116941735","name":"Bar","pluralName":"Bars","shortName":"Bar","icon":{"prefix":"https:\/\/foursquare.com\/img\/categories_v2\/nightlife\/bar_","suffix":".png"},"primary":true}],"verified":false,"stats":{"checkinsCount":9,"usersCount":1,"tipCount":0},"likes":{"count":0,"groups":[]},"specials":{"count":0,"items":[]},"hereNow":{"count":0,"groups":[]}},{"id":"4eb290ac8b815ab741e17ee5","name":"京城苑","contact":{"phone":"+81774430025","formattedPhone":"+81 774-43-0025"},"location":{"address":"京都府宇治市広野町西裏66-1","lat":34.87525352764153,"lng":135.7773960362549,"country":"Japan"},"categories":[{"id":"4bf58dd8d48988d113941735","name":"Korean Restaurant","pluralName":"Korean Restaurants","shortName":"Korean","icon":{"prefix":"https:\/\/foursquare.com\/img\/categories_v2\/food\/default_","suffix":".png"},"primary":true}],"verified":false,"stats":{"checkinsCount":9,"usersCount":3,"tipCount":0},"likes":{"count":0,"groups":[]},"specials":{"count":0,"items":[]},"hereNow":{"count":0,"groups":[]}},{"id":"4fa10e87e4b0ac13ae77f71b","name":"シャモチン","contact":{},"location":{"lat":34.87602025899783,"lng":135.77780346132107,"country":"Japan"},"categories":[{"id":"4bf58dd8d48988d11c941735","name":"Sake Bar","pluralName":"Sake Bars","shortName":"Sake Bar","icon":{"prefix":"https:\/\/foursquare.com\/img\/categories_v2\/nightlife\/sake_","suffix":".png"},"primary":true}],"verified":false,"stats":{"checkinsCount":2,"usersCount":2,"tipCount":0},"likes":{"count":0,"groups":[]},"specials":{"count":0,"items":[]},"hereNow":{"count":0,"groups":[]}},{"id":"4e5343a0d4c05e0079f0360c","name":"久御山町立図書館","contact":{},"location":{"address":"佐古外屋敷235","lat":34.87451666,"lng":135.77714595,"city":"久世郡久御山町","state":"京都府","country":"Japan"},"categories":[{"id":"4bf58dd8d48988d12f941735","name":"Library","pluralName":"Libraries","shortName":"Library","icon":{"prefix":"https:\/\/foursquare.com\/img\/categories_v2\/building\/library_","suffix":".png"},"primary":true}],"verified":false,"stats":{"checkinsCount":4,"usersCount":3,"tipCount":0},"likes":{"count":0,"groups":[]},"specials":{"count":0,"items":[]},"hereNow":{"count":0,"groups":[]}},{"id":"4d677dc4cba6a35d5023cdc1","name":"南都銀行 宇治大久保支店","contact":{},"location":{"address":"日本","lat":34.87594811679726,"lng":135.77830348774984,"country":"Japan"},"categories":[{"id":"4bf58dd8d48988d10a951735","name":"Bank","pluralName":"Banks","shortName":"Bank \/ Financial","icon":{"prefix":"https:\/\/foursquare.com\/img\/categories_v2\/shops\/financial_","suffix":".png"},"primary":true}],"verified":false,"stats":{"checkinsCount":20,"usersCount":10,"tipCount":0},"likes":{"count":0,"groups":[]},"specials":{"count":0,"items":[]},"hereNow":{"count":0,"groups":[]}},{"id":"4c94387038dd8cfaf265c762","name":"Slow Jam","contact":{"phone":"+81774438338","formattedPhone":"+81 774-43-8338"},"location":{"address":"広野町西裏99","crossStreet":"パールビル2F","lat":34.87367053690198,"lng":135.77734172344208,"postalCode":"610-0031","city":"宇治市","state":"京都府","country":"Japan"},"categories":[{"id":"4bf58dd8d48988d110951735","name":"Salon \/ Barbershop","pluralName":"Salons \/ Barbershops","shortName":"Salon \/ Barbershop","icon":{"prefix":"https:\/\/foursquare.com\/img\/categories_v2\/shops\/salon_barber_","suffix":".png"},"primary":true}],"verified":false,"stats":{"checkinsCount":8,"usersCount":3,"tipCount":0},"likes":{"count":0,"groups":[]},"specials":{"count":0,"items":[]},"hereNow":{"count":0,"groups":[]}},{"id":"4c2c407aae6820a1ac1f1943","name":"ドコモショップ宇治大久保店","contact":{},"location":{"address":"日本","lat":34.87420306192069,"lng":135.77816516160965,"city":"宇治市","state":"京都府","country":"Japan"},"categories":[{"id":"4bf58dd8d48988d122951735","name":"Electronics Store","pluralName":"Electronics Stores","shortName":"Electronics","icon":{"prefix":"https:\/\/foursquare.com\/img\/categories_v2\/shops\/technology_","suffix":".png"},"primary":true}],"verified":false,"stats":{"checkinsCount":31,"usersCount":9,"tipCount":0},"likes":{"count":0,"groups":[]},"specials":{"count":0,"items":[]},"hereNow":{"count":0,"groups":[]}},{"id":"4f7d2532e4b08ccdc5bd6298","name":"コンセプト 広野２パーキング","contact":{},"location":{"lat":34.875518,"lng":135.778048,"country":"Japan"},"categories":[{"id":"4bf58dd8d48988d1ff941735","name":"Miscellaneous Shop","pluralName":"Miscellaneous Shops","shortName":"Other - Shop","icon":{"prefix":"https:\/\/foursquare.com\/img\/categories_v2\/shops\/default_","suffix":".png"},"primary":true}],"verified":false,"stats":{"checkinsCount":0,"usersCount":0,"tipCount":0},"likes":{"count":0,"groups":[]},"specials":{"count":0,"items":[]},"hereNow":{"count":0,"groups":[]}},{"id":"4e57bc291f6e2a1922da791d","name":"MK宇治城陽営業所","contact":{},"location":{"lat":34.874446868896484,"lng":135.7782440185547,"country":"Japan"},"categories":[{"id":"4bf58dd8d48988d130951735","name":"Taxi","pluralName":"Taxis","shortName":"Taxi","icon":{"prefix":"https:\/\/foursquare.com\/img\/categories_v2\/travel\/taxi_","suffix":".png"},"primary":true}],"verified":false,"stats":{"checkinsCount":2,"usersCount":2,"tipCount":0},"likes":{"count":0,"groups":[]},"specials":{"count":0,"items":[]},"hereNow":{"count":0,"groups":[]}},{"id":"4fcd68f4e4b0f39fffa89203","name":"京都中央信用金庫 大久保支店","contact":{},"location":{"lat":34.875752,"lng":135.777971,"country":"Japan"},"categories":[{"id":"4bf58dd8d48988d10a951735","name":"Bank","pluralName":"Banks","shortName":"Bank \/ Financial","icon":{"prefix":"https:\/\/foursquare.com\/img\/categories_v2\/shops\/financial_","suffix":".png"},"primary":true}],"verified":false,"stats":{"checkinsCount":1,"usersCount":1,"tipCount":0},"likes":{"count":0,"groups":[]},"specials":{"count":0,"items":[]},"hereNow":{"count":0,"groups":[]}},{"id":"4cef8584b80da09318c02c00","name":"Da Vinci","contact":{},"location":{"lat":34.875134,"lng":135.777206,"country":"Japan"},"categories":[],"verified":false,"stats":{"checkinsCount":1,"usersCount":1,"tipCount":0},"likes":{"count":0,"groups":[]},"specials":{"count":0,"items":[]},"hereNow":{"count":0,"groups":[]}},{"id":"4bcabdd3cc8cd13a864cbecf","name":"Lien","contact":{},"location":{"lat":34.874025,"lng":135.77798,"country":"Japan"},"categories":[{"id":"4bf58dd8d48988d110951735","name":"Salon \/ Barbershop","pluralName":"Salons \/ Barbershops","shortName":"Salon \/ Barbershop","icon":{"prefix":"https:\/\/foursquare.com\/img\/categories_v2\/shops\/salon_barber_","suffix":".png"},"primary":true}],"verified":false,"stats":{"checkinsCount":6,"usersCount":1,"tipCount":0},"likes":{"count":0,"groups":[]},"specials":{"count":0,"items":[]},"hereNow":{"count":0,"groups":[]}}]}}
