{"meta":{"code":200},"response":{"venues":[{"id":"4d5f32bde4fe54814f3f719e","name":"山田音楽院","contact":{},"location":{"address":"両替町1丁目418","lat":34.927686,"lng":135.764035,"city":"京都市伏見区","state":"京都府","country":"Japan"},"categories":[],"verified":false,"stats":{"checkinsCount":85,"usersCount":6,"tipCount":1},"likes":{"count":0,"groups":[]},"specials":{"count":0,"items":[]},"hereNow":{"count":0,"groups":[]}},{"id":"4ce3b246c46e6dcb502ad715","name":"べんがらや","contact":{"phone":"+81756226908","formattedPhone":"+81 75-622-6908"},"location":{"address":"上油掛町185-2","lat":34.93034527712604,"lng":135.76294898986816,"city":"京都市伏見区","state":"京都府","country":"Japan"},"categories":[{"id":"4bf58dd8d48988d1c4941735","name":"Restaurant","pluralName":"Restaurants","shortName":"Other - Food","icon":{"prefix":"https:\/\/foursquare.com\/img\/categories_v2\/food\/default_","suffix":".png"},"primary":true}],"verified":false,"stats":{"checkinsCount":49,"usersCount":20,"tipCount":0},"likes":{"count":0,"groups":[]},"specials":{"count":0,"items":[]},"hereNow":{"count":0,"groups":[]}},{"id":"4cce5d4fc9b84688ab63c8c3","name":"韓国惣菜 Chili x 2","contact":{"phone":"+81756027506","formattedPhone":"+81 75-602-7506"},"location":{"address":"納屋町118 納屋町センター12","crossStreet":"納屋町センター","lat":34.93048948348074,"lng":135.76380484967933,"city":"京都市伏見区","state":"京都府","country":"Japan"},"categories":[{"id":"4bf58dd8d48988d113941735","name":"Korean Restaurant","pluralName":"Korean Restaurants","shortName":"Korean","icon":{"prefix":"https:\/\/foursquare.com\/img\/categories_v2\/food\/default_","suffix":".png"},"primary":true}],"verified":false,"stats":{"checkinsCount":20,"usersCount":2,"tipCount":2},"likes":{"count":0,"groups":[]},"specials":{"count":0,"items":[]},"hereNow":{"count":0,"groups":[]}},{"id":"4dc8972f1f6e936efe47f410","name":"京都南労働基準監督署","contact":{},"location":{"address":"日本","lat":34.93009150028229,"lng":135.76544880867004,"city":"京都市","state":"京都府","country":"Japan"},"categories":[],"verified":false,"stats":{"checkinsCount":6,"usersCount":2,"tipCount":0},"likes":{"count":0,"groups":[]},"specials":{"count":0,"items":[]},"hereNow":{"count":0,"groups":[]}},{"id":"4ee20977754a44a66d2923d4","name":"後崇光太上天皇 伏見松林院陵","contact":{},"location":{"address":"丹後町","lat":34.92930733988112,"lng":135.76299726963043,"city":"京都市伏見区","state":"京都府","country":"Japan"},"categories":[{"id":"4bf58dd8d48988d15c941735","name":"Cemetery","pluralName":"Cemeteries","shortName":"Cemetery","icon":{"prefix":"https:\/\/foursquare.com\/img\/categories_v2\/parks_outdoors\/cemetery_","suffix":".png"},"primary":true}],"verified":false,"stats":{"checkinsCount":2,"usersCount":1,"tipCount":0},"likes":{"count":0,"groups":[]},"specials":{"count":0,"items":[]},"hereNow":{"count":0,"groups":[]}},{"id":"4e4de5d962e14b77e38727c6","name":"時代衣装おかむら","contact":{},"location":{"lat":34.92916526,"lng":135.76393967,"country":"Japan"},"categories":[{"id":"4d4b7104d754a06370d81259","name":"Arts & Entertainment","pluralName":"Arts & Entertainment","shortName":"Arts & Entertainment","icon":{"prefix":"https:\/\/foursquare.com\/img\/categories_v2\/arts_entertainment\/default_","suffix":".png"},"primary":true}],"verified":false,"stats":{"checkinsCount":4,"usersCount":4,"tipCount":0},"likes":{"count":0,"groups":[]},"specials":{"count":0,"items":[]},"hereNow":{"count":0,"groups":[]}},{"id":"4fd14994e4b0362dd35df19a","name":"京都京町郵便局","contact":{},"location":{"address":"京町","crossStreet":"伏見区","lat":34.93030990775576,"lng":135.76463798532836,"city":"京都市","country":"Japan"},"categories":[{"id":"4bf58dd8d48988d1fd941735","name":"Mall","pluralName":"Malls","shortName":"Mall","icon":{"prefix":"https:\/\/foursquare.com\/img\/categories_v2\/shops\/mall_","suffix":".png"},"primary":true}],"verified":false,"stats":{"checkinsCount":3,"usersCount":1,"tipCount":0},"likes":{"count":0,"groups":[]},"specials":{"count":0,"items":[]},"hereNow":{"count":0,"groups":[]}},{"id":"4e6ed1148998fd5c56595309","name":"ハーレーダビッドソン京都 洛南","contact":{},"location":{"address":"島津町121","lat":34.929571,"lng":135.764021,"city":"京都市伏見区","state":"京都府","country":"Japan"},"categories":[{"id":"4bf58dd8d48988d115951735","name":"Bike Shop","pluralName":"Bike Shops","shortName":"Bike shop","icon":{"prefix":"https:\/\/foursquare.com\/img\/categories_v2\/shops\/bikeshop_","suffix":".png"},"primary":true}],"verified":false,"stats":{"checkinsCount":2,"usersCount":1,"tipCount":0},"likes":{"count":0,"groups":[]},"specials":{"count":0,"items":[]},"hereNow":{"count":0,"groups":[]}},{"id":"4f7975d5e4b06ff83801cdb9","name":"広瀬レディースクリニック","contact":{},"location":{"lat":34.929473876953125,"lng":135.76449584960938,"country":"Japan"},"categories":[{"id":"4bf58dd8d48988d196941735","name":"Hospital","pluralName":"Hospitals","shortName":"Hospital","icon":{"prefix":"https:\/\/foursquare.com\/img\/categories_v2\/building\/medical_hospital_","suffix":".png"},"primary":true}],"verified":false,"stats":{"checkinsCount":1,"usersCount":1,"tipCount":0},"likes":{"count":0,"groups":[]},"specials":{"count":0,"items":[]},"hereNow":{"count":0,"groups":[]}}]}}
