{"meta":{"code":200},"response":{"venues":[{"id":"4b58dc01f964a520336f28e3","name":"六地蔵駅 (Rokujizo Sta.)","contact":{},"location":{"address":"六地蔵奈良町\/桃山町中島町","crossStreet":"JR奈良線\/地下鉄東西線\/京阪宇治線","lat":34.932797616033014,"lng":135.79691931133388,"city":"宇治市\/京都市伏見区","state":"京都府","country":"Japan"},"categories":[{"id":"4bf58dd8d48988d129951735","name":"Train Station","pluralName":"Train Stations","shortName":"Train Station","icon":{"prefix":"https:\/\/foursquare.com\/img\/categories_v2\/travel\/trainstation_","suffix":".png"},"primary":true}],"verified":false,"stats":{"checkinsCount":275,"usersCount":162,"tipCount":1},"likes":{"count":0,"groups":[]},"specials":{"count":0,"items":[]},"hereNow":{"count":0,"groups":[]}},{"id":"4c0d71e1c700c9b6dc6ba2dd","name":"六地蔵総合病院","contact":{},"location":{"lat":34.93509171665568,"lng":135.79638203656435,"country":"Japan"},"categories":[],"verified":false,"stats":{"checkinsCount":22,"usersCount":8,"tipCount":0},"likes":{"count":0,"groups":[]},"specials":{"count":0,"items":[]},"hereNow":{"count":0,"groups":[]}},{"id":"4d75e14a48b7f04da3a9edf5","name":"星の奏楽堂","contact":{},"location":{"lat":34.932834,"lng":135.795515,"country":"Japan"},"categories":[{"id":"4bf58dd8d48988d1f2931735","name":"Performing Arts Venue","pluralName":"Performing Arts Venues","shortName":"Performing Arts","icon":{"prefix":"https:\/\/foursquare.com\/img\/categories_v2\/arts_entertainment\/default_","suffix":".png"},"primary":true}],"verified":false,"stats":{"checkinsCount":14,"usersCount":1,"tipCount":0},"likes":{"count":0,"groups":[]},"specials":{"count":0,"items":[]},"hereNow":{"count":0,"groups":[]}},{"id":"4b658117f964a520a7f22ae3","name":"ビッグボーイ 宇治店","contact":{"phone":"+81774332239","formattedPhone":"+81 774-33-2239"},"location":{"address":"六地蔵奈良町72-9","lat":34.934136275315794,"lng":135.79735100269318,"city":"宇治市","state":"京都府","country":"Japan"},"categories":[{"id":"4bf58dd8d48988d1cc941735","name":"Steakhouse","pluralName":"Steakhouses","shortName":"Steakhouse","icon":{"prefix":"https:\/\/foursquare.com\/img\/categories_v2\/food\/steakhouse_","suffix":".png"},"primary":true}],"verified":false,"stats":{"checkinsCount":250,"usersCount":41,"tipCount":1},"likes":{"count":0,"groups":[]},"specials":{"count":0,"items":[]},"hereNow":{"count":0,"groups":[]}},{"id":"4ba73115f964a5202a8539e3","name":"イトーヨーカドー 六地蔵店","contact":{"phone":"+81774338811","formattedPhone":"+81 774-33-8811"},"location":{"address":"六地蔵奈良町67-1","lat":34.93309953720949,"lng":135.79757701798962,"postalCode":"611-0001","city":"宇治市","state":"京都府","country":"Japan"},"categories":[{"id":"4bf58dd8d48988d1fd941735","name":"Mall","pluralName":"Malls","shortName":"Mall","icon":{"prefix":"https:\/\/foursquare.com\/img\/categories_v2\/shops\/mall_","suffix":".png"},"primary":true}],"verified":false,"stats":{"checkinsCount":324,"usersCount":74,"tipCount":0},"likes":{"count":0,"groups":[]},"specials":{"count":0,"items":[]},"hereNow":{"count":0,"groups":[]}},{"id":"4ca9d86214c33704fdd1e13b","name":"JR 六地蔵駅","contact":{},"location":{"address":"六地蔵奈良町77-1","lat":34.93283451378556,"lng":135.7973349094391,"city":"宇治市","state":"京都府","country":"Japan"},"categories":[{"id":"4bf58dd8d48988d129951735","name":"Train Station","pluralName":"Train Stations","shortName":"Train Station","icon":{"prefix":"https:\/\/foursquare.com\/img\/categories_v2\/travel\/trainstation_","suffix":".png"},"primary":true}],"verified":false,"stats":{"checkinsCount":588,"usersCount":218,"tipCount":1},"likes":{"count":0,"groups":[]},"specials":{"count":0,"items":[]},"hereNow":{"count":0,"groups":[]}},{"id":"4e210a9622717a5245c75dad","name":"ラーメン但馬六地蔵","contact":{},"location":{"lat":34.933169,"lng":135.798033,"country":"Japan"},"categories":[{"id":"4bf58dd8d48988d16e941735","name":"Fast Food Restaurant","pluralName":"Fast Food Restaurants","shortName":"Fast Food","icon":{"prefix":"https:\/\/foursquare.com\/img\/categories_v2\/food\/fastfood_","suffix":".png"},"primary":true}],"verified":false,"stats":{"checkinsCount":8,"usersCount":5,"tipCount":0},"likes":{"count":0,"groups":[]},"specials":{"count":0,"items":[]},"hereNow":{"count":0,"groups":[]}},{"id":"4b656875f964a520b3ef2ae3","name":"様様 六地蔵本店","contact":{"phone":"+81774324120","formattedPhone":"+81 774-32-4120"},"location":{"address":"六地蔵奈良町39-17","lat":34.933206,"lng":135.79829,"city":"宇治市","state":"京都府","country":"Japan"},"categories":[],"verified":false,"stats":{"checkinsCount":21,"usersCount":17,"tipCount":0},"likes":{"count":0,"groups":[]},"specials":{"count":0,"items":[]},"hereNow":{"count":0,"groups":[]}},{"id":"4b5ad731f964a520f7d628e3","name":"京都市営地下鉄 六地蔵駅 (T01)","contact":{},"location":{"address":"六地蔵奈良町","crossStreet":"京都市営地下鉄東西線","lat":34.933731675971664,"lng":135.7964015007019,"city":"宇治市","state":"京都府","country":"Japan"},"categories":[{"id":"4bf58dd8d48988d1fd931735","name":"Subway","pluralName":"Subways","shortName":"Subway","icon":{"prefix":"https:\/\/foursquare.com\/img\/categories_v2\/travel\/subway_","suffix":".png"},"primary":true}],"verified":false,"stats":{"checkinsCount":108,"usersCount":61,"tipCount":0},"likes":{"count":0,"groups":[]},"specials":{"count":0,"items":[]},"hereNow":{"count":0,"groups":[]}},{"id":"4dbd5af06e810768bf7423eb","name":"鳥貴族 六地蔵店","contact":{"phone":"+81774322322","formattedPhone":"+81 774-32-2322"},"location":{"address":"六地蔵奈良町74-1","lat":34.93389879333398,"lng":135.79715251922607,"postalCode":"611-0001","city":"宇治市","state":"京都府","country":"Japan"},"categories":[{"id":"4bf58dd8d48988d147941735","name":"Diner","pluralName":"Diners","shortName":"Diner","icon":{"prefix":"https:\/\/foursquare.com\/img\/categories_v2\/food\/diner_","suffix":".png"},"primary":true}],"verified":false,"stats":{"checkinsCount":118,"usersCount":18,"tipCount":0},"likes":{"count":0,"groups":[]},"specials":{"count":0,"items":[]},"hereNow":{"count":0,"groups":[]}},{"id":"4cd0e5ebf6378cfa6956b8d6","name":"ジョーシン 六地蔵店","contact":{},"location":{"address":"六地蔵奈良町18-1","lat":34.935697,"lng":135.797931,"city":"宇治市","state":"京都府","country":"Japan"},"categories":[{"id":"4bf58dd8d48988d122951735","name":"Electronics Store","pluralName":"Electronics Stores","shortName":"Electronics","icon":{"prefix":"https:\/\/foursquare.com\/img\/categories_v2\/shops\/technology_","suffix":".png"},"primary":true}],"verified":false,"stats":{"checkinsCount":77,"usersCount":32,"tipCount":0},"likes":{"count":0,"groups":[]},"specials":{"count":0,"items":[]},"hereNow":{"count":0,"groups":[]}},{"id":"4ce90e12e888f04d6efd456b","name":"串八 六地蔵店","contact":{"phone":"+81774338330","formattedPhone":"+81 774-33-8330"},"location":{"address":"六地蔵奈良町21-2","lat":34.93500263893855,"lng":135.79784989356995,"city":"宇治市","state":"京都府","country":"Japan"},"categories":[{"id":"4bf58dd8d48988d111941735","name":"Japanese Restaurant","pluralName":"Japanese Restaurants","shortName":"Japanese","icon":{"prefix":"https:\/\/foursquare.com\/img\/categories_v2\/food\/japanese_","suffix":".png"},"primary":true}],"verified":false,"stats":{"checkinsCount":19,"usersCount":12,"tipCount":0},"likes":{"count":0,"groups":[]},"specials":{"count":0,"items":[]},"hereNow":{"count":0,"groups":[]}},{"id":"4c2afc0d8abca593df7eff1f","name":"天下一品 六地蔵店","contact":{"phone":"+81774381881","formattedPhone":"+81 774-38-1881"},"location":{"address":"六地蔵奈良町21-3","lat":34.935503982235886,"lng":135.79794108867645,"city":"宇治市","state":"京都府","country":"Japan"},"categories":[{"id":"4bf58dd8d48988d1d1941735","name":"Ramen \/  Noodle House","pluralName":"Ramen \/  Noodle House","shortName":"Ramen \/ Noodles","icon":{"prefix":"https:\/\/foursquare.com\/img\/categories_v2\/food\/ramen_","suffix":".png"},"primary":true}],"verified":false,"stats":{"checkinsCount":54,"usersCount":33,"tipCount":1},"likes":{"count":0,"groups":[]},"specials":{"count":0,"items":[]},"hereNow":{"count":0,"groups":[]}},{"id":"4f7dba3877161da045e96582","name":"ゆうちょ銀行 大阪支店 イトーヨーカドー六地蔵店内出張所","contact":{},"location":{"address":"六地蔵奈良町67-1","crossStreet":"イトーヨーカドー六地蔵店1階ATMコーナー","lat":34.93437375661007,"lng":135.7975172996521,"postalCode":"611-0001","city":"宇治市","state":"京都府","country":"Japan"},"categories":[{"id":"4bf58dd8d48988d10a951735","name":"Bank","pluralName":"Banks","shortName":"Bank \/ Financial","icon":{"prefix":"https:\/\/foursquare.com\/img\/categories_v2\/shops\/financial_","suffix":".png"},"primary":true}],"verified":false,"stats":{"checkinsCount":0,"usersCount":0,"tipCount":0},"likes":{"count":0,"groups":[]},"specials":{"count":0,"items":[]},"hereNow":{"count":0,"groups":[]}},{"id":"4da23b320f578cfabeca9e18","name":"六地蔵タチバナライナー乗降口","contact":{},"location":{"lat":34.933103,"lng":135.796574,"country":"Japan"},"categories":[{"id":"4bf58dd8d48988d1fe931735","name":"Bus Station","pluralName":"Bus Stations","shortName":"Bus Station","icon":{"prefix":"https:\/\/foursquare.com\/img\/categories_v2\/travel\/busstation_","suffix":".png"},"primary":true}],"verified":false,"stats":{"checkinsCount":5,"usersCount":1,"tipCount":0},"likes":{"count":0,"groups":[]},"specials":{"count":0,"items":[]},"hereNow":{"count":0,"groups":[]}},{"id":"4f55e520e4b05b4bc3bb93b8","name":"サークルK 六地蔵駅前店","contact":{},"location":{"address":"六地蔵奈良町７４番地１","crossStreet":"パデシオン六地蔵","lat":34.933187490641174,"lng":135.7973778523417,"city":"宇治市","state":"京都府","country":"Japan"},"categories":[{"id":"4d954b0ea243a5684a65b473","name":"Convenience Store","pluralName":"Convenience Stores","shortName":"Convenience Stores","icon":{"prefix":"https:\/\/foursquare.com\/img\/categories_v2\/shops\/conveniencestore_","suffix":".png"},"primary":true}],"verified":false,"stats":{"checkinsCount":3,"usersCount":2,"tipCount":0},"likes":{"count":0,"groups":[]},"specials":{"count":0,"items":[]},"hereNow":{"count":0,"groups":[]}}]}}
