{"meta":{"code":200},"response":{"venues":[{"id":"4b570a19f964a520fe2328e3","name":"京田辺駅 (Kyotanabe Sta.)","contact":{},"location":{"address":"田辺久戸27","crossStreet":"JR学研都市線","lat":34.820821819368696,"lng":135.76882702690523,"city":"京田辺市","state":"京都府","country":"Japan"},"categories":[{"id":"4bf58dd8d48988d129951735","name":"Train Station","pluralName":"Train Stations","shortName":"Train Station","icon":{"prefix":"https:\/\/foursquare.com\/img\/categories_v2\/travel\/trainstation_","suffix":".png"},"primary":true}],"verified":false,"stats":{"checkinsCount":1208,"usersCount":260,"tipCount":2},"likes":{"count":0,"groups":[]},"specials":{"count":0,"items":[]},"hereNow":{"count":0,"groups":[]}},{"id":"4fbafab5e4b0bc54724e71f1","name":"ネオ田辺広場","contact":{},"location":{"address":"京都府\u200e 京田辺市 田辺中央６丁目３","lat":34.82102822075756,"lng":135.76862798124066,"city":"京田辺市","state":"京都府","country":"Japan"},"categories":[{"id":"4bf58dd8d48988d164941735","name":"Plaza","pluralName":"Plazas","shortName":"Plaza \/ Square","icon":{"prefix":"https:\/\/foursquare.com\/img\/categories_v2\/parks_outdoors\/plaza_","suffix":".png"},"primary":true}],"verified":false,"stats":{"checkinsCount":81,"usersCount":11,"tipCount":0},"likes":{"count":0,"groups":[]},"specials":{"count":0,"items":[]},"hereNow":{"count":0,"groups":[]}},{"id":"4e62da7c62e13e3bced6f72e","name":"正栄クリーニング アル・プラザ 京田辺店","contact":{"phone":"+81774640091","formattedPhone":"+81 774-64-0091"},"location":{"lat":34.82227645,"lng":135.76855269,"city":"京田辺市","state":"京都府","country":"Japan"},"categories":[{"id":"4bf58dd8d48988d1fc941735","name":"Laundry Service","pluralName":"Laundry Services","shortName":"Laundry","icon":{"prefix":"https:\/\/foursquare.com\/img\/categories_v2\/shops\/laundry_","suffix":".png"},"primary":true}],"verified":false,"stats":{"checkinsCount":20,"usersCount":6,"tipCount":0},"likes":{"count":0,"groups":[]},"specials":{"count":0,"items":[]},"hereNow":{"count":0,"groups":[]}},{"id":"4ec2344d4690d2338a6ab706","name":"時計オオカワ","contact":{},"location":{"lat":34.822562,"lng":135.76872,"country":"Japan"},"categories":[{"id":"4bf58dd8d48988d111951735","name":"Jewelry Store","pluralName":"Jewelry Stores","shortName":"Jewelry","icon":{"prefix":"https:\/\/foursquare.com\/img\/categories_v2\/shops\/jewelry_","suffix":".png"},"primary":true}],"verified":false,"stats":{"checkinsCount":4,"usersCount":2,"tipCount":0},"likes":{"count":0,"groups":[]},"specials":{"count":0,"items":[]},"hereNow":{"count":0,"groups":[]}},{"id":"4b7d1f46f964a52051af2fe3","name":"宝や","contact":{},"location":{"lat":34.82072472275685,"lng":135.76724394250724,"country":"Japan"},"categories":[{"id":"4bf58dd8d48988d1c7941735","name":"Snack Place","pluralName":"Snack Places","shortName":"Snacks","icon":{"prefix":"https:\/\/foursquare.com\/img\/categories_v2\/food\/snacks_","suffix":".png"},"primary":true}],"verified":false,"stats":{"checkinsCount":4,"usersCount":4,"tipCount":0},"likes":{"count":0,"groups":[]},"specials":{"count":0,"items":[]},"hereNow":{"count":0,"groups":[]}},{"id":"4e5984b662e1de72f6f3c2fd","name":"ヤンマー農機販売(株)","contact":{},"location":{"lat":34.82205943138595,"lng":135.76664682783624,"city":"京田辺市","state":"京都府","country":"Japan"},"categories":[{"id":"4d4b7105d754a06375d81259","name":"Professional & Other Places","pluralName":"Professional & Other Places","shortName":"Professional & Other Places","icon":{"prefix":"https:\/\/foursquare.com\/img\/categories_v2\/building\/default_","suffix":".png"},"primary":true}],"verified":false,"stats":{"checkinsCount":6,"usersCount":1,"tipCount":0},"likes":{"count":0,"groups":[]},"specials":{"count":0,"items":[]},"hereNow":{"count":0,"groups":[]}},{"id":"4dca5f531f6e28126774d9b5","name":"ダイソー アルプラザ京田辺店","contact":{"phone":"+81774684308","formattedPhone":"+81 774-68-4308"},"location":{"address":"田辺中央5-2-1","crossStreet":"アルプラザ京田辺店内3F","lat":34.821748200894326,"lng":135.76867818832397,"city":"京田辺市","state":"京都府","country":"Japan"},"categories":[{"id":"4bf58dd8d48988d1ff941735","name":"Miscellaneous Shop","pluralName":"Miscellaneous Shops","shortName":"Other - Shop","icon":{"prefix":"https:\/\/foursquare.com\/img\/categories_v2\/shops\/default_","suffix":".png"},"primary":true}],"verified":false,"stats":{"checkinsCount":45,"usersCount":16,"tipCount":0},"likes":{"count":0,"groups":[]},"specials":{"count":0,"items":[]},"hereNow":{"count":0,"groups":[]}},{"id":"4b76b795f964a5206a5a2ee3","name":"京田辺市立 中央図書館","contact":{},"location":{"address":"田辺辻40","lat":34.82086743114336,"lng":135.76751947402954,"city":"京田辺市","state":"京都府","country":"Japan"},"categories":[{"id":"4bf58dd8d48988d1a7941735","name":"College Library","pluralName":"College Libraries","shortName":"Library","icon":{"prefix":"https:\/\/foursquare.com\/img\/categories_v2\/building\/library_","suffix":".png"},"primary":true}],"verified":false,"stats":{"checkinsCount":38,"usersCount":12,"tipCount":0},"likes":{"count":0,"groups":[]},"specials":{"count":0,"items":[]},"hereNow":{"count":0,"groups":[]}},{"id":"4d4ce48b4aa3a09306163dae","name":"MAIKO茶ブティック","contact":{},"location":{"lat":34.821263,"lng":135.769534,"country":"Japan"},"categories":[{"id":"4bf58dd8d48988d16d941735","name":"Café","pluralName":"Cafés","shortName":"Café","icon":{"prefix":"https:\/\/foursquare.com\/img\/categories_v2\/food\/cafe_","suffix":".png"},"primary":true}],"verified":false,"stats":{"checkinsCount":1,"usersCount":1,"tipCount":0},"likes":{"count":0,"groups":[]},"specials":{"count":0,"items":[]},"hereNow":{"count":0,"groups":[]}},{"id":"4b570981f964a520d72328e3","name":"アル・プラザ 京田辺","contact":{},"location":{"address":"田辺中央5丁目2-1","lat":34.821944160057306,"lng":135.76911402444267,"city":"京田辺市","state":"京都府","country":"Japan"},"categories":[{"id":"4bf58dd8d48988d1fd941735","name":"Mall","pluralName":"Malls","shortName":"Mall","icon":{"prefix":"https:\/\/foursquare.com\/img\/categories_v2\/shops\/mall_","suffix":".png"},"primary":true}],"verified":false,"stats":{"checkinsCount":602,"usersCount":127,"tipCount":0},"likes":{"count":0,"groups":[]},"specials":{"count":0,"items":[]},"hereNow":{"count":0,"groups":[]}},{"id":"4b77d4eaf964a520cbab2ee3","name":"マクドナルド 京田辺アルプラザ店","contact":{},"location":{"address":"田辺中央5-2-1","lat":34.821589663034175,"lng":135.76921463012695,"city":"京田辺市","state":"京都府","country":"Japan"},"categories":[{"id":"4bf58dd8d48988d16c941735","name":"Burger Joint","pluralName":"Burger Joints","shortName":"Burgers","icon":{"prefix":"https:\/\/foursquare.com\/img\/categories_v2\/food\/burger_","suffix":".png"},"primary":true}],"verified":false,"stats":{"checkinsCount":62,"usersCount":33,"tipCount":0},"likes":{"count":0,"groups":[]},"specials":{"count":0,"items":[]},"hereNow":{"count":0,"groups":[]}},{"id":"4db3e236a86e8d27077a15d7","name":"BABY FACE PLANET'S アルプラザ京田辺店","contact":{"phone":"+81774627707","formattedPhone":"+81 774-62-7707"},"location":{"address":"田辺中央5-2-1","lat":34.8215676438628,"lng":135.7694399356842,"city":"京田辺市","state":"京都府","country":"Japan"},"categories":[{"id":"4bf58dd8d48988d1c4941735","name":"Restaurant","pluralName":"Restaurants","shortName":"Other - Food","icon":{"prefix":"https:\/\/foursquare.com\/img\/categories_v2\/food\/default_","suffix":".png"},"primary":true}],"verified":false,"stats":{"checkinsCount":11,"usersCount":8,"tipCount":0},"likes":{"count":0,"groups":[]},"specials":{"count":0,"items":[]},"hereNow":{"count":0,"groups":[]}},{"id":"4dca614645dd19439a08434a","name":"ABCブックセンター 京田辺店","contact":{"phone":"+81774682535","formattedPhone":"+81 774-68-2535"},"location":{"address":"田辺中央5-2-1","lat":34.82187150790793,"lng":135.7692790031433,"postalCode":"610-0334","city":"京田辺市","state":"京都府","country":"Japan"},"categories":[{"id":"4bf58dd8d48988d114951735","name":"Bookstore","pluralName":"Bookstores","shortName":"Bookstore","icon":{"prefix":"https:\/\/foursquare.com\/img\/categories_v2\/shops\/bookstore_","suffix":".png"},"primary":true}],"verified":false,"stats":{"checkinsCount":59,"usersCount":10,"tipCount":0},"likes":{"count":0,"groups":[]},"specials":{"count":0,"items":[]},"hereNow":{"count":0,"groups":[]}},{"id":"4e3518372271b2cf06743f40","name":"パリクロアッサン 京田辺店","contact":{"phone":"+81774627411","formattedPhone":"+81 774-62-7411"},"location":{"address":"田辺中央5-2-1","crossStreet":"アルプラザ京田辺 1F","lat":34.822152,"lng":135.76947212219238,"postalCode":"610-0334","city":"京田辺市","state":"京都府","country":"Japan"},"categories":[{"id":"4bf58dd8d48988d16a941735","name":"Bakery","pluralName":"Bakeries","shortName":"Bakery","icon":{"prefix":"https:\/\/foursquare.com\/img\/categories_v2\/food\/bakery_","suffix":".png"},"primary":true}],"verified":false,"stats":{"checkinsCount":49,"usersCount":13,"tipCount":0},"likes":{"count":0,"groups":[]},"specials":{"count":0,"items":[]},"hereNow":{"count":0,"groups":[]}},{"id":"4ed2f7452c5bc3505a0e634f","name":"スガキヤ 京田辺アルプラザ店","contact":{"phone":"+81774653401","formattedPhone":"+81 774-65-3401"},"location":{"address":"田辺中央5-2-1","crossStreet":"アルプラザ京田辺 1F","lat":34.822296915714816,"lng":135.76932299127293,"postalCode":"610-0334","city":"京田辺市","state":"京都府","country":"Japan"},"categories":[{"id":"4bf58dd8d48988d114941735","name":"Food Court","pluralName":"Food Courts","shortName":"Food Court","icon":{"prefix":"https:\/\/foursquare.com\/img\/categories_v2\/food\/foodcourt_","suffix":".png"},"primary":true}],"verified":false,"stats":{"checkinsCount":6,"usersCount":4,"tipCount":0},"likes":{"count":0,"groups":[]},"specials":{"count":0,"items":[]},"hereNow":{"count":0,"groups":[]}},{"id":"4dca66b8d16495ca5ae88025","name":"サーティワンアイスクリーム アルプラザ京田辺店","contact":{"phone":"+81774642037","formattedPhone":"+81 774-64-2037"},"location":{"address":"田辺中央5丁目2-1","lat":34.82135763482292,"lng":135.76888257468084,"city":"京田辺市","state":"京都府","country":"Japan"},"categories":[{"id":"4bf58dd8d48988d1c9941735","name":"Ice Cream Shop","pluralName":"Ice Cream Shops","shortName":"Ice Cream","icon":{"prefix":"https:\/\/foursquare.com\/img\/categories_v2\/food\/icecream_","suffix":".png"},"primary":true}],"verified":false,"stats":{"checkinsCount":11,"usersCount":4,"tipCount":0},"likes":{"count":0,"groups":[]},"specials":{"count":0,"items":[]},"hereNow":{"count":0,"groups":[]}},{"id":"4c551370479fc9284dfe3194","name":"ミスタードーナツ アルプラザ京田辺ショップ","contact":{"phone":"+81774682660","formattedPhone":"+81 774-68-2660"},"location":{"address":"田辺中央5-2-1","crossStreet":"アルプラザ京田辺","lat":34.822124,"lng":135.769603,"city":"京田辺市","state":"京都府","country":"Japan"},"categories":[{"id":"4bf58dd8d48988d148941735","name":"Donut Shop","pluralName":"Donut Shops","shortName":"Donuts","icon":{"prefix":"https:\/\/foursquare.com\/img\/categories_v2\/food\/donuts_","suffix":".png"},"primary":true}],"verified":false,"stats":{"checkinsCount":32,"usersCount":16,"tipCount":0},"likes":{"count":0,"groups":[]},"specials":{"count":0,"items":[]},"hereNow":{"count":0,"groups":[]}},{"id":"4deb0081b0fb8293f7e52e0d","name":"良品買館","contact":{},"location":{"lat":34.82216000389558,"lng":135.76985004215325,"city":"Kyotanabe","state":"Kyoto Prefecture","country":"Japan"},"categories":[{"id":"4bf58dd8d48988d101951735","name":"Thrift \/ Vintage Store","pluralName":"Thrift \/ Vintage Stores","shortName":"Thrift \/ Vintage","icon":{"prefix":"https:\/\/foursquare.com\/img\/categories_v2\/shops\/default_","suffix":".png"},"primary":true}],"verified":false,"stats":{"checkinsCount":6,"usersCount":6,"tipCount":0},"likes":{"count":0,"groups":[]},"specials":{"count":0,"items":[]},"hereNow":{"count":0,"groups":[]}},{"id":"4f1cd26ae4b083823389f43d","name":"めん屋一福京田辺店","contact":{},"location":{"lat":34.82206792580189,"lng":135.76941953984883,"city":"京田辺市","state":"京都府","country":"Japan"},"categories":[{"id":"4bf58dd8d48988d1d1941735","name":"Ramen \/  Noodle House","pluralName":"Ramen \/  Noodle House","shortName":"Ramen \/ Noodles","icon":{"prefix":"https:\/\/foursquare.com\/img\/categories_v2\/food\/ramen_","suffix":".png"},"primary":true}],"verified":false,"stats":{"checkinsCount":1,"usersCount":1,"tipCount":0},"likes":{"count":0,"groups":[]},"specials":{"count":0,"items":[]},"hereNow":{"count":0,"groups":[]}},{"id":"4ef6f7de469012b8c0a3e339","name":"メガネのオオカワ","contact":{},"location":{"lat":34.82197719948696,"lng":135.76932191848755,"city":"京田辺市","state":"京都府","country":"Japan"},"categories":[{"id":"4bf58dd8d48988d1ff941735","name":"Miscellaneous Shop","pluralName":"Miscellaneous Shops","shortName":"Other - Shop","icon":{"prefix":"https:\/\/foursquare.com\/img\/categories_v2\/shops\/default_","suffix":".png"},"primary":true}],"verified":false,"stats":{"checkinsCount":2,"usersCount":1,"tipCount":0},"likes":{"count":0,"groups":[]},"specials":{"count":0,"items":[]},"hereNow":{"count":0,"groups":[]}},{"id":"4eb66b76469073bbc6908fec","name":"大阪じゅうべい 京田辺店","contact":{},"location":{"address":"田辺中央5-2-1","crossStreet":"アルプラザ京田辺店1Fフードコート","lat":34.821889123180526,"lng":135.76904296875,"city":"京田辺市","state":"京都府","country":"Japan"},"categories":[{"id":"4bf58dd8d48988d114941735","name":"Food Court","pluralName":"Food Courts","shortName":"Food Court","icon":{"prefix":"https:\/\/foursquare.com\/img\/categories_v2\/food\/foodcourt_","suffix":".png"},"primary":true}],"verified":false,"stats":{"checkinsCount":3,"usersCount":1,"tipCount":0},"likes":{"count":0,"groups":[]},"specials":{"count":0,"items":[]},"hereNow":{"count":0,"groups":[]}},{"id":"4f573ce2e4b04e88c16576f8","name":"たこ福 京田辺店","contact":{},"location":{"lat":34.82085412534972,"lng":135.76912328245652,"country":"Japan"},"categories":[{"id":"4bf58dd8d48988d114941735","name":"Food Court","pluralName":"Food Courts","shortName":"Food Court","icon":{"prefix":"https:\/\/foursquare.com\/img\/categories_v2\/food\/foodcourt_","suffix":".png"},"primary":true}],"verified":false,"stats":{"checkinsCount":1,"usersCount":1,"tipCount":0},"likes":{"count":0,"groups":[]},"specials":{"count":0,"items":[]},"hereNow":{"count":0,"groups":[]}},{"id":"4e21cb1281dc35f05c53b245","name":"ラフィネ　アルプラザ京田辺店","contact":{"phone":"+81774640831","formattedPhone":"+81 774-64-0831","twitter":"raffine06"},"location":{"address":"京都府京田辺市田辺中央5-2-1","crossStreet":"アルプラザ京田辺　１階","lat":34.822047660464314,"lng":135.76912879943848,"postalCode":"610-0334","city":"京田辺市","state":"京都府","country":"Japan"},"categories":[{"id":"4bf58dd8d48988d1ed941735","name":"Spa or Massage","pluralName":"Spas or Massages","shortName":"Spas \/ Massage","icon":{"prefix":"https:\/\/foursquare.com\/img\/categories_v2\/shops\/spa_","suffix":".png"},"primary":true}],"verified":true,"stats":{"checkinsCount":0,"usersCount":0,"tipCount":0},"url":"http:\/\/www.facebook.com\/RelaxationSpace.Raffine","likes":{"count":0,"groups":[]},"specials":{"count":0,"items":[]},"hereNow":{"count":0,"groups":[]}},{"id":"4c75eb14604a3704c03e8449","name":"ポムの樹アルプラザ京田辺店","contact":{},"location":{"address":"日本","lat":34.821612,"lng":135.769276,"city":"京田辺市","state":"京都府","country":"Japan"},"categories":[],"verified":false,"stats":{"checkinsCount":2,"usersCount":2,"tipCount":0},"likes":{"count":0,"groups":[]},"specials":{"count":0,"items":[]},"hereNow":{"count":0,"groups":[]}},{"id":"4f3f3dd7e4b02d0e6b536acc","name":"パッション","contact":{},"location":{"lat":34.82182693481445,"lng":135.7694091796875,"country":"Japan"},"categories":[{"id":"4bf58dd8d48988d110951735","name":"Salon \/ Barbershop","pluralName":"Salons \/ Barbershops","shortName":"Salon \/ Barbershop","icon":{"prefix":"https:\/\/foursquare.com\/img\/categories_v2\/shops\/salon_barber_","suffix":".png"},"primary":true}],"verified":false,"stats":{"checkinsCount":0,"usersCount":0,"tipCount":0},"likes":{"count":0,"groups":[]},"specials":{"count":0,"items":[]},"hereNow":{"count":0,"groups":[]}},{"id":"4f71c891e4b0e8c482524287","name":"仁や亭","contact":{"phone":"+81774680866","formattedPhone":"+81 774-68-0866"},"location":{"address":"日本","lat":34.82865441450949,"lng":135.77300717783132,"city":"京田辺市","state":"京都府","country":"Japan"},"categories":[{"id":"4bf58dd8d48988d111941735","name":"Japanese Restaurant","pluralName":"Japanese Restaurants","shortName":"Japanese","icon":{"prefix":"https:\/\/foursquare.com\/img\/categories_v2\/food\/japanese_","suffix":".png"},"primary":true}],"verified":false,"stats":{"checkinsCount":1,"usersCount":1,"tipCount":0},"likes":{"count":0,"groups":[]},"specials":{"count":0,"items":[]},"hereNow":{"count":0,"groups":[]}}]}}
