{"meta":{"code":200},"response":{"venues":[{"id":"4ee20766754a44a66d28eb37","name":"八科峠","contact":{},"location":{"address":"深草大亀谷敦賀町","lat":34.942900638592995,"lng":135.78460916876793,"city":"京都市伏見区","state":"京都府","country":"Japan"},"categories":[{"id":"4deefb944765f83613cdba6e","name":"Historic Site","pluralName":"Historic Sites","shortName":"Historic Site","icon":{"prefix":"https:\/\/foursquare.com\/img\/categories_v2\/arts_entertainment\/historicsite_","suffix":".png"},"primary":true}],"verified":false,"stats":{"checkinsCount":3,"usersCount":2,"tipCount":0},"likes":{"count":0,"groups":[]},"specials":{"count":0,"items":[]},"hereNow":{"count":0,"groups":[]}},{"id":"4d26bc1b3c7954812454be9b","name":"御香宮社 (古御香宮)","contact":{},"location":{"address":"伏見区深草大亀谷古御香町20","lat":34.94488061813515,"lng":135.78468207315018,"city":"京都市","state":"京都府","country":"Japan"},"categories":[{"id":"4bf58dd8d48988d131941735","name":"Religious Center","pluralName":"Religious Centers","shortName":"Religious","icon":{"prefix":"https:\/\/foursquare.com\/img\/categories_v2\/building\/religious_","suffix":".png"},"primary":true}],"verified":false,"stats":{"checkinsCount":10,"usersCount":6,"tipCount":0},"likes":{"count":0,"groups":[]},"specials":{"count":0,"items":[]},"hereNow":{"count":0,"groups":[]}},{"id":"4ee2066a754a44a66d28d335","name":"仏国寺","contact":{},"location":{"address":"深草大亀谷古御香町30","lat":34.94340193361191,"lng":135.78546345233917,"city":"京都市伏見区","state":"京都府","country":"Japan"},"categories":[{"id":"4bf58dd8d48988d13a941735","name":"Temple","pluralName":"Temples","shortName":"Temple","icon":{"prefix":"https:\/\/foursquare.com\/img\/categories_v2\/building\/religious_temple_","suffix":".png"},"primary":true}],"verified":false,"stats":{"checkinsCount":1,"usersCount":1,"tipCount":0},"likes":{"count":0,"groups":[]},"specials":{"count":0,"items":[]},"hereNow":{"count":0,"groups":[]}},{"id":"4e869b42490189708df10dba","name":"伏見北堀公園","contact":{},"location":{"address":"伏見区深草大亀谷五郎太町23","lat":34.94165618244842,"lng":135.78084468841553,"city":"京都市","state":"京都府","country":"Japan"},"categories":[{"id":"4bf58dd8d48988d163941735","name":"Park","pluralName":"Parks","shortName":"Park","icon":{"prefix":"https:\/\/foursquare.com\/img\/categories_v2\/parks_outdoors\/park_","suffix":".png"},"primary":true}],"verified":false,"stats":{"checkinsCount":16,"usersCount":12,"tipCount":0},"likes":{"count":0,"groups":[]},"specials":{"count":0,"items":[]},"hereNow":{"count":0,"groups":[]}},{"id":"4ef45e6b93ad743f5f3de94b","name":"ステーキハウス文琳","contact":{"phone":"+81756415299","formattedPhone":"+81 75-641-5299"},"location":{"address":"大亀谷大山町85-2","lat":34.945369706800896,"lng":135.78227698802948,"postalCode":"612-0847","city":"京都市伏見区","state":"京都府","country":"Japan"},"categories":[{"id":"4bf58dd8d48988d1cc941735","name":"Steakhouse","pluralName":"Steakhouses","shortName":"Steakhouse","icon":{"prefix":"https:\/\/foursquare.com\/img\/categories_v2\/food\/steakhouse_","suffix":".png"},"primary":true}],"verified":false,"stats":{"checkinsCount":4,"usersCount":4,"tipCount":1},"likes":{"count":0,"groups":[]},"specials":{"count":0,"items":[]},"hereNow":{"count":0,"groups":[]}},{"id":"4ee205eb754a44a66d28c843","name":"等泉寺","contact":{"phone":"+81756416586","formattedPhone":"+81 75-641-6586"},"location":{"address":"深草大亀谷敦賀町5","lat":34.94436493912868,"lng":135.7831621170044,"postalCode":"612-0845","city":"京都市伏見区","state":"京都府","country":"Japan"},"categories":[{"id":"4bf58dd8d48988d13a941735","name":"Temple","pluralName":"Temples","shortName":"Temple","icon":{"prefix":"https:\/\/foursquare.com\/img\/categories_v2\/building\/religious_temple_","suffix":".png"},"primary":true}],"verified":false,"stats":{"checkinsCount":2,"usersCount":1,"tipCount":0},"likes":{"count":0,"groups":[]},"specials":{"count":0,"items":[]},"hereNow":{"count":0,"groups":[]}},{"id":"4ec742e09a52756c5573f653","name":"やんちゃ村","contact":{"phone":"+81756429373","formattedPhone":"+81 75-642-9373"},"location":{"address":"京都府京都市伏見区深草大亀谷東安信町２６−４","lat":34.94117917129667,"lng":135.78608698227103,"postalCode":"612-0832","country":"Japan"},"categories":[{"id":"4bf58dd8d48988d16d941735","name":"Café","pluralName":"Cafés","shortName":"Café","icon":{"prefix":"https:\/\/foursquare.com\/img\/categories_v2\/food\/cafe_","suffix":".png"},"primary":true}],"verified":false,"stats":{"checkinsCount":7,"usersCount":2,"tipCount":0},"likes":{"count":0,"groups":[]},"specials":{"count":0,"items":[]},"hereNow":{"count":0,"groups":[]}},{"id":"4b91bed4f964a5205fd433e3","name":"アウトニーズ","contact":{},"location":{"lat":34.941392,"lng":135.786188,"country":"Japan"},"categories":[],"verified":false,"stats":{"checkinsCount":7,"usersCount":2,"tipCount":0},"likes":{"count":0,"groups":[]},"specials":{"count":0,"items":[]},"hereNow":{"count":0,"groups":[]}},{"id":"4ec741bb61af9e142f800955","name":"やんちゃ村","contact":{"phone":"+81756429373","formattedPhone":"+81 75-642-9373"},"location":{"address":"26-4","crossStreet":"深草大亀谷東安信町","lat":34.941241,"lng":135.78583,"postalCode":"6120832","city":"京都市伏見区","state":"京都府","country":"Japan"},"categories":[{"id":"4bf58dd8d48988d16d941735","name":"Café","pluralName":"Cafés","shortName":"Café","icon":{"prefix":"https:\/\/foursquare.com\/img\/categories_v2\/food\/cafe_","suffix":".png"},"primary":true}],"verified":false,"stats":{"checkinsCount":0,"usersCount":0,"tipCount":0},"likes":{"count":0,"groups":[]},"specials":{"count":0,"items":[]},"hereNow":{"count":0,"groups":[]}}]}}
