{"meta":{"code":200},"response":{"venues":[{"id":"4d808894208a548134f77567","name":"サークルK 伏見醍醐大構店","contact":{"phone":"+81755752787","formattedPhone":"+81 75-575-2787"},"location":{"address":"醍醐大構町26-3","lat":34.947944230352135,"lng":135.81019341945648,"postalCode":"601-1366","city":"京都市伏見区","state":"京都府","country":"Japan"},"categories":[{"id":"4d954b0ea243a5684a65b473","name":"Convenience Store","pluralName":"Convenience Stores","shortName":"Convenience Stores","icon":{"prefix":"https:\/\/foursquare.com\/img\/categories_v2\/shops\/conveniencestore_","suffix":".png"},"primary":true}],"verified":false,"stats":{"checkinsCount":32,"usersCount":15,"tipCount":0},"likes":{"count":0,"groups":[]},"specials":{"count":0,"items":[]},"hereNow":{"count":0,"groups":[]}},{"id":"4d2539f53574a14368794cd1","name":"キリン堂醍醐店","contact":{},"location":{"lat":34.94956,"lng":135.81578,"country":"Japan"},"categories":[],"verified":false,"stats":{"checkinsCount":22,"usersCount":7,"tipCount":0},"likes":{"count":0,"groups":[]},"specials":{"count":0,"items":[]},"hereNow":{"count":0,"groups":[]}},{"id":"4d81670b0d5b8cfa071f3f28","name":"サムソン&デリラ Give","contact":{"phone":"+81755719072","formattedPhone":"+81 75-571-9072"},"location":{"lat":34.946447,"lng":135.810649,"city":"Kyoto","state":"Kyoto Prefecture","country":"Japan"},"categories":[{"id":"4bf58dd8d48988d110951735","name":"Salon \/ Barbershop","pluralName":"Salons \/ Barbershops","shortName":"Salon \/ Barbershop","icon":{"prefix":"https:\/\/foursquare.com\/img\/categories_v2\/shops\/salon_barber_","suffix":".png"},"primary":true}],"verified":false,"stats":{"checkinsCount":10,"usersCount":1,"tipCount":0},"likes":{"count":0,"groups":[]},"specials":{"count":0,"items":[]},"hereNow":{"count":0,"groups":[]}},{"id":"4d97d0fd9aec5941b2147664","name":"鳥せい 醍醐店 (torisei daigo ten)","contact":{"phone":"+81755739837","formattedPhone":"+81 75-573-9837"},"location":{"address":"伏見区醍醐高畑町21-13","lat":34.94959531264228,"lng":135.81144601106644,"city":"京都市","state":"京都府","country":"Japan"},"categories":[{"id":"4bf58dd8d48988d111941735","name":"Japanese Restaurant","pluralName":"Japanese Restaurants","shortName":"Japanese","icon":{"prefix":"https:\/\/foursquare.com\/img\/categories_v2\/food\/japanese_","suffix":".png"},"primary":true}],"verified":false,"stats":{"checkinsCount":3,"usersCount":3,"tipCount":0},"likes":{"count":0,"groups":[]},"specials":{"count":0,"items":[]},"hereNow":{"count":0,"groups":[]}},{"id":"4d253b6d002f5481187c9ff3","name":"滋賀銀行 醍醐支店","contact":{"phone":"+81755725333","formattedPhone":"+81 75-572-5333"},"location":{"address":"伏見区醍醐御霊ヶ下町21-4","lat":34.94931995136168,"lng":135.81091560423374,"city":"京都市","state":"京都府","country":"Japan"},"categories":[{"id":"4bf58dd8d48988d10a951735","name":"Bank","pluralName":"Banks","shortName":"Bank \/ Financial","icon":{"prefix":"https:\/\/foursquare.com\/img\/categories_v2\/shops\/financial_","suffix":".png"},"primary":true}],"verified":false,"stats":{"checkinsCount":8,"usersCount":3,"tipCount":0},"likes":{"count":0,"groups":[]},"specials":{"count":0,"items":[]},"hereNow":{"count":0,"groups":[]}},{"id":"4cbb0738bac93704a24aef7c","name":"吉野家 外環状線醍醐店","contact":{"phone":"+81755752033","formattedPhone":"+81 75-575-2033"},"location":{"address":"伏見区醍醐大構町15-5","lat":34.94880715034414,"lng":135.8103033900261,"postalCode":"601-1366","city":"京都市","state":"京都府","country":"Japan"},"categories":[{"id":"4bf58dd8d48988d16e941735","name":"Fast Food Restaurant","pluralName":"Fast Food Restaurants","shortName":"Fast Food","icon":{"prefix":"https:\/\/foursquare.com\/img\/categories_v2\/food\/fastfood_","suffix":".png"},"primary":true}],"verified":false,"stats":{"checkinsCount":28,"usersCount":10,"tipCount":0},"likes":{"count":0,"groups":[]},"specials":{"count":0,"items":[]},"hereNow":{"count":0,"groups":[]}},{"id":"4ef4354bb8f77e0f97b5fa8c","name":"イズミセ","contact":{},"location":{"lat":34.948341369628906,"lng":135.81568908691406,"country":"Japan"},"categories":[{"id":"4bf58dd8d48988d186941735","name":"Liquor Store","pluralName":"Liquor Stores","shortName":"Liquor Store","icon":{"prefix":"https:\/\/foursquare.com\/img\/categories_v2\/shops\/food_liquor_","suffix":".png"},"primary":true}],"verified":false,"stats":{"checkinsCount":1,"usersCount":1,"tipCount":0},"likes":{"count":0,"groups":[]},"specials":{"count":0,"items":[]},"hereNow":{"count":0,"groups":[]}},{"id":"4d20741186e154816105ba3a","name":"ドラッグユタカ 醍醐店","contact":{"phone":"+81755741222","formattedPhone":"+81 75-574-1222"},"location":{"address":"伏見区醍醐南里町12番地","lat":34.94695048703265,"lng":135.815327167511,"postalCode":"601-1352","city":"京都市","state":"京都府","country":"Japan"},"categories":[{"id":"4bf58dd8d48988d10f951735","name":"Drugstore \/ Pharmacy","pluralName":"Drugstores \/ Pharmacies","shortName":"Pharmacy","icon":{"prefix":"https:\/\/foursquare.com\/img\/categories_v2\/shops\/pharmacy_","suffix":".png"},"primary":true}],"verified":false,"stats":{"checkinsCount":9,"usersCount":6,"tipCount":0},"likes":{"count":0,"groups":[]},"specials":{"count":0,"items":[]},"hereNow":{"count":0,"groups":[]}},{"id":"4ba6cae8f964a520fd6f39e3","name":"山崎屋","contact":{},"location":{"address":"醍醐池田町8-5","lat":34.946592,"lng":135.813139,"city":"京都市伏見区","state":"京都府","country":"Japan"},"categories":[{"id":"4bf58dd8d48988d16d941735","name":"Café","pluralName":"Cafés","shortName":"Café","icon":{"prefix":"https:\/\/foursquare.com\/img\/categories_v2\/food\/cafe_","suffix":".png"},"primary":true}],"verified":false,"stats":{"checkinsCount":3,"usersCount":2,"tipCount":0},"likes":{"count":0,"groups":[]},"specials":{"count":0,"items":[]},"hereNow":{"count":0,"groups":[]}},{"id":"4ea6368ef7901bf0ae0faeb2","name":"ビストロオブリン","contact":{},"location":{"lat":34.945054,"lng":135.813287,"country":"Japan"},"categories":[{"id":"4bf58dd8d48988d10c941735","name":"French Restaurant","pluralName":"French Restaurants","shortName":"French","icon":{"prefix":"https:\/\/foursquare.com\/img\/categories_v2\/food\/french_","suffix":".png"},"primary":true}],"verified":false,"stats":{"checkinsCount":1,"usersCount":1,"tipCount":0},"likes":{"count":0,"groups":[]},"specials":{"count":0,"items":[]},"hereNow":{"count":0,"groups":[]}},{"id":"4ca8614476d3a0938e2f156b","name":"時代屋","contact":{},"location":{"lat":34.945978,"lng":135.812568,"country":"Japan"},"categories":[{"id":"4bf58dd8d48988d110951735","name":"Salon \/ Barbershop","pluralName":"Salons \/ Barbershops","shortName":"Salon \/ Barbershop","icon":{"prefix":"https:\/\/foursquare.com\/img\/categories_v2\/shops\/salon_barber_","suffix":".png"},"primary":true}],"verified":false,"stats":{"checkinsCount":1,"usersCount":1,"tipCount":0},"likes":{"count":0,"groups":[]},"specials":{"count":0,"items":[]},"hereNow":{"count":0,"groups":[]}},{"id":"4fc856b1e4b031d74b519922","name":"醍醐高畑交差点","contact":{},"location":{"address":"京都府京都市伏見区醍醐高畑町","lat":34.94946840335293,"lng":135.81028365046078,"country":"Japan"},"categories":[{"id":"4bf58dd8d48988d1f9931735","name":"Road","pluralName":"Roads","shortName":"Road","icon":{"prefix":"https:\/\/foursquare.com\/img\/categories_v2\/travel\/highway_","suffix":".png"},"primary":true}],"verified":false,"stats":{"checkinsCount":4,"usersCount":2,"tipCount":0},"likes":{"count":0,"groups":[]},"specials":{"count":0,"items":[]},"hereNow":{"count":0,"groups":[]}},{"id":"4e8303e54690ac9d4a120bbe","name":"醍醐バスターミナル","contact":{},"location":{"lat":34.94990585500491,"lng":135.8108210816416,"city":"京都市","state":"京都府","country":"Japan"},"categories":[{"id":"4bf58dd8d48988d1fe931735","name":"Bus Station","pluralName":"Bus Stations","shortName":"Bus Station","icon":{"prefix":"https:\/\/foursquare.com\/img\/categories_v2\/travel\/busstation_","suffix":".png"},"primary":true}],"verified":false,"stats":{"checkinsCount":16,"usersCount":11,"tipCount":0},"likes":{"count":0,"groups":[]},"specials":{"count":0,"items":[]},"hereNow":{"count":0,"groups":[]}},{"id":"4be4cb0e910020a1ed4bd214","name":"醍醐渡辺クリニック","contact":{},"location":{"address":"伏見区醍醐高畑町30-15","lat":34.94972,"lng":135.810281,"city":"京都市","state":"京都府","country":"Japan"},"categories":[],"verified":false,"stats":{"checkinsCount":21,"usersCount":6,"tipCount":0},"likes":{"count":0,"groups":[]},"specials":{"count":0,"items":[]},"hereNow":{"count":0,"groups":[]}},{"id":"4d86e6ef61676dcb26a6a9e4","name":"フラワーショップＫＡＺ","contact":{},"location":{"address":"京都府京都市伏見区醍醐高畑町１−３７","lat":34.94991,"lng":135.810535,"postalCode":"〒601-1375","city":"Kyoto","state":"Kyoto Prefecture","country":"Japan"},"categories":[{"id":"4bf58dd8d48988d11b951735","name":"Flower Shop","pluralName":"Flower Shops","shortName":"Flower Shop","icon":{"prefix":"https:\/\/foursquare.com\/img\/categories_v2\/shops\/flowershop_","suffix":".png"},"primary":true}],"verified":false,"stats":{"checkinsCount":2,"usersCount":1,"tipCount":0},"likes":{"count":0,"groups":[]},"specials":{"count":0,"items":[]},"hereNow":{"count":0,"groups":[]}},{"id":"4d36704248098cfa50ce4617","name":"マツノキ薬局","contact":{},"location":{"lat":34.949643,"lng":135.810314,"country":"Japan"},"categories":[],"verified":false,"stats":{"checkinsCount":2,"usersCount":1,"tipCount":0},"likes":{"count":0,"groups":[]},"specials":{"count":0,"items":[]},"hereNow":{"count":0,"groups":[]}},{"id":"4e12a1c1b0fbfef99b9c6ee8","name":"パセオダイゴロー 郵便局","contact":{"phone":"+81755729777","formattedPhone":"+81 75-572-9777"},"location":{"address":"伏見区醍醐高畑町30-1","lat":34.949909696047456,"lng":135.81020951271057,"postalCode":"601-1375","city":"京都市","state":"京都府","country":"Japan"},"categories":[{"id":"4bf58dd8d48988d172941735","name":"Post Office","pluralName":"Post Offices","shortName":"Post Office","icon":{"prefix":"https:\/\/foursquare.com\/img\/categories_v2\/building\/postoffice_","suffix":".png"},"primary":true}],"verified":false,"stats":{"checkinsCount":5,"usersCount":3,"tipCount":0},"likes":{"count":0,"groups":[]},"specials":{"count":0,"items":[]},"hereNow":{"count":0,"groups":[]}}]}}
