{"meta":{"code":200},"response":{"venues":[{"id":"4dd4df68d22d8e00fcd31dd4","name":"コジマ NEW伏見店","contact":{"phone":"+81756034413","formattedPhone":"+81 75-603-4413"},"location":{"address":"横大路芝生1","lat":34.930767485129415,"lng":135.74546098709106,"postalCode":"612-8246","city":"京都市伏見区","state":"京都府","country":"Japan"},"categories":[{"id":"4bf58dd8d48988d122951735","name":"Electronics Store","pluralName":"Electronics Stores","shortName":"Electronics","icon":{"prefix":"https:\/\/foursquare.com\/img\/categories_v2\/shops\/technology_","suffix":".png"},"primary":true}],"verified":false,"stats":{"checkinsCount":40,"usersCount":24,"tipCount":1},"likes":{"count":0,"groups":[]},"specials":{"count":0,"items":[]},"hereNow":{"count":0,"groups":[]}},{"id":"4b77a052f964a52095a42ee3","name":"スズキアリーナ伏見新堀川","contact":{"phone":"+81756028001","formattedPhone":"+81 75-602-8001"},"location":{"address":"伏見区下鳥羽但馬町136","lat":34.9315635172253,"lng":135.75057864189148,"postalCode":"612-8208","city":"京都市","state":"京都府","country":"Japan"},"categories":[{"id":"4eb1c1623b7b52c0e1adc2ec","name":"Car Dealership","pluralName":"Car Dealerships","shortName":"Car Dealer","icon":{"prefix":"https:\/\/foursquare.com\/img\/categories_v2\/shops\/automotive_","suffix":".png"},"primary":true}],"verified":false,"stats":{"checkinsCount":20,"usersCount":3,"tipCount":0},"likes":{"count":0,"groups":[]},"specials":{"count":0,"items":[]},"hereNow":{"count":0,"groups":[]}},{"id":"4f488ea0e4b03377e75e85d3","name":"アプローチ京都店","contact":{},"location":{"lat":34.935613,"lng":135.74658,"country":"Japan"},"categories":[{"id":"4f4528bc4b90abdf24c9de85","name":"Sport","pluralName":"Sports","shortName":"Sport","icon":{"prefix":"https:\/\/foursquare.com\/img\/categories_v2\/shops\/sports_outdoors_","suffix":".png"},"primary":true}],"verified":false,"stats":{"checkinsCount":1,"usersCount":1,"tipCount":0},"likes":{"count":0,"groups":[]},"specials":{"count":0,"items":[]},"hereNow":{"count":0,"groups":[]}},{"id":"4e0f0f09d4c0f6d6b3ffdc60","name":"エイガノセカイ","contact":{},"location":{"lat":34.935804,"lng":135.750832,"city":"京都市","state":"京都府","country":"Japan"},"categories":[{"id":"4bf58dd8d48988d17e941735","name":"Indie Movie Theater","pluralName":"Indie Movie Theaters","shortName":"Indie Theater","icon":{"prefix":"https:\/\/foursquare.com\/img\/categories_v2\/arts_entertainment\/movietheater_indietheater_","suffix":".png"},"primary":true}],"verified":false,"stats":{"checkinsCount":56,"usersCount":5,"tipCount":0},"likes":{"count":0,"groups":[]},"specials":{"count":0,"items":[]},"hereNow":{"count":0,"groups":[]}},{"id":"4bb7e6bc3db7b71373c0209a","name":"シャトレーゼ　新堀川店","contact":{"phone":"+81756217041","formattedPhone":"+81 75-621-7041"},"location":{"address":"横大路下三栖辻堂町1","crossStreet":"新堀川通","lat":34.930352,"lng":135.750618,"postalCode":"612-8241","city":"京都市伏見区","state":"京都府","country":"Japan"},"categories":[{"id":"4bf58dd8d48988d1bc941735","name":"Cupcake Shop","pluralName":"Cupcake Shops","shortName":"Cupcakes","icon":{"prefix":"https:\/\/foursquare.com\/img\/categories_v2\/food\/cupcakes_","suffix":".png"},"primary":true}],"verified":false,"stats":{"checkinsCount":24,"usersCount":16,"tipCount":0},"likes":{"count":0,"groups":[]},"specials":{"count":0,"items":[]},"hereNow":{"count":0,"groups":[]}},{"id":"4f9de69ce4b0e1cb003801c8","name":"京都ダイハツ 伏見新堀川店","contact":{},"location":{"lat":34.930893046056404,"lng":135.751397480944,"country":"Japan"},"categories":[{"id":"4bf58dd8d48988d124951735","name":"Automotive Shop","pluralName":"Automotive Shops","shortName":"Automotive","icon":{"prefix":"https:\/\/foursquare.com\/img\/categories_v2\/shops\/automotive_","suffix":".png"},"primary":true}],"verified":false,"stats":{"checkinsCount":3,"usersCount":1,"tipCount":0},"likes":{"count":0,"groups":[]},"specials":{"count":0,"items":[]},"hereNow":{"count":0,"groups":[]}},{"id":"4e210d191838712abe6e4510","name":"Mac-House 新堀川店","contact":{},"location":{"lat":34.93633324433889,"lng":135.75090699117501,"city":"京都市","state":"京都府","country":"Japan"},"categories":[{"id":"4bf58dd8d48988d103951735","name":"Clothing Store","pluralName":"Clothing Stores","shortName":"Apparel","icon":{"prefix":"https:\/\/foursquare.com\/img\/categories_v2\/shops\/apparel_","suffix":".png"},"primary":true}],"verified":false,"stats":{"checkinsCount":4,"usersCount":2,"tipCount":0},"likes":{"count":0,"groups":[]},"specials":{"count":0,"items":[]},"hereNow":{"count":0,"groups":[]}},{"id":"4ba4b677f964a5205eae38e3","name":"ジョーシン 伏見店","contact":{"phone":"+81756051711","formattedPhone":"+81 75-605-1711"},"location":{"address":"下鳥羽但馬町101","lat":34.93234634788577,"lng":135.74832558631897,"postalCode":"612-8208","city":"京都市伏見区","state":"京都府","country":"Japan"},"categories":[{"id":"4bf58dd8d48988d122951735","name":"Electronics Store","pluralName":"Electronics Stores","shortName":"Electronics","icon":{"prefix":"https:\/\/foursquare.com\/img\/categories_v2\/shops\/technology_","suffix":".png"},"primary":true}],"verified":false,"stats":{"checkinsCount":126,"usersCount":60,"tipCount":0},"likes":{"count":0,"groups":[]},"specials":{"count":0,"items":[]},"hereNow":{"count":0,"groups":[]}},{"id":"4c7e29a5b53db1f7bc199f11","name":"野人焼きそば","contact":{"phone":"+81756035115","formattedPhone":"+81 75-603-5115"},"location":{"address":"下鳥羽但馬町163","lat":34.932285558788365,"lng":135.7488016443516,"postalCode":"612-8208","city":"京都市伏見区","state":"京都府","country":"Japan"},"categories":[{"id":"4bf58dd8d48988d1c4941735","name":"Restaurant","pluralName":"Restaurants","shortName":"Other - Food","icon":{"prefix":"https:\/\/foursquare.com\/img\/categories_v2\/food\/default_","suffix":".png"},"primary":true}],"verified":false,"stats":{"checkinsCount":38,"usersCount":7,"tipCount":0},"likes":{"count":0,"groups":[]},"specials":{"count":0,"items":[]},"hereNow":{"count":0,"groups":[]}},{"id":"4dfdb74a62e1a52ce91549d4","name":"風風亭 伏見店","contact":{},"location":{"lat":34.932504,"lng":135.749016,"country":"Japan"},"categories":[{"id":"4bf58dd8d48988d1df931735","name":"BBQ Joint","pluralName":"BBQ Joints","shortName":"BBQ","icon":{"prefix":"https:\/\/foursquare.com\/img\/categories_v2\/food\/bbq_","suffix":".png"},"primary":true}],"verified":false,"stats":{"checkinsCount":1,"usersCount":1,"tipCount":0},"likes":{"count":0,"groups":[]},"specials":{"count":0,"items":[]},"hereNow":{"count":0,"groups":[]}},{"id":"4d268724467d6ea82ef8b495","name":"黄桜","contact":{},"location":{"lat":34.931115,"lng":135.747918,"country":"Japan"},"categories":[{"id":"4bf58dd8d48988d124941735","name":"Office","pluralName":"Offices","shortName":"Corporate \/ Office","icon":{"prefix":"https:\/\/foursquare.com\/img\/categories_v2\/building\/default_","suffix":".png"},"primary":true}],"verified":false,"stats":{"checkinsCount":1,"usersCount":1,"tipCount":0},"likes":{"count":0,"groups":[]},"hereNow":{"count":0,"groups":[]}},{"id":"4b95bef7f964a520b8b134e3","name":"蘇生会総合病院","contact":{"phone":"+81756213101","formattedPhone":"+81 75-621-3101"},"location":{"address":"伏見区下鳥羽広長町101","lat":34.93313196480891,"lng":135.74566461889364,"city":"京都市","state":"京都府","country":"Japan"},"categories":[{"id":"4bf58dd8d48988d196941735","name":"Hospital","pluralName":"Hospitals","shortName":"Hospital","icon":{"prefix":"https:\/\/foursquare.com\/img\/categories_v2\/building\/medical_hospital_","suffix":".png"},"primary":true}],"verified":false,"stats":{"checkinsCount":119,"usersCount":32,"tipCount":0},"url":"http:\/\/www.soseikai.or.jp","likes":{"count":0,"groups":[]},"specials":{"count":0,"items":[]},"hereNow":{"count":0,"groups":[]}},{"id":"4f7cfe36e4b0f10f3c5cb41d","name":"フラワー薬局 下鳥羽店","contact":{"phone":"+81756234193","formattedPhone":"+81 75-623-4193"},"location":{"address":"伏見区下鳥羽上三栖町133","lat":34.933505,"lng":135.746195,"city":"京都市","state":"京都府","country":"Japan"},"categories":[{"id":"4bf58dd8d48988d10f951735","name":"Drugstore \/ Pharmacy","pluralName":"Drugstores \/ Pharmacies","shortName":"Pharmacy","icon":{"prefix":"https:\/\/foursquare.com\/img\/categories_v2\/shops\/pharmacy_","suffix":".png"},"primary":true}],"verified":false,"stats":{"checkinsCount":3,"usersCount":1,"tipCount":0},"likes":{"count":0,"groups":[]},"specials":{"count":0,"items":[]},"hereNow":{"count":0,"groups":[]}},{"id":"4efd6f1e8231bcb7018885eb","name":"セブンイレブン 京都蘇生会病院店","contact":{"phone":"99","formattedPhone":"99"},"location":{"address":"京都市伏見区","lat":34.93340993939982,"lng":135.74593296992057,"country":"Japan"},"categories":[{"id":"4d954b0ea243a5684a65b473","name":"Convenience Store","pluralName":"Convenience Stores","shortName":"Convenience Stores","icon":{"prefix":"https:\/\/foursquare.com\/img\/categories_v2\/shops\/conveniencestore_","suffix":".png"},"primary":true}],"verified":false,"stats":{"checkinsCount":6,"usersCount":4,"tipCount":0},"likes":{"count":0,"groups":[]},"specials":{"count":0,"items":[]},"hereNow":{"count":0,"groups":[]}},{"id":"4d578071bdac60fcd1c888d0","name":"ローソン 下鳥羽上三栖店","contact":{"phone":"+81756051950","formattedPhone":"+81 75-605-1950","twitter":"akiko_lawson"},"location":{"address":"下鳥羽上三栖町138","lat":34.93253655701649,"lng":135.7466720044613,"city":"京都市伏見区","state":"京都府","country":"Japan"},"categories":[{"id":"4d954b0ea243a5684a65b473","name":"Convenience Store","pluralName":"Convenience Stores","shortName":"Convenience Stores","icon":{"prefix":"https:\/\/foursquare.com\/img\/categories_v2\/shops\/conveniencestore_","suffix":".png"},"primary":true}],"verified":true,"stats":{"checkinsCount":5,"usersCount":5,"tipCount":0},"likes":{"count":0,"groups":[]},"specials":{"count":0,"items":[]},"hereNow":{"count":0,"groups":[]}},{"id":"4d882967bc848cfa508da72b","name":"アイン薬局 伏見店","contact":{},"location":{"address":"伏見区下鳥羽上三栖町128","lat":34.933537,"lng":135.745652,"city":"京都市","state":"京都府","country":"Japan"},"categories":[{"id":"4bf58dd8d48988d10f951735","name":"Drugstore \/ Pharmacy","pluralName":"Drugstores \/ Pharmacies","shortName":"Pharmacy","icon":{"prefix":"https:\/\/foursquare.com\/img\/categories_v2\/shops\/pharmacy_","suffix":".png"},"primary":true}],"verified":false,"stats":{"checkinsCount":5,"usersCount":2,"tipCount":0},"likes":{"count":0,"groups":[]},"specials":{"count":0,"items":[]},"hereNow":{"count":0,"groups":[]}},{"id":"4cedf4e00acea35df642e7ae","name":"麺や もったいない","contact":{},"location":{"address":"伏見区","lat":34.932654,"lng":135.74596889,"city":"京都市","country":"Japan"},"categories":[{"id":"4bf58dd8d48988d1d1941735","name":"Ramen \/  Noodle House","pluralName":"Ramen \/  Noodle House","shortName":"Ramen \/ Noodles","icon":{"prefix":"https:\/\/foursquare.com\/img\/categories_v2\/food\/ramen_","suffix":".png"},"primary":true}],"verified":false,"stats":{"checkinsCount":31,"usersCount":27,"tipCount":0},"likes":{"count":0,"groups":[]},"specials":{"count":0,"items":[]},"hereNow":{"count":0,"groups":[]}},{"id":"4f2388336d863d628eae1207","name":"国道大手筋 バス停","contact":{},"location":{"address":"伏見区下鳥羽上三栖町","crossStreet":"市バス19・20・22・南3・南8系統","lat":34.93270587575601,"lng":135.74594110250473,"city":"京都市","state":"京都府","country":"Japan"},"categories":[{"id":"4bf58dd8d48988d1fe931735","name":"Bus Station","pluralName":"Bus Stations","shortName":"Bus Station","icon":{"prefix":"https:\/\/foursquare.com\/img\/categories_v2\/travel\/busstation_","suffix":".png"},"primary":true}],"verified":false,"stats":{"checkinsCount":1,"usersCount":1,"tipCount":0},"likes":{"count":0,"groups":[]},"specials":{"count":0,"items":[]},"hereNow":{"count":0,"groups":[]}},{"id":"4df18b9e45dd4e2693388f28","name":"COCONUTS CLUB","contact":{},"location":{"lat":34.931904,"lng":135.745438,"city":"Kyoto","state":"Kyoto Prefecture","country":"Japan"},"categories":[{"id":"4bf58dd8d48988d1c4941735","name":"Restaurant","pluralName":"Restaurants","shortName":"Other - Food","icon":{"prefix":"https:\/\/foursquare.com\/img\/categories_v2\/food\/default_","suffix":".png"},"primary":true}],"verified":false,"stats":{"checkinsCount":1,"usersCount":1,"tipCount":0},"likes":{"count":0,"groups":[]},"specials":{"count":0,"items":[]},"hereNow":{"count":0,"groups":[]}}]}}
