{"meta":{"code":200},"response":{"venues":[{"id":"4d53777b8652224bc47ad0d7","name":"サンクス 吉祥院蒔絵店","contact":{"phone":"+81756921098","formattedPhone":"+81 75-692-1098"},"location":{"address":"南区吉祥院蒔絵南町8番","lat":34.96558556588656,"lng":135.73816806077957,"postalCode":"601-8345","city":"京都市","state":"京都府","country":"Japan"},"categories":[{"id":"4d954b0ea243a5684a65b473","name":"Convenience Store","pluralName":"Convenience Stores","shortName":"Convenience Stores","icon":{"prefix":"https:\/\/foursquare.com\/img\/categories_v2\/shops\/conveniencestore_","suffix":".png"},"primary":true}],"verified":false,"stats":{"checkinsCount":5,"usersCount":4,"tipCount":0},"likes":{"count":0,"groups":[]},"specials":{"count":0,"items":[]},"hereNow":{"count":0,"groups":[]}},{"id":"4f08057ae4b07c8f8baf08ff","name":"ヒーローズ","contact":{"phone":"+81756936500","formattedPhone":"+81 75-693-6500"},"location":{"address":"601-8186","crossStreet":"上鳥羽戒光町1","lat":34.96637226460234,"lng":135.73928016122025,"city":"京都","state":"南区","country":"Japan"},"categories":[{"id":"4eb1c1623b7b52c0e1adc2ec","name":"Car Dealership","pluralName":"Car Dealerships","shortName":"Car Dealer","icon":{"prefix":"https:\/\/foursquare.com\/img\/categories_v2\/shops\/automotive_","suffix":".png"},"primary":true}],"verified":false,"stats":{"checkinsCount":3,"usersCount":1,"tipCount":0},"likes":{"count":0,"groups":[]},"specials":{"count":0,"items":[]},"hereNow":{"count":0,"groups":[]}},{"id":"4f421c6c121d9bea6d44118d","name":"上ノ町 バス停(北行きのりば)","contact":{},"location":{"address":"南区上鳥羽南中ノ坪町","crossStreet":"市バス18・特18系統","lat":34.96836331796239,"lng":135.7410266250372,"city":"京都市","state":"京都府","country":"Japan"},"categories":[{"id":"4bf58dd8d48988d1fe931735","name":"Bus Station","pluralName":"Bus Stations","shortName":"Bus Station","icon":{"prefix":"https:\/\/foursquare.com\/img\/categories_v2\/travel\/busstation_","suffix":".png"},"primary":true}],"verified":false,"stats":{"checkinsCount":0,"usersCount":0,"tipCount":0},"likes":{"count":0,"groups":[]},"specials":{"count":0,"items":[]},"hereNow":{"count":0,"groups":[]}},{"id":"4f421ce1121d9bea6d44197f","name":"上ノ町 バス停(南行きのりば)","contact":{},"location":{"address":"南区上鳥羽北村山町","crossStreet":"市バス18・特18系統","lat":34.96727640660555,"lng":135.74252732098103,"city":"京都市","state":"京都府","country":"Japan"},"categories":[{"id":"4bf58dd8d48988d1fe931735","name":"Bus Station","pluralName":"Bus Stations","shortName":"Bus Station","icon":{"prefix":"https:\/\/foursquare.com\/img\/categories_v2\/travel\/busstation_","suffix":".png"},"primary":true}],"verified":false,"stats":{"checkinsCount":0,"usersCount":0,"tipCount":0},"likes":{"count":0,"groups":[]},"specials":{"count":0,"items":[]},"hereNow":{"count":0,"groups":[]}},{"id":"4fa1c966e4b01dcd69dbadd3","name":"セブンイレブン 新千本祥鳥橋店","contact":{},"location":{"lat":34.969571,"lng":135.741536,"country":"Japan"},"categories":[{"id":"4d954b0ea243a5684a65b473","name":"Convenience Store","pluralName":"Convenience Stores","shortName":"Convenience Stores","icon":{"prefix":"https:\/\/foursquare.com\/img\/categories_v2\/shops\/conveniencestore_","suffix":".png"},"primary":true}],"verified":false,"stats":{"checkinsCount":1,"usersCount":1,"tipCount":0},"likes":{"count":0,"groups":[]},"specials":{"count":0,"items":[]},"hereNow":{"count":0,"groups":[]}},{"id":"4f421d2e121d9bea6d441eab","name":"上鳥羽村山町 バス停","contact":{},"location":{"address":"南区 上鳥羽北村山町・上鳥羽南村山町","crossStreet":"市バス18・特18・84系統","lat":34.965741628045144,"lng":135.74095286428928,"city":"京都市","state":"京都府","country":"Japan"},"categories":[{"id":"4bf58dd8d48988d1fe931735","name":"Bus Station","pluralName":"Bus Stations","shortName":"Bus Station","icon":{"prefix":"https:\/\/foursquare.com\/img\/categories_v2\/travel\/busstation_","suffix":".png"},"primary":true}],"verified":false,"stats":{"checkinsCount":0,"usersCount":0,"tipCount":0},"likes":{"count":0,"groups":[]},"specials":{"count":0,"items":[]},"hereNow":{"count":0,"groups":[]}},{"id":"4f421bd3121d9bea6d44061e","name":"五丁橋 バス停(南行きのりば)","contact":{},"location":{"address":"南区上鳥羽北中ノ坪町","crossStreet":"市バス18・特18系統","lat":34.97055413135359,"lng":135.74255548417568,"city":"京都市","state":"京都府","country":"Japan"},"categories":[{"id":"4bf58dd8d48988d1fe931735","name":"Bus Station","pluralName":"Bus Stations","shortName":"Bus Station","icon":{"prefix":"https:\/\/foursquare.com\/img\/categories_v2\/travel\/busstation_","suffix":".png"},"primary":true}],"verified":false,"stats":{"checkinsCount":0,"usersCount":0,"tipCount":0},"likes":{"count":0,"groups":[]},"specials":{"count":0,"items":[]},"hereNow":{"count":0,"groups":[]}},{"id":"4f421b29121d9bea6d43fa62","name":"五丁橋 バス停(北行きのりば)","contact":{},"location":{"address":"南区上鳥羽北中ノ坪町","crossStreet":"市バス18・特18系統","lat":34.970296973448825,"lng":135.74109099805355,"city":"京都市","state":"京都府","country":"Japan"},"categories":[{"id":"4bf58dd8d48988d1fe931735","name":"Bus Station","pluralName":"Bus Stations","shortName":"Bus Station","icon":{"prefix":"https:\/\/foursquare.com\/img\/categories_v2\/travel\/busstation_","suffix":".png"},"primary":true}],"verified":false,"stats":{"checkinsCount":0,"usersCount":0,"tipCount":0},"likes":{"count":0,"groups":[]},"specials":{"count":0,"items":[]},"hereNow":{"count":0,"groups":[]}},{"id":"4cf59983d3a8a1cdccabcc43","name":"リリカラ","contact":{},"location":{"lat":34.9705,"lng":135.741173,"country":"Japan"},"categories":[],"verified":false,"stats":{"checkinsCount":1,"usersCount":1,"tipCount":0},"likes":{"count":0,"groups":[]},"specials":{"count":0,"items":[]},"hereNow":{"count":0,"groups":[]}}]}}
