{"meta":{"code":200},"response":{"venues":[{"id":"4d97f566c19fb60cc381a465","name":"醍醐寺 女人堂 (daigo ji nyonin dou)","contact":{"phone":"+81755710002","formattedPhone":"+81 75-571-0002"},"location":{"address":"伏見区醍醐東大路町22","lat":34.95041974208414,"lng":135.82566171884537,"postalCode":"601-1325","city":"京都市","state":"京都府","country":"Japan"},"categories":[{"id":"4bf58dd8d48988d13a941735","name":"Temple","pluralName":"Temples","shortName":"Temple","icon":{"prefix":"https:\/\/foursquare.com\/img\/categories_v2\/building\/religious_temple_","suffix":".png"},"primary":true}],"verified":false,"stats":{"checkinsCount":3,"usersCount":3,"tipCount":2},"likes":{"count":0,"groups":[]},"specials":{"count":0,"items":[]},"hereNow":{"count":0,"groups":[]}},{"id":"4d97cf659aec59417b047664","name":"醍醐寺 伝法院 大講堂 (daigo ji denpou in dai koudou)","contact":{"phone":"+81755710002","formattedPhone":"+81 75-571-0002"},"location":{"address":"伏見区醍醐東大路町22","lat":34.95112764554878,"lng":135.82414627075195,"postalCode":"601-1325","city":"京都市","state":"京都府","country":"Japan"},"categories":[{"id":"4bf58dd8d48988d13a941735","name":"Temple","pluralName":"Temples","shortName":"Temple","icon":{"prefix":"https:\/\/foursquare.com\/img\/categories_v2\/building\/religious_temple_","suffix":".png"},"primary":true}],"verified":false,"stats":{"checkinsCount":1,"usersCount":1,"tipCount":0},"likes":{"count":0,"groups":[]},"specials":{"count":0,"items":[]},"hereNow":{"count":0,"groups":[]}}]}}
