{"meta":{"code":200},"response":{"venues":[{"id":"4cfb0204ee9cb60cf5e78dad","name":"らーめん玄屋","contact":{},"location":{"address":"伏見区東組町698","lat":34.9352151138452,"lng":135.76091675884834,"city":"京都市","state":"京都府","country":"Japan"},"categories":[{"id":"4bf58dd8d48988d1d1941735","name":"Ramen \/  Noodle House","pluralName":"Ramen \/  Noodle House","shortName":"Ramen \/ Noodles","icon":{"prefix":"https:\/\/foursquare.com\/img\/categories_v2\/food\/ramen_","suffix":".png"},"primary":true}],"verified":false,"stats":{"checkinsCount":66,"usersCount":58,"tipCount":3},"likes":{"count":0,"groups":[]},"specials":{"count":0,"items":[]},"hereNow":{"count":0,"groups":[]}},{"id":"4d5f868a29ef236a27fe9959","name":"伏見青少年活動センター","contact":{"phone":"+81756114910","formattedPhone":"+81 75-611-4910"},"location":{"address":"鷹匠町39-2","lat":34.93597457516064,"lng":135.76090287421903,"postalCode":"612-8511","city":"京都市伏見区","state":"京都府","country":"Japan"},"categories":[{"id":"4bf58dd8d48988d19a941735","name":"College Communications Building","pluralName":"College Communications Buildings","shortName":"Communications","icon":{"prefix":"https:\/\/foursquare.com\/img\/categories_v2\/education\/collegeacademicbuildings_communications_","suffix":".png"},"primary":true}],"verified":false,"stats":{"checkinsCount":36,"usersCount":7,"tipCount":2},"likes":{"count":0,"groups":[]},"specials":{"count":0,"items":[]},"hereNow":{"count":0,"groups":[]}},{"id":"4e9bbd2a5c5ce9b9836b5f3f","name":"関西電力 伏見営業所","contact":{},"location":{"lat":34.933982849121094,"lng":135.75843811035156,"country":"Japan"},"categories":[{"id":"4bf58dd8d48988d130941735","name":"Building","pluralName":"Buildings","shortName":"Other - Buildings","icon":{"prefix":"https:\/\/foursquare.com\/img\/categories_v2\/building\/default_","suffix":".png"},"primary":true}],"verified":false,"stats":{"checkinsCount":6,"usersCount":4,"tipCount":0},"likes":{"count":0,"groups":[]},"specials":{"count":0,"items":[]},"hereNow":{"count":0,"groups":[]}},{"id":"4e635f2762e13e3bcf0966cf","name":"ファミリーマート 京都伏見区役所前店","contact":{"phone":"+81756043385","formattedPhone":"+81 75-604-3385"},"location":{"address":"伏見区東組町698","lat":34.934754,"lng":135.760978,"postalCode":"612-8063","city":"京都市","state":"京都府","country":"Japan"},"categories":[{"id":"4d954b0ea243a5684a65b473","name":"Convenience Store","pluralName":"Convenience Stores","shortName":"Convenience Stores","icon":{"prefix":"https:\/\/foursquare.com\/img\/categories_v2\/shops\/conveniencestore_","suffix":".png"},"primary":true}],"verified":false,"stats":{"checkinsCount":23,"usersCount":10,"tipCount":0},"likes":{"count":0,"groups":[]},"specials":{"count":0,"items":[]},"hereNow":{"count":0,"groups":[]}},{"id":"4de844d288774aa92c9bd9ea","name":"花パソ","contact":{"phone":"+81756126099","formattedPhone":"+81 75-612-6099"},"location":{"address":"東町206","lat":34.935378,"lng":135.760259,"city":"Kyoto","state":"Kyoto Prefecture","country":"Japan"},"categories":[{"id":"4bf58dd8d48988d1a2941735","name":"Community College","pluralName":"Community Colleges","shortName":"Community College","icon":{"prefix":"https:\/\/foursquare.com\/img\/categories_v2\/education\/communitycollege_","suffix":".png"},"primary":true}],"verified":false,"stats":{"checkinsCount":2,"usersCount":1,"tipCount":0},"likes":{"count":0,"groups":[]},"specials":{"count":0,"items":[]},"hereNow":{"count":0,"groups":[]}},{"id":"4e1124e6483bee47ff2fef02","name":"三寳寺","contact":{},"location":{"lat":34.934131,"lng":135.760362,"city":"京都市","state":"京都府","country":"Japan"},"categories":[],"verified":false,"stats":{"checkinsCount":1,"usersCount":1,"tipCount":0},"likes":{"count":0,"groups":[]},"specials":{"count":0,"items":[]},"hereNow":{"count":0,"groups":[]}},{"id":"4de8b9ba227148fcea35a932","name":"Ameiro","contact":{"phone":"+81756032282","formattedPhone":"+81 75-603-2282"},"location":{"address":"伏見区肥後町385-16","lat":34.935452,"lng":135.758107,"city":"Kyoto","state":"Kyoto Prefecture","country":"Japan"},"categories":[{"id":"4bf58dd8d48988d116951735","name":"Antique Shop","pluralName":"Antique Shops","shortName":"Antiques","icon":{"prefix":"https:\/\/foursquare.com\/img\/categories_v2\/shops\/antique_","suffix":".png"},"primary":true}],"verified":false,"stats":{"checkinsCount":3,"usersCount":2,"tipCount":0},"likes":{"count":0,"groups":[]},"specials":{"count":0,"items":[]},"hereNow":{"count":0,"groups":[]}},{"id":"4f3839230cd697b1c8eb36a3","name":"肥後町 バス停","contact":{},"location":{"address":"伏見区 肥後町・西町","crossStreet":"市バス81・特81系統","lat":34.93610646968832,"lng":135.75849384069443,"city":"京都市","state":"京都府","country":"Japan"},"categories":[{"id":"4bf58dd8d48988d1fe931735","name":"Bus Station","pluralName":"Bus Stations","shortName":"Bus Station","icon":{"prefix":"https:\/\/foursquare.com\/img\/categories_v2\/travel\/busstation_","suffix":".png"},"primary":true}],"verified":false,"stats":{"checkinsCount":0,"usersCount":0,"tipCount":0},"likes":{"count":0,"groups":[]},"specials":{"count":0,"items":[]},"hereNow":{"count":0,"groups":[]}},{"id":"4d52138cc305b60c0edc961e","name":"ほっかほっか亭 西大手筋店","contact":{"phone":"+81756216866","formattedPhone":"+81 75-621-6866"},"location":{"address":"片原町296-1","crossStreet":"若由ビル","lat":34.934642,"lng":135.758443,"city":"京都市伏見区","state":"京都府","country":"Japan"},"categories":[{"id":"4bf58dd8d48988d146941735","name":"Deli\/Bodega","pluralName":"Delis\/Bodegas","shortName":"Deli \/ Bodega","icon":{"prefix":"https:\/\/foursquare.com\/img\/categories_v2\/food\/deli_","suffix":".png"},"primary":true}],"verified":false,"stats":{"checkinsCount":8,"usersCount":4,"tipCount":0},"likes":{"count":0,"groups":[]},"specials":{"count":0,"items":[]},"hereNow":{"count":0,"groups":[]}},{"id":"4eccd7a461af1f8ac3d1e9d5","name":"Cotelette 洋食屋コートレット","contact":{"phone":"+81756115155","formattedPhone":"+81 75-611-5155"},"location":{"address":"伏見区片原町296-1","lat":34.934718,"lng":135.75856,"city":"京都市","state":"京都府","country":"Japan"},"categories":[{"id":"4bf58dd8d48988d1cc941735","name":"Steakhouse","pluralName":"Steakhouses","shortName":"Steakhouse","icon":{"prefix":"https:\/\/foursquare.com\/img\/categories_v2\/food\/steakhouse_","suffix":".png"},"primary":true}],"verified":false,"stats":{"checkinsCount":15,"usersCount":8,"tipCount":0},"likes":{"count":0,"groups":[]},"specials":{"count":0,"items":[]},"hereNow":{"count":0,"groups":[]}},{"id":"4bd81df235aad13a701690f3","name":"BAR EARTH","contact":{},"location":{"lat":34.934921,"lng":135.758499,"country":"Japan"},"categories":[{"id":"4bf58dd8d48988d116941735","name":"Bar","pluralName":"Bars","shortName":"Bar","icon":{"prefix":"https:\/\/foursquare.com\/img\/categories_v2\/nightlife\/bar_","suffix":".png"},"primary":true}],"verified":false,"stats":{"checkinsCount":3,"usersCount":2,"tipCount":0},"likes":{"count":0,"groups":[]},"specials":{"count":0,"items":[]},"hereNow":{"count":0,"groups":[]}},{"id":"4eb4a74e29c212fb6c147396","name":"風呂屋町商店街","contact":{},"location":{"lat":34.935078831164326,"lng":135.76004203510155,"country":"Japan"},"categories":[{"id":"4bf58dd8d48988d1fd941735","name":"Mall","pluralName":"Malls","shortName":"Mall","icon":{"prefix":"https:\/\/foursquare.com\/img\/categories_v2\/shops\/mall_","suffix":".png"},"primary":true}],"verified":false,"stats":{"checkinsCount":16,"usersCount":5,"tipCount":0},"likes":{"count":0,"groups":[]},"specials":{"count":0,"items":[]},"hereNow":{"count":0,"groups":[]}},{"id":"4ea7b8e7d3e33e1d4f0ef8bc","name":"ハローワーク伏見","contact":{"phone":"+81756028609","formattedPhone":"+81 75-602-8609"},"location":{"address":"風呂屋町232","lat":34.934893,"lng":135.75969,"postalCode":"612-8058","city":"京都市伏見区","state":"京都府","country":"Japan"},"categories":[{"id":"4bf58dd8d48988d126941735","name":"Government Building","pluralName":"Government Buildings","shortName":"Government","icon":{"prefix":"https:\/\/foursquare.com\/img\/categories_v2\/building\/government_","suffix":".png"},"primary":true}],"verified":false,"stats":{"checkinsCount":13,"usersCount":9,"tipCount":0},"likes":{"count":0,"groups":[]},"specials":{"count":0,"items":[]},"hereNow":{"count":0,"groups":[]}},{"id":"4eb4a685e5fa17fc8672b78f","name":"めん処 今川","contact":{},"location":{"lat":34.934659,"lng":135.759932,"country":"Japan"},"categories":[{"id":"4bf58dd8d48988d1d1941735","name":"Ramen \/  Noodle House","pluralName":"Ramen \/  Noodle House","shortName":"Ramen \/ Noodles","icon":{"prefix":"https:\/\/foursquare.com\/img\/categories_v2\/food\/ramen_","suffix":".png"},"primary":true}],"verified":false,"stats":{"checkinsCount":2,"usersCount":2,"tipCount":0},"likes":{"count":0,"groups":[]},"specials":{"count":0,"items":[]},"hereNow":{"count":0,"groups":[]}},{"id":"4f910017e4b008a8f47a9bff","name":"伏見公共職業安定所","contact":{"phone":"+81756028609","formattedPhone":"+81 75-602-8609"},"location":{"address":"日本","lat":34.93483829985514,"lng":135.76009757263986,"city":"京都市","state":"京都府","country":"Japan"},"categories":[{"id":"4bf58dd8d48988d126941735","name":"Government Building","pluralName":"Government Buildings","shortName":"Government","icon":{"prefix":"https:\/\/foursquare.com\/img\/categories_v2\/building\/government_","suffix":".png"},"primary":true}],"verified":false,"stats":{"checkinsCount":3,"usersCount":1,"tipCount":0},"likes":{"count":0,"groups":[]},"specials":{"count":0,"items":[]},"hereNow":{"count":0,"groups":[]}}]}}
