{"meta":{"code":200},"response":{"venues":[{"id":"4bf5fc8e5efe2d7f4f826634","name":"村田機械 吉祥院事業所","contact":{},"location":{"lat":34.973428,"lng":135.736855,"country":"Japan"},"categories":[{"id":"4bf58dd8d48988d124941735","name":"Office","pluralName":"Offices","shortName":"Corporate \/ Office","icon":{"prefix":"https:\/\/foursquare.com\/img\/categories_v2\/building\/default_","suffix":".png"},"primary":true}],"verified":false,"stats":{"checkinsCount":1,"usersCount":1,"tipCount":0},"likes":{"count":0,"groups":[]},"hereNow":{"count":0,"groups":[]}},{"id":"4b7386c4f964a5209eb22de3","name":"イオン 洛南店","contact":{},"location":{"address":"吉祥院御池町31","lat":34.97531140697489,"lng":135.73585599660873,"postalCode":"601-8327","city":"京都市南区","state":"京都府","country":"Japan"},"categories":[{"id":"4bf58dd8d48988d1fd941735","name":"Mall","pluralName":"Malls","shortName":"Mall","icon":{"prefix":"https:\/\/foursquare.com\/img\/categories_v2\/shops\/mall_","suffix":".png"},"primary":true}],"verified":false,"stats":{"checkinsCount":731,"usersCount":272,"tipCount":3},"likes":{"count":0,"groups":[]},"specials":{"count":0,"items":[]},"hereNow":{"count":0,"groups":[]}},{"id":"4d8592bd50913704b9349a5b","name":"吉祥院天満宮","contact":{},"location":{"address":"南区吉祥院政所町3","crossStreet":"西大路十条西入北","lat":34.97341688171518,"lng":135.73444783687592,"city":"京都市","state":"京都府","country":"Japan"},"categories":[{"id":"4eb1d80a4b900d56c88a45ff","name":"Shrine","pluralName":"Shrines","shortName":"Shrine","icon":{"prefix":"https:\/\/foursquare.com\/img\/categories_v2\/building\/religious_shrine_","suffix":".png"},"primary":true}],"verified":false,"stats":{"checkinsCount":20,"usersCount":12,"tipCount":2},"url":"http:\/\/www.kyoto-16sha.jp\/j_kissyouin.html","likes":{"count":0,"groups":[]},"specials":{"count":0,"items":[]},"hereNow":{"count":0,"groups":[]}},{"id":"4f14ff07e4b0d59e23852ff4","name":"ろざん夢","contact":{},"location":{"address":"日本","lat":34.97403069965579,"lng":135.73591247344754,"city":"京都市","state":"京都府","country":"Japan"},"categories":[{"id":"4bf58dd8d48988d145941735","name":"Chinese Restaurant","pluralName":"Chinese Restaurants","shortName":"Chinese","icon":{"prefix":"https:\/\/foursquare.com\/img\/categories_v2\/food\/chinese_","suffix":".png"},"primary":true}],"verified":false,"stats":{"checkinsCount":2,"usersCount":0,"tipCount":0},"likes":{"count":0,"groups":[]},"specials":{"count":0,"items":[]},"hereNow":{"count":0,"groups":[]}},{"id":"4f1e5b81e4b026f19ade8661","name":"吉祥天女社","contact":{},"location":{"address":"南区吉祥院政所町3","crossStreet":"吉祥院天満宮内","lat":34.973618,"lng":135.734839,"city":"京都市","state":"京都府","country":"Japan"},"categories":[{"id":"4eb1d80a4b900d56c88a45ff","name":"Shrine","pluralName":"Shrines","shortName":"Shrine","icon":{"prefix":"https:\/\/foursquare.com\/img\/categories_v2\/building\/religious_shrine_","suffix":".png"},"primary":true}],"verified":false,"stats":{"checkinsCount":2,"usersCount":1,"tipCount":0},"likes":{"count":0,"groups":[]},"specials":{"count":0,"items":[]},"hereNow":{"count":0,"groups":[]}},{"id":"4f1e590ee4b03ae36523e238","name":"御池之旧跡","contact":{},"location":{"address":"南区吉祥院政所町","lat":34.973764,"lng":135.734656,"city":"京都市","state":"京都府","country":"Japan"},"categories":[{"id":"4deefb944765f83613cdba6e","name":"Historic Site","pluralName":"Historic Sites","shortName":"Historic Site","icon":{"prefix":"https:\/\/foursquare.com\/img\/categories_v2\/arts_entertainment\/historicsite_","suffix":".png"},"primary":true}],"verified":false,"stats":{"checkinsCount":2,"usersCount":1,"tipCount":1},"likes":{"count":0,"groups":[]},"specials":{"count":0,"items":[]},"hereNow":{"count":0,"groups":[]}},{"id":"4e225dbd88774a43b7745d1a","name":"四六時中 和ぐるめ 洛南店","contact":{},"location":{"lat":34.97490033836921,"lng":135.73527411993837,"country":"Japan"},"categories":[{"id":"4bf58dd8d48988d111941735","name":"Japanese Restaurant","pluralName":"Japanese Restaurants","shortName":"Japanese","icon":{"prefix":"https:\/\/foursquare.com\/img\/categories_v2\/food\/japanese_","suffix":".png"},"primary":true}],"verified":false,"stats":{"checkinsCount":2,"usersCount":2,"tipCount":0},"likes":{"count":0,"groups":[]},"specials":{"count":0,"items":[]},"hereNow":{"count":0,"groups":[]}},{"id":"4f5a90d3be7722ef073727b7","name":"吉祥院天満宮前 バス停","contact":{},"location":{"address":"南区 吉祥院落合町・吉祥院御池町","crossStreet":"市バス42・43系統","lat":34.97345204731637,"lng":135.73636293411255,"city":"京都市","state":"京都府","country":"Japan"},"categories":[{"id":"4bf58dd8d48988d1fe931735","name":"Bus Station","pluralName":"Bus Stations","shortName":"Bus Station","icon":{"prefix":"https:\/\/foursquare.com\/img\/categories_v2\/travel\/busstation_","suffix":".png"},"primary":true}],"verified":false,"stats":{"checkinsCount":0,"usersCount":0,"tipCount":0},"likes":{"count":0,"groups":[]},"specials":{"count":0,"items":[]},"hereNow":{"count":0,"groups":[]}},{"id":"4e41fe51d22d38bfd45ee818","name":"手作りハンバーグの店 OAK","contact":{},"location":{"lat":34.975187,"lng":135.735504,"country":"Japan"},"categories":[{"id":"4bf58dd8d48988d1c4941735","name":"Restaurant","pluralName":"Restaurants","shortName":"Other - Food","icon":{"prefix":"https:\/\/foursquare.com\/img\/categories_v2\/food\/default_","suffix":".png"},"primary":true}],"verified":false,"stats":{"checkinsCount":8,"usersCount":6,"tipCount":0},"likes":{"count":0,"groups":[]},"specials":{"count":0,"items":[]},"hereNow":{"count":0,"groups":[]}},{"id":"4d854bc199b78cfa5036cc1f","name":"QBハウス イオン洛南店","contact":{},"location":{"lat":34.975161850015276,"lng":135.73544527185075,"country":"Japan"},"categories":[{"id":"4bf58dd8d48988d110951735","name":"Salon \/ Barbershop","pluralName":"Salons \/ Barbershops","shortName":"Salon \/ Barbershop","icon":{"prefix":"https:\/\/foursquare.com\/img\/categories_v2\/shops\/salon_barber_","suffix":".png"},"primary":true}],"verified":false,"stats":{"checkinsCount":17,"usersCount":8,"tipCount":0},"likes":{"count":0,"groups":[]},"specials":{"count":0,"items":[]},"hereNow":{"count":0,"groups":[]}},{"id":"4c1c755263750f4720a9b667","name":"マクドナルド ジャスコ洛南店","contact":{},"location":{"lat":34.9752454729571,"lng":135.73538661003113,"country":"Japan"},"categories":[{"id":"4bf58dd8d48988d16e941735","name":"Fast Food Restaurant","pluralName":"Fast Food Restaurants","shortName":"Fast Food","icon":{"prefix":"https:\/\/foursquare.com\/img\/categories_v2\/food\/fastfood_","suffix":".png"},"primary":true}],"verified":false,"stats":{"checkinsCount":3,"usersCount":2,"tipCount":0},"likes":{"count":0,"groups":[]},"specials":{"count":0,"items":[]},"hereNow":{"count":0,"groups":[]}},{"id":"4d73691bd976236abc9a1479","name":"スガキヤ 洛南イオン店","contact":{"phone":"+81756919778","formattedPhone":"+81 75-691-9778"},"location":{"address":"南区吉祥院御池町31番地","crossStreet":"イオン洛南SC2階","lat":34.97524107735404,"lng":135.7355797290802,"city":"京都市","state":"京都府","country":"Japan"},"categories":[{"id":"4bf58dd8d48988d1d1941735","name":"Ramen \/  Noodle House","pluralName":"Ramen \/  Noodle House","shortName":"Ramen \/ Noodles","icon":{"prefix":"https:\/\/foursquare.com\/img\/categories_v2\/food\/ramen_","suffix":".png"},"primary":true}],"verified":false,"stats":{"checkinsCount":14,"usersCount":6,"tipCount":0},"likes":{"count":0,"groups":[]},"specials":{"count":0,"items":[]},"hereNow":{"count":0,"groups":[]}},{"id":"4c1c524663750f47097cb667","name":"鎌倉パスタ ジャスコ洛南店","contact":{},"location":{"lat":34.97512239598187,"lng":135.73552072048187,"country":"Japan"},"categories":[{"id":"4bf58dd8d48988d1d1941735","name":"Ramen \/  Noodle House","pluralName":"Ramen \/  Noodle House","shortName":"Ramen \/ Noodles","icon":{"prefix":"https:\/\/foursquare.com\/img\/categories_v2\/food\/ramen_","suffix":".png"},"primary":true}],"verified":false,"stats":{"checkinsCount":2,"usersCount":2,"tipCount":0},"likes":{"count":0,"groups":[]},"specials":{"count":0,"items":[]},"hereNow":{"count":0,"groups":[]}},{"id":"4daa99fe43a1128196fc9e7d","name":"バーミヤン 京都洛南店","contact":{"phone":"+81756931480","formattedPhone":"+81 75-693-1480"},"location":{"address":"吉祥院御池町31","crossStreet":"ジャスコ洛南店1階","lat":34.975148769634984,"lng":135.7358694076538,"postalCode":"601-8327","city":"京都市南区","state":"京都府","country":"Japan"},"categories":[{"id":"4bf58dd8d48988d145941735","name":"Chinese Restaurant","pluralName":"Chinese Restaurants","shortName":"Chinese","icon":{"prefix":"https:\/\/foursquare.com\/img\/categories_v2\/food\/chinese_","suffix":".png"},"primary":true}],"verified":false,"stats":{"checkinsCount":19,"usersCount":17,"tipCount":0},"likes":{"count":0,"groups":[]},"specials":{"count":0,"items":[]},"hereNow":{"count":0,"groups":[]}},{"id":"4f3b83ee6b74626352a903f3","name":"旭屋書店 イオン洛南SC店","contact":{"phone":"+81756924655","formattedPhone":"+81 75-692-4655"},"location":{"address":"吉祥院御池町31","crossStreet":"イオン洛南SC2F","lat":34.9752454729571,"lng":135.73644876480103,"postalCode":"601-8327","city":"京都市南区","state":"京都府","country":"Japan"},"categories":[{"id":"4bf58dd8d48988d114951735","name":"Bookstore","pluralName":"Bookstores","shortName":"Bookstore","icon":{"prefix":"https:\/\/foursquare.com\/img\/categories_v2\/shops\/bookstore_","suffix":".png"},"primary":true}],"verified":false,"stats":{"checkinsCount":3,"usersCount":3,"tipCount":0},"likes":{"count":0,"groups":[]},"specials":{"count":0,"items":[]},"hereNow":{"count":0,"groups":[]}},{"id":"4f3b851b6b74626352a91d10","name":"MUC QUEEN イオン洛南SC店","contact":{"phone":"+81756924606","formattedPhone":"+81 75-692-4606"},"location":{"address":"吉祥院御池町31","crossStreet":"イオン洛南SC1F","lat":34.97543887925878,"lng":135.73655605316162,"postalCode":"601-8327","city":"京都市南区","state":"京都府","country":"Japan"},"categories":[{"id":"4bf58dd8d48988d1e0931735","name":"Coffee Shop","pluralName":"Coffee Shops","shortName":"Coffee Shop","icon":{"prefix":"https:\/\/foursquare.com\/img\/categories_v2\/food\/coffeeshop_","suffix":".png"},"primary":true}],"verified":false,"stats":{"checkinsCount":6,"usersCount":2,"tipCount":1},"likes":{"count":0,"groups":[]},"specials":{"count":0,"items":[]},"hereNow":{"count":0,"groups":[]}},{"id":"4e294cc152b1c37d35ca5756","name":"旭屋書店","contact":{"phone":"+81756924655","formattedPhone":"+81 75-692-4655"},"location":{"address":"南区吉祥院御池町31","crossStreet":"イオン洛南SC２Ｆ","lat":34.97465305348204,"lng":135.73583383523402,"postalCode":"601-8327","city":"京都市","state":"京都府","country":"Japan"},"categories":[{"id":"4bf58dd8d48988d114951735","name":"Bookstore","pluralName":"Bookstores","shortName":"Bookstore","icon":{"prefix":"https:\/\/foursquare.com\/img\/categories_v2\/shops\/bookstore_","suffix":".png"},"primary":true}],"verified":false,"stats":{"checkinsCount":16,"usersCount":8,"tipCount":1},"likes":{"count":0,"groups":[]},"specials":{"count":0,"items":[]},"hereNow":{"count":0,"groups":[]}},{"id":"4c9ef8d20e9bb1f746aeec5f","name":"とんかつ かつ喜 京都洛南店","contact":{},"location":{"address":"吉祥院御池町31","crossStreet":"イオン洛南店２F","lat":34.9749641538848,"lng":135.73577284812927,"city":"南区","state":"Kyoto","country":"Japan"},"categories":[{"id":"4bf58dd8d48988d111941735","name":"Japanese Restaurant","pluralName":"Japanese Restaurants","shortName":"Japanese","icon":{"prefix":"https:\/\/foursquare.com\/img\/categories_v2\/food\/japanese_","suffix":".png"},"primary":true}],"verified":false,"stats":{"checkinsCount":5,"usersCount":5,"tipCount":0},"likes":{"count":0,"groups":[]},"specials":{"count":0,"items":[]},"hereNow":{"count":0,"groups":[]}},{"id":"4e996e0e7ee571e1ee948043","name":"カメラのキタムラ 京都イオン洛南店","contact":{},"location":{"lat":34.9745044155747,"lng":135.73592635079285,"country":"Japan"},"categories":[{"id":"4bf58dd8d48988d122951735","name":"Electronics Store","pluralName":"Electronics Stores","shortName":"Electronics","icon":{"prefix":"https:\/\/foursquare.com\/img\/categories_v2\/shops\/technology_","suffix":".png"},"primary":true}],"verified":false,"stats":{"checkinsCount":9,"usersCount":4,"tipCount":0},"likes":{"count":0,"groups":[]},"specials":{"count":0,"items":[]},"hereNow":{"count":0,"groups":[]}},{"id":"4c039ec70d0e0f47cec7029a","name":"炭火焼肉 やる気","contact":{},"location":{"lat":34.974617,"lng":135.735579,"country":"Japan"},"categories":[{"id":"4bf58dd8d48988d1df931735","name":"BBQ Joint","pluralName":"BBQ Joints","shortName":"BBQ","icon":{"prefix":"https:\/\/foursquare.com\/img\/categories_v2\/food\/bbq_","suffix":".png"},"primary":true}],"verified":false,"stats":{"checkinsCount":10,"usersCount":7,"tipCount":0},"likes":{"count":0,"groups":[]},"specials":{"count":0,"items":[]},"hereNow":{"count":0,"groups":[]}},{"id":"4ce1f41ec4f6a35dbe44de6c","name":"あげてんや ジャスコ洛南店","contact":{"phone":"+81756924652","formattedPhone":"+81 75-692-4652"},"location":{"address":"南区吉祥院御池町31","lat":34.974893823965765,"lng":135.73566555976868,"city":"京都市","state":"京都府","country":"Japan"},"categories":[{"id":"4bf58dd8d48988d111941735","name":"Japanese Restaurant","pluralName":"Japanese Restaurants","shortName":"Japanese","icon":{"prefix":"https:\/\/foursquare.com\/img\/categories_v2\/food\/japanese_","suffix":".png"},"primary":true}],"verified":false,"stats":{"checkinsCount":2,"usersCount":2,"tipCount":0},"likes":{"count":0,"groups":[]},"specials":{"count":0,"items":[]},"hereNow":{"count":0,"groups":[]}},{"id":"4f3b82fe6b74626352a8f195","name":"JEUGIA イオン洛南SC店","contact":{"phone":"+81756931308","formattedPhone":"+81 75-693-1308"},"location":{"address":"吉祥院御池町31　","crossStreet":"イオン洛南SC2F","lat":34.97519272570465,"lng":135.7364273071289,"postalCode":"601-8327","city":"京都市南区","state":"京都府","country":"Japan"},"categories":[{"id":"4bf58dd8d48988d1fe941735","name":"Music Store","pluralName":"Music Stores","shortName":"Music Store","icon":{"prefix":"https:\/\/foursquare.com\/img\/categories_v2\/shops\/music_instruments_","suffix":".png"},"primary":true}],"verified":false,"stats":{"checkinsCount":1,"usersCount":1,"tipCount":0},"likes":{"count":0,"groups":[]},"specials":{"count":0,"items":[]},"hereNow":{"count":0,"groups":[]}},{"id":"4e243c72814d32181a6f1348","name":"ラフィネ　イオン洛南ショッピングセンター店","contact":{"phone":"+81756723780","formattedPhone":"+81 75-672-3780","twitter":"raffine06"},"location":{"address":"京都府京都市南区吉祥院御池町３１","crossStreet":"イオン洛南ショッピングセンター店１F","lat":34.97540371451062,"lng":135.7364058494568,"postalCode":"601-8327","city":"京都市","state":"京都府","country":"Japan"},"categories":[{"id":"4bf58dd8d48988d1ed941735","name":"Spa or Massage","pluralName":"Spas or Massages","shortName":"Spas \/ Massage","icon":{"prefix":"https:\/\/foursquare.com\/img\/categories_v2\/shops\/spa_","suffix":".png"},"primary":true}],"verified":true,"stats":{"checkinsCount":1,"usersCount":1,"tipCount":0},"url":"http:\/\/www.facebook.com\/RelaxationSpace.Raffine","likes":{"count":0,"groups":[]},"specials":{"count":0,"items":[]},"hereNow":{"count":0,"groups":[]}},{"id":"4f3b86726b74626352a93864","name":"オーブン亭 イオン洛南SC店","contact":{"phone":"+81756924696","formattedPhone":"+81 75-692-4696"},"location":{"address":"吉祥院御池町31","crossStreet":"イオン洛南SC2F","lat":34.975333384969026,"lng":135.73659896850586,"postalCode":"601-8327","city":"京都市南区","state":"京都府","country":"Japan"},"categories":[{"id":"4bf58dd8d48988d109941735","name":"Eastern European Restaurant","pluralName":"Eastern European Restaurants","shortName":"Eastern European","icon":{"prefix":"https:\/\/foursquare.com\/img\/categories_v2\/food\/default_","suffix":".png"},"primary":true}],"verified":false,"stats":{"checkinsCount":1,"usersCount":1,"tipCount":0},"likes":{"count":0,"groups":[]},"specials":{"count":0,"items":[]},"hereNow":{"count":0,"groups":[]}},{"id":"4f3b89d46b74626352a97bcf","name":"ミスタードーナツ　イオン洛南ショップ","contact":{"phone":"+81756931461","formattedPhone":"+81 75-693-1461","twitter":"misterdonut_jp"},"location":{"address":"吉祥院御池町31","crossStreet":"イオン洛南SC1F","lat":34.97543887925878,"lng":135.7365345954895,"postalCode":"601-8327","city":"京都市南区","state":"京都府","country":"Japan"},"categories":[{"id":"4bf58dd8d48988d148941735","name":"Donut Shop","pluralName":"Donut Shops","shortName":"Donuts","icon":{"prefix":"https:\/\/foursquare.com\/img\/categories_v2\/food\/donuts_","suffix":".png"},"primary":true}],"verified":false,"stats":{"checkinsCount":1,"usersCount":1,"tipCount":0},"likes":{"count":0,"groups":[]},"specials":{"count":0,"items":[]},"hereNow":{"count":0,"groups":[]}}]}}
