{"meta":{"code":200},"response":{"venues":[{"id":"4c9d5cddca44236a75612099","name":"京田辺市立 松井ケ丘小学校","contact":{"phone":"+81774628888","formattedPhone":"+81 774-62-8888"},"location":{"address":"大住上西野18-2","lat":34.8365965608815,"lng":135.7349681854248,"postalCode":"610-0343","city":"京田辺市","state":"京都府","country":"Japan"},"categories":[{"id":"4bf58dd8d48988d13b941735","name":"School","pluralName":"Schools","shortName":"School","icon":{"prefix":"https:\/\/foursquare.com\/img\/categories_v2\/building\/school_","suffix":".png"},"primary":true}],"verified":false,"stats":{"checkinsCount":21,"usersCount":6,"tipCount":0},"url":"http:\/\/www.kyotanabe.ed.jp\/nc21\/matuigaoka-es\/htdocs\/","likes":{"count":0,"groups":[]},"specials":{"count":0,"items":[]},"hereNow":{"count":0,"groups":[]}},{"id":"4e8fee9cd3e3187fc2b58730","name":"YOSA PARK ローズ 松井山手","contact":{"phone":"+81774635060","formattedPhone":"+81 774-63-5060"},"location":{"address":"松井ヶ丘3-6-8","crossStreet":"2階","lat":34.832174,"lng":135.729854,"city":"京田辺市","state":"京都府","country":"Japan"},"categories":[{"id":"4bf58dd8d48988d1ed941735","name":"Spa or Massage","pluralName":"Spas or Massages","shortName":"Spas \/ Massage","icon":{"prefix":"https:\/\/foursquare.com\/img\/categories_v2\/shops\/spa_","suffix":".png"},"primary":true}],"verified":false,"stats":{"checkinsCount":1,"usersCount":1,"tipCount":0},"likes":{"count":0,"groups":[]},"specials":{"count":0,"items":[]},"hereNow":{"count":0,"groups":[]}},{"id":"4d22757cd7b0b1f7bbad259f","name":"諏訪ケ原公園","contact":{},"location":{"lat":34.838502,"lng":135.733124,"country":"Japan"},"categories":[{"id":"4bf58dd8d48988d163941735","name":"Park","pluralName":"Parks","shortName":"Park","icon":{"prefix":"https:\/\/foursquare.com\/img\/categories_v2\/parks_outdoors\/park_","suffix":".png"},"primary":true}],"verified":false,"stats":{"checkinsCount":2,"usersCount":1,"tipCount":0},"likes":{"count":0,"groups":[]},"specials":{"count":0,"items":[]},"hereNow":{"count":0,"groups":[]}},{"id":"4fa3998ee4b00c5842e91ca7","name":"Raccolta -trattoria-","contact":{},"location":{"lat":34.829865,"lng":135.73275,"country":"Japan"},"categories":[{"id":"4bf58dd8d48988d110941735","name":"Italian Restaurant","pluralName":"Italian Restaurants","shortName":"Italian","icon":{"prefix":"https:\/\/foursquare.com\/img\/categories_v2\/food\/italian_","suffix":".png"},"primary":true}],"verified":false,"stats":{"checkinsCount":1,"usersCount":1,"tipCount":0},"likes":{"count":0,"groups":[]},"specials":{"count":0,"items":[]},"hereNow":{"count":0,"groups":[]}},{"id":"4b766a8ff964a520aa4b2ee3","name":"Patisserie Nature Shiromoto","contact":{},"location":{"address":"山手東1-2-1","lat":34.83314891524871,"lng":135.72842359542847,"city":"京田辺市","state":"京都府","country":"Japan"},"categories":[{"id":"4bf58dd8d48988d1d0941735","name":"Dessert Shop","pluralName":"Dessert Shops","shortName":"Desserts","icon":{"prefix":"https:\/\/foursquare.com\/img\/categories_v2\/food\/dessert_","suffix":".png"},"primary":true}],"verified":false,"stats":{"checkinsCount":39,"usersCount":25,"tipCount":1},"likes":{"count":0,"groups":[]},"specials":{"count":0,"items":[]},"hereNow":{"count":0,"groups":[]}},{"id":"4cb994519552b60c0738d48b","name":"Raccolta","contact":{},"location":{"lat":34.830109,"lng":135.732766,"country":"Japan"},"categories":[],"verified":false,"stats":{"checkinsCount":4,"usersCount":4,"tipCount":0},"likes":{"count":0,"groups":[]},"specials":{"count":0,"items":[]},"hereNow":{"count":0,"groups":[]}},{"id":"4ee72da029c220f9743a5e27","name":"大久保接骨院","contact":{"phone":"+81774624272","formattedPhone":"+81 774-62-4272"},"location":{"address":"松井ケ丘１丁目2－11","lat":34.83110579785984,"lng":135.73142230510712,"city":"京田辺市","state":"京都府","country":"Japan"},"categories":[{"id":"4bf58dd8d48988d177941735","name":"Doctor's Office","pluralName":"Doctor's Offices","shortName":"Doctor's Office","icon":{"prefix":"https:\/\/foursquare.com\/img\/categories_v2\/building\/medical_","suffix":".png"},"primary":true}],"verified":false,"stats":{"checkinsCount":6,"usersCount":1,"tipCount":0},"likes":{"count":0,"groups":[]},"specials":{"count":0,"items":[]},"hereNow":{"count":0,"groups":[]}},{"id":"4e071b041f6e2110338ac6d7","name":"和風創作ダイニング  きらら坂","contact":{"phone":"+81774620555","formattedPhone":"+81 774-62-0555"},"location":{"address":"松井ケ丘4-3-19","lat":34.83105116,"lng":135.73019215,"city":"京田辺市","state":"京都府","country":"Japan"},"categories":[{"id":"4bf58dd8d48988d111941735","name":"Japanese Restaurant","pluralName":"Japanese Restaurants","shortName":"Japanese","icon":{"prefix":"https:\/\/foursquare.com\/img\/categories_v2\/food\/japanese_","suffix":".png"},"primary":true}],"verified":false,"stats":{"checkinsCount":8,"usersCount":7,"tipCount":0},"likes":{"count":0,"groups":[]},"specials":{"count":0,"items":[]},"hereNow":{"count":0,"groups":[]}},{"id":"4e2a5db1b61cd0108369365a","name":"シルキードライ 松井山手店","contact":{"phone":"+81774648000","formattedPhone":"+81 774-64-8000"},"location":{"address":"松井ケ丘3丁目1-1","lat":34.831245,"lng":135.730773,"city":"京田辺市","state":"京都府","country":"Japan"},"categories":[{"id":"4bf58dd8d48988d1fc941735","name":"Laundry Service","pluralName":"Laundry Services","shortName":"Laundry","icon":{"prefix":"https:\/\/foursquare.com\/img\/categories_v2\/shops\/laundry_","suffix":".png"},"primary":true}],"verified":false,"stats":{"checkinsCount":9,"usersCount":2,"tipCount":0},"likes":{"count":0,"groups":[]},"specials":{"count":0,"items":[]},"hereNow":{"count":0,"groups":[]}},{"id":"4bdbb95063c5c9b6ad7a2968","name":"菫珈琲店","contact":{},"location":{"lat":34.830612623998135,"lng":135.7320499420166,"country":"Japan"},"categories":[{"id":"4bf58dd8d48988d16d941735","name":"Café","pluralName":"Cafés","shortName":"Café","icon":{"prefix":"https:\/\/foursquare.com\/img\/categories_v2\/food\/cafe_","suffix":".png"},"primary":true}],"verified":false,"stats":{"checkinsCount":4,"usersCount":3,"tipCount":1},"likes":{"count":0,"groups":[]},"specials":{"count":0,"items":[]},"hereNow":{"count":0,"groups":[]}},{"id":"4f2caac0e4b083c426752bdf","name":"同志社大学デービス記念館","contact":{},"location":{"lat":34.83017996589338,"lng":135.73122678789173,"city":"京田辺市","state":"日本","country":"Japan"},"categories":[{"id":"4bf58dd8d48988d197941735","name":"College Administrative Building","pluralName":"College Administrative Buildings","shortName":"Administrative Building","icon":{"prefix":"https:\/\/foursquare.com\/img\/categories_v2\/education\/administrativebuilding_","suffix":".png"},"primary":true}],"verified":false,"stats":{"checkinsCount":1,"usersCount":1,"tipCount":0},"likes":{"count":0,"groups":[]},"specials":{"count":0,"items":[]},"hereNow":{"count":0,"groups":[]}},{"id":"4e2fb6e9d1646b407b90d7e3","name":"大住中学校","contact":{},"location":{"lat":34.83505629303087,"lng":135.74206515993924,"city":"京田辺市","state":"京都府","country":"Japan"},"categories":[{"id":"4bf58dd8d48988d13b941735","name":"School","pluralName":"Schools","shortName":"School","icon":{"prefix":"https:\/\/foursquare.com\/img\/categories_v2\/building\/school_","suffix":".png"},"primary":true}],"verified":false,"stats":{"checkinsCount":15,"usersCount":3,"tipCount":0},"likes":{"count":0,"groups":[]},"specials":{"count":0,"items":[]},"hereNow":{"count":0,"groups":[]}},{"id":"4e4f1c8f45ddff0031bc3c3b","name":"京田辺市立北部住民センターとうちく","contact":{},"location":{"lat":34.835545,"lng":135.741979,"country":"Japan"},"categories":[{"id":"4bf58dd8d48988d129941735","name":"City Hall","pluralName":"City Halls","shortName":"City Hall","icon":{"prefix":"https:\/\/foursquare.com\/img\/categories_v2\/building\/cityhall_","suffix":".png"},"primary":true}],"verified":false,"stats":{"checkinsCount":14,"usersCount":2,"tipCount":0},"likes":{"count":0,"groups":[]},"specials":{"count":0,"items":[]},"hereNow":{"count":0,"groups":[]}},{"id":"4e618cf9aeb73603148b0c10","name":"月読神社","contact":{},"location":{"address":"大住池平","lat":34.836085262787826,"lng":135.7419448742361,"postalCode":"610-0343","city":"京田辺市","state":"京都府","country":"Japan"},"categories":[{"id":"4eb1d80a4b900d56c88a45ff","name":"Shrine","pluralName":"Shrines","shortName":"Shrine","icon":{"prefix":"https:\/\/foursquare.com\/img\/categories_v2\/building\/religious_shrine_","suffix":".png"},"primary":true}],"verified":false,"stats":{"checkinsCount":6,"usersCount":3,"tipCount":1},"likes":{"count":0,"groups":[]},"specials":{"count":0,"items":[]},"hereNow":{"count":0,"groups":[]}},{"id":"4d5de3061939a35dadda02ee","name":"ファミリーマート 京田辺花住坂店","contact":{"phone":"+81774681353","formattedPhone":"+81 774-68-1353"},"location":{"address":"花住坂2丁目1-1","lat":34.82990258054987,"lng":135.7347670197487,"city":"京田辺市","state":"京都府","country":"Japan"},"categories":[{"id":"4d954b0ea243a5684a65b473","name":"Convenience Store","pluralName":"Convenience Stores","shortName":"Convenience Stores","icon":{"prefix":"https:\/\/foursquare.com\/img\/categories_v2\/shops\/conveniencestore_","suffix":".png"},"primary":true}],"verified":false,"stats":{"checkinsCount":7,"usersCount":5,"tipCount":0},"likes":{"count":0,"groups":[]},"specials":{"count":0,"items":[]},"hereNow":{"count":0,"groups":[]}},{"id":"4e4a579018a83cda37da5218","name":"花住坂ゴルフ21","contact":{"phone":"+81774624812","formattedPhone":"+81 774-62-4812"},"location":{"address":"大住虚空蔵谷8番地","lat":34.82882670278585,"lng":135.73385867096064,"postalCode":"610-0343","city":"京田辺市","state":"京都府","country":"Japan"},"categories":[{"id":"4bf58dd8d48988d1e6941735","name":"Golf Course","pluralName":"Golf Courses","shortName":"Golf Course","icon":{"prefix":"https:\/\/foursquare.com\/img\/categories_v2\/parks_outdoors\/golfcourse_","suffix":".png"},"primary":true}],"verified":false,"stats":{"checkinsCount":18,"usersCount":4,"tipCount":1},"likes":{"count":0,"groups":[]},"specials":{"count":0,"items":[]},"hereNow":{"count":0,"groups":[]}},{"id":"4d60e70e5c39b1f77bdc094a","name":"ほっかほっか亭 松井山手店","contact":{"phone":"+81774681336","formattedPhone":"+81 774-68-1336"},"location":{"address":"花住坂2-2-1","lat":34.82986857984996,"lng":135.7344368721562,"city":"京田辺市","state":"京都府","country":"Japan"},"categories":[{"id":"4bf58dd8d48988d146941735","name":"Deli\/Bodega","pluralName":"Delis\/Bodegas","shortName":"Deli \/ Bodega","icon":{"prefix":"https:\/\/foursquare.com\/img\/categories_v2\/food\/deli_","suffix":".png"},"primary":true}],"verified":false,"stats":{"checkinsCount":2,"usersCount":2,"tipCount":0},"likes":{"count":0,"groups":[]},"specials":{"count":0,"items":[]},"hereNow":{"count":0,"groups":[]}},{"id":"4d04d4f154d0236a7044f1d5","name":"和DINING ハレトケ","contact":{"phone":"+81774655960","formattedPhone":"+81 774-65-5960"},"location":{"address":"大住虚空藏谷5-1","lat":34.829445727652406,"lng":135.73368072509766,"postalCode":"6100343","city":"京田辺市","state":"京都府","country":"Japan"},"categories":[{"id":"4bf58dd8d48988d111941735","name":"Japanese Restaurant","pluralName":"Japanese Restaurants","shortName":"Japanese","icon":{"prefix":"https:\/\/foursquare.com\/img\/categories_v2\/food\/japanese_","suffix":".png"},"primary":true}],"verified":false,"stats":{"checkinsCount":5,"usersCount":5,"tipCount":1},"likes":{"count":0,"groups":[]},"specials":{"count":0,"items":[]},"hereNow":{"count":0,"groups":[]}},{"id":"4e3ded74d164b52911b48bb3","name":"コインランドリー クリーン&グリーン","contact":{},"location":{"lat":34.829217,"lng":135.734367,"city":"京田辺市","state":"京都府","country":"Japan"},"categories":[{"id":"4bf58dd8d48988d1fc941735","name":"Laundry Service","pluralName":"Laundry Services","shortName":"Laundry","icon":{"prefix":"https:\/\/foursquare.com\/img\/categories_v2\/shops\/laundry_","suffix":".png"},"primary":true}],"verified":false,"stats":{"checkinsCount":1,"usersCount":1,"tipCount":0},"likes":{"count":0,"groups":[]},"specials":{"count":0,"items":[]},"hereNow":{"count":0,"groups":[]}},{"id":"4e2a606145dd3272c8076399","name":"コープ京田辺","contact":{"phone":"+81774635840","formattedPhone":"+81 774-63-5840"},"location":{"address":"花住坂1丁目13-6","lat":34.82849458481405,"lng":135.73824048042297,"postalCode":"6100352","city":"京田辺市","state":"京都府","country":"Japan"},"categories":[{"id":"4bf58dd8d48988d118951735","name":"Grocery Store","pluralName":"Grocery Stores","shortName":"Grocery Store","icon":{"prefix":"https:\/\/foursquare.com\/img\/categories_v2\/shops\/food_grocery_","suffix":".png"},"primary":true}],"verified":false,"stats":{"checkinsCount":29,"usersCount":13,"tipCount":1},"likes":{"count":0,"groups":[]},"specials":{"count":0,"items":[]},"hereNow":{"count":0,"groups":[]}},{"id":"4e32927ffa76d813b3dd3251","name":"大住ケ丘第1公民館","contact":{},"location":{"lat":34.831307,"lng":135.741179,"postalCode":"610-0351","city":"京田辺市","country":"Japan"},"categories":[{"id":"4bf58dd8d48988d130941735","name":"Building","pluralName":"Buildings","shortName":"Other - Buildings","icon":{"prefix":"https:\/\/foursquare.com\/img\/categories_v2\/building\/default_","suffix":".png"},"primary":true}],"verified":false,"stats":{"checkinsCount":1,"usersCount":1,"tipCount":0},"likes":{"count":0,"groups":[]},"specials":{"count":0,"items":[]},"hereNow":{"count":0,"groups":[]}},{"id":"4fd81253a17c090a826c3e16","name":"パンこっこ京田辺","contact":{},"location":{"address":"花住坂1丁目13-6","crossStreet":"コープ京田辺","lat":34.82858265405691,"lng":135.7382297515869,"postalCode":"6100352","city":"京田辺市","state":"京都府","country":"Japan"},"categories":[{"id":"4bf58dd8d48988d16a941735","name":"Bakery","pluralName":"Bakeries","shortName":"Bakery","icon":{"prefix":"https:\/\/foursquare.com\/img\/categories_v2\/food\/bakery_","suffix":".png"},"primary":true}],"verified":false,"stats":{"checkinsCount":0,"usersCount":0,"tipCount":0},"likes":{"count":0,"groups":[]},"specials":{"count":0,"items":[]},"hereNow":{"count":0,"groups":[]}}]}}
