{"meta":{"code":200},"response":{"venues":[{"id":"4b580941f964a520544928e3","name":"京阪 丹波橋駅 (Tambabashi Sta.)","contact":{"phone":"+81756110869","formattedPhone":"+81 75-611-0869"},"location":{"address":"伏見区桃山筒井伊賀西町15","lat":34.93874792133662,"lng":135.76536004800417,"postalCode":"612-0073","city":"京都市","state":"京都府","country":"Japan"},"categories":[{"id":"4bf58dd8d48988d129951735","name":"Train Station","pluralName":"Train Stations","shortName":"Train Station","icon":{"prefix":"https:\/\/foursquare.com\/img\/categories_v2\/travel\/trainstation_","suffix":".png"},"primary":true}],"verified":false,"stats":{"checkinsCount":5293,"usersCount":1359,"tipCount":5},"likes":{"count":0,"groups":[]},"specials":{"count":0,"items":[]},"hereNow":{"count":0,"groups":[]}},{"id":"4b59a479f964a520749028e3","name":"近鉄丹波橋駅 (Kintetsu-Tambabashi Sta.)","contact":{},"location":{"address":"伏見区桃山筒井伊賀東町45","lat":34.93849768555388,"lng":135.76631918549538,"city":"京都市","state":"京都府","country":"Japan"},"categories":[{"id":"4bf58dd8d48988d129951735","name":"Train Station","pluralName":"Train Stations","shortName":"Train Station","icon":{"prefix":"https:\/\/foursquare.com\/img\/categories_v2\/travel\/trainstation_","suffix":".png"},"primary":true}],"verified":false,"stats":{"checkinsCount":2784,"usersCount":879,"tipCount":2},"url":"http:\/\/www.kintetsu.co.jp\/station\/station_info\/station05011.html","likes":{"count":0,"groups":[]},"specials":{"count":0,"items":[]},"hereNow":{"count":1,"groups":[{"type":"others","name":"Other people here","count":1,"items":[]}]}},{"id":"4ea37f3ab8f7e4911f166b73","name":"京都市伏見区桃山羽柴長吉中町","contact":{},"location":{"isFuzzed":true,"lat":34.93469751178111,"lng":135.7663158721512,"country":"Japan"},"categories":[{"id":"4bf58dd8d48988d103941735","name":"Home (private)","pluralName":"Homes (private)","shortName":"Home","icon":{"prefix":"https:\/\/foursquare.com\/img\/categories_v2\/building\/home_","suffix":".png"},"primary":true}],"verified":false,"stats":{"checkinsCount":13,"usersCount":1,"tipCount":0},"likes":{"count":0,"groups":[]},"hereNow":{"count":0,"groups":[]}},{"id":"4e994bb661af89f39e262810","name":"朝日理容","contact":{},"location":{"lat":34.938626,"lng":135.764278,"country":"Japan"},"categories":[{"id":"4bf58dd8d48988d110951735","name":"Salon \/ Barbershop","pluralName":"Salons \/ Barbershops","shortName":"Salon \/ Barbershop","icon":{"prefix":"https:\/\/foursquare.com\/img\/categories_v2\/shops\/salon_barber_","suffix":".png"},"primary":true}],"verified":false,"stats":{"checkinsCount":3,"usersCount":2,"tipCount":0},"likes":{"count":0,"groups":[]},"specials":{"count":0,"items":[]},"hereNow":{"count":0,"groups":[]}},{"id":"4f7dbdda77161da045e9fcc9","name":"ゆうちょ銀行 大阪支店 近鉄丹波橋駅内出張所","contact":{},"location":{"address":"伏見区桃山筒井伊賀東町45","crossStreet":"近鉄丹波橋駅 改札前","lat":34.93768083206598,"lng":135.7664680480957,"postalCode":"612-0072","city":"京都市","state":"京都府","country":"Japan"},"categories":[{"id":"4bf58dd8d48988d1fe931735","name":"Bus Station","pluralName":"Bus Stations","shortName":"Bus Station","icon":{"prefix":"https:\/\/foursquare.com\/img\/categories_v2\/travel\/busstation_","suffix":".png"},"primary":true}],"verified":false,"stats":{"checkinsCount":0,"usersCount":0,"tipCount":0},"likes":{"count":0,"groups":[]},"specials":{"count":0,"items":[]},"hereNow":{"count":0,"groups":[]}},{"id":"4fcb413ee4b06d9b85ad999a","name":"弱冷車","contact":{},"location":{"lat":34.939097,"lng":135.765734,"country":"Japan"},"categories":[{"id":"4f2a23984b9023bd5841ed2c","name":"Moving Target","pluralName":"Moving Targets","shortName":"Moving Target","icon":{"prefix":"https:\/\/foursquare.com\/img\/categories_v2\/travel\/movingtarget_","suffix":".png"},"primary":true}],"verified":false,"stats":{"checkinsCount":1,"usersCount":1,"tipCount":0},"likes":{"count":0,"groups":[]},"specials":{"count":0,"items":[]},"hereNow":{"count":0,"groups":[]}},{"id":"4f3c9203e4b0d8b9d9dd88be","name":"京都商工会議所 洛南支部","contact":{},"location":{"lat":34.938720703125,"lng":135.76475524902344,"country":"Japan"},"categories":[{"id":"4bf58dd8d48988d127941735","name":"Conference Room","pluralName":"Conference Rooms","shortName":"Conference room","icon":{"prefix":"https:\/\/foursquare.com\/img\/categories_v2\/building\/office_conferenceroom_","suffix":".png"},"primary":true}],"verified":false,"stats":{"checkinsCount":2,"usersCount":1,"tipCount":0},"likes":{"count":0,"groups":[]},"hereNow":{"count":0,"groups":[]}},{"id":"4dd4c436b0fb7a332e7103e0","name":"呉竹文化センター","contact":{},"location":{"lat":34.93857255073979,"lng":135.76494347204857,"city":"Kyoto","state":"Kyoto Prefecture","country":"Japan"},"categories":[{"id":"4bf58dd8d48988d1e5931735","name":"Music Venue","pluralName":"Music Venues","shortName":"Music Venue","icon":{"prefix":"https:\/\/foursquare.com\/img\/categories_v2\/arts_entertainment\/musicvenue_","suffix":".png"},"primary":true}],"verified":false,"stats":{"checkinsCount":4,"usersCount":4,"tipCount":0},"likes":{"count":0,"groups":[]},"specials":{"count":0,"items":[]},"hereNow":{"count":0,"groups":[]}},{"id":"4da23560d686b60cd036b528","name":"丹波橋タチバナライナー乗車口","contact":{},"location":{"lat":34.938437,"lng":135.766818,"country":"Japan"},"categories":[{"id":"4bf58dd8d48988d197941735","name":"College Administrative Building","pluralName":"College Administrative Buildings","shortName":"Administrative Building","icon":{"prefix":"https:\/\/foursquare.com\/img\/categories_v2\/education\/administrativebuilding_","suffix":".png"},"primary":true}],"verified":false,"stats":{"checkinsCount":34,"usersCount":5,"tipCount":0},"likes":{"count":0,"groups":[]},"specials":{"count":0,"items":[]},"hereNow":{"count":0,"groups":[]}},{"id":"4ef110fba69d0139abe96a3a","name":"舞扇堂","contact":{"phone":"+81756217137","formattedPhone":"+81 75-621-7137"},"location":{"address":"桃山羽柴長吉東町56","lat":34.93837927341589,"lng":135.7665357375599,"city":"京都市伏見区","state":"京都府","country":"Japan"},"categories":[{"id":"4bf58dd8d48988d1fb941735","name":"Hobby Shop","pluralName":"Hobby Shops","shortName":"Hobbies","icon":{"prefix":"https:\/\/foursquare.com\/img\/categories_v2\/shops\/hobbyshop_","suffix":".png"},"primary":true}],"verified":false,"stats":{"checkinsCount":7,"usersCount":2,"tipCount":0},"likes":{"count":0,"groups":[]},"specials":{"count":0,"items":[]},"hereNow":{"count":0,"groups":[]}},{"id":"4d0c4273e0b98cfa4f32d493","name":"魚三楼","contact":{},"location":{"address":"京町3丁目187","lat":34.93813615386584,"lng":135.76633207272565,"city":"京都市伏見区","state":"京都府","country":"Japan"},"categories":[{"id":"4bf58dd8d48988d111941735","name":"Japanese Restaurant","pluralName":"Japanese Restaurants","shortName":"Japanese","icon":{"prefix":"https:\/\/foursquare.com\/img\/categories_v2\/food\/japanese_","suffix":".png"},"primary":true}],"verified":false,"stats":{"checkinsCount":20,"usersCount":6,"tipCount":1},"likes":{"count":0,"groups":[]},"specials":{"count":0,"items":[]},"hereNow":{"count":0,"groups":[]}},{"id":"4ddae6e845dd588c72155b70","name":"京都教育大附属 桃山小学校","contact":{"phone":"+81756110138","formattedPhone":"+81 75-611-0138"},"location":{"address":"桃山筒井伊賀東町46","lat":34.93869227798433,"lng":135.7667577266693,"postalCode":"612-0072","city":"京都市伏見区","state":"京都府","country":"Japan"},"categories":[{"id":"4bf58dd8d48988d13b941735","name":"School","pluralName":"Schools","shortName":"School","icon":{"prefix":"https:\/\/foursquare.com\/img\/categories_v2\/building\/school_","suffix":".png"},"primary":true}],"verified":false,"stats":{"checkinsCount":17,"usersCount":4,"tipCount":0},"likes":{"count":0,"groups":[]},"specials":{"count":0,"items":[]},"hereNow":{"count":0,"groups":[]}},{"id":"4fd2a650bb3dedc90f26d824","name":"くぼ眼科","contact":{"phone":"+81756036600","formattedPhone":"+81 75-603-6600"},"location":{"address":"桃山筒井伊賀東町54","crossStreet":"山内ビル1F","lat":34.93835806245206,"lng":135.76667189598083,"postalCode":"612-0072","city":"京都市伏見区","state":"京都府","country":"Japan"},"categories":[{"id":"4bf58dd8d48988d177941735","name":"Doctor's Office","pluralName":"Doctor's Offices","shortName":"Doctor's Office","icon":{"prefix":"https:\/\/foursquare.com\/img\/categories_v2\/building\/medical_","suffix":".png"},"primary":true}],"verified":false,"stats":{"checkinsCount":1,"usersCount":1,"tipCount":0},"likes":{"count":0,"groups":[]},"specials":{"count":0,"items":[]},"hereNow":{"count":0,"groups":[]}},{"id":"4bb98c2798c7ef3b982d3202","name":"京都市呉竹文化センター","contact":{"phone":"+81756032463","formattedPhone":"+81 75-603-2463"},"location":{"address":"京町南7-35-1","lat":34.93829649628441,"lng":135.76460123062134,"postalCode":"612-8085","city":"京都市伏見区","state":"京都府","country":"Japan"},"categories":[{"id":"4bf58dd8d48988d1a2941735","name":"Community College","pluralName":"Community Colleges","shortName":"Community College","icon":{"prefix":"https:\/\/foursquare.com\/img\/categories_v2\/education\/communitycollege_","suffix":".png"},"primary":true}],"verified":false,"stats":{"checkinsCount":40,"usersCount":29,"tipCount":0},"likes":{"count":0,"groups":[]},"specials":{"count":0,"items":[]},"hereNow":{"count":0,"groups":[]}},{"id":"4e1ecd5718a813a4dac32d66","name":"Bakery & Cafe CASCADE","contact":{},"location":{"address":"桃山筒井伊賀西町","lat":34.93871558407275,"lng":135.7653137616071,"city":"京都市伏見区","state":"京都府","country":"Japan"},"categories":[{"id":"4bf58dd8d48988d16a941735","name":"Bakery","pluralName":"Bakeries","shortName":"Bakery","icon":{"prefix":"https:\/\/foursquare.com\/img\/categories_v2\/food\/bakery_","suffix":".png"},"primary":true}],"verified":false,"stats":{"checkinsCount":39,"usersCount":15,"tipCount":0},"likes":{"count":0,"groups":[]},"specials":{"count":0,"items":[]},"hereNow":{"count":0,"groups":[]}},{"id":"4e15a1507d8b7c337703bd1b","name":"マツモトキヨシ 京阪丹波橋駅店","contact":{},"location":{"address":"桃山筒井伊賀西町15","lat":34.93856305868016,"lng":135.76573959815562,"city":"京都市伏見区","state":"京都府","country":"Japan"},"categories":[{"id":"4bf58dd8d48988d10f951735","name":"Drugstore \/ Pharmacy","pluralName":"Drugstores \/ Pharmacies","shortName":"Pharmacy","icon":{"prefix":"https:\/\/foursquare.com\/img\/categories_v2\/shops\/pharmacy_","suffix":".png"},"primary":true}],"verified":false,"stats":{"checkinsCount":38,"usersCount":20,"tipCount":0},"likes":{"count":0,"groups":[]},"specials":{"count":0,"items":[]},"hereNow":{"count":0,"groups":[]}},{"id":"4ea3b421be7ba4918ecbc9f8","name":"HAIR MAKE ADOX","contact":{},"location":{"address":"日本","lat":34.9367159,"lng":135.76395745,"city":"京都市","state":"京都府","country":"Japan"},"categories":[{"id":"4bf58dd8d48988d110951735","name":"Salon \/ Barbershop","pluralName":"Salons \/ Barbershops","shortName":"Salon \/ Barbershop","icon":{"prefix":"https:\/\/foursquare.com\/img\/categories_v2\/shops\/salon_barber_","suffix":".png"},"primary":true}],"verified":false,"stats":{"checkinsCount":1,"usersCount":1,"tipCount":0},"likes":{"count":0,"groups":[]},"specials":{"count":0,"items":[]},"hereNow":{"count":0,"groups":[]}},{"id":"4d990f049079b1f7f8ca3a0a","name":"斎藤耳鼻咽喉科","contact":{},"location":{"lat":34.938493,"lng":135.765405,"country":"Japan"},"categories":[{"id":"4bf58dd8d48988d104941735","name":"Medical Center","pluralName":"Medical Centers","shortName":"Medical","icon":{"prefix":"https:\/\/foursquare.com\/img\/categories_v2\/building\/medical_","suffix":".png"},"primary":true}],"verified":false,"stats":{"checkinsCount":3,"usersCount":2,"tipCount":0},"likes":{"count":0,"groups":[]},"specials":{"count":0,"items":[]},"hereNow":{"count":0,"groups":[]}},{"id":"4eb10e9a5c5c80159c7d3da4","name":"ジューサーバー 京阪丹波橋駅店","contact":{},"location":{"address":"伏見区桃山筒井伊賀西町15","lat":34.938822786768114,"lng":135.7654063344462,"city":"京都市","state":"京都府","country":"Japan"},"categories":[{"id":"4bf58dd8d48988d112941735","name":"Juice Bar","pluralName":"Juice Bars","shortName":"Juice Bar","icon":{"prefix":"https:\/\/foursquare.com\/img\/categories_v2\/food\/juicebar_","suffix":".png"},"primary":true}],"verified":false,"stats":{"checkinsCount":39,"usersCount":9,"tipCount":0},"likes":{"count":0,"groups":[]},"specials":{"count":0,"items":[]},"hereNow":{"count":0,"groups":[]}},{"id":"4dfa997445dd0d640c653911","name":"水嶋書房 丹波橋店","contact":{"phone":"+81756216202","formattedPhone":"+81 75-621-6202"},"location":{"address":"桃山筒井伊賀西町15","crossStreet":"京阪丹波橋駅構内","lat":34.938873,"lng":135.765288,"postalCode":"612-0073","city":"京都市伏見区","state":"京都府","country":"Japan"},"categories":[{"id":"4bf58dd8d48988d114951735","name":"Bookstore","pluralName":"Bookstores","shortName":"Bookstore","icon":{"prefix":"https:\/\/foursquare.com\/img\/categories_v2\/shops\/bookstore_","suffix":".png"},"primary":true}],"verified":false,"stats":{"checkinsCount":95,"usersCount":20,"tipCount":0},"likes":{"count":0,"groups":[]},"specials":{"count":0,"items":[]},"hereNow":{"count":0,"groups":[]}},{"id":"4df68750d4c070d4df0dfca2","name":"アンスリー 丹波橋店","contact":{},"location":{"address":"桃山筒井伊賀西町15","lat":34.938735,"lng":135.765181,"city":"京都市伏見区","state":"京都府","country":"Japan"},"categories":[{"id":"4d954b0ea243a5684a65b473","name":"Convenience Store","pluralName":"Convenience Stores","shortName":"Convenience Stores","icon":{"prefix":"https:\/\/foursquare.com\/img\/categories_v2\/shops\/conveniencestore_","suffix":".png"},"primary":true}],"verified":false,"stats":{"checkinsCount":41,"usersCount":14,"tipCount":0},"likes":{"count":0,"groups":[]},"specials":{"count":0,"items":[]},"hereNow":{"count":0,"groups":[]}},{"id":"4d292e7bb818a35de0a29c8a","name":"麺座 丹波橋店","contact":{"phone":"+81756226150","formattedPhone":"+81 75-622-6150"},"location":{"address":"伏見区桃山筒井伊賀西町15","crossStreet":"丹波橋駅 南改札口","lat":34.938784626772815,"lng":135.76537370681763,"city":"京都市","state":"京都府","country":"Japan"},"categories":[{"id":"4bf58dd8d48988d1d1941735","name":"Ramen \/  Noodle House","pluralName":"Ramen \/  Noodle House","shortName":"Ramen \/ Noodles","icon":{"prefix":"https:\/\/foursquare.com\/img\/categories_v2\/food\/ramen_","suffix":".png"},"primary":true}],"verified":false,"stats":{"checkinsCount":16,"usersCount":12,"tipCount":0},"likes":{"count":0,"groups":[]},"specials":{"count":0,"items":[]},"hereNow":{"count":0,"groups":[]}},{"id":"4e3cc073fa76455375afa7d7","name":"Sweets Box 丹波橋店","contact":{},"location":{"lat":34.9391983458963,"lng":135.76554056538225,"country":"Japan"},"categories":[{"id":"4bf58dd8d48988d1d0941735","name":"Dessert Shop","pluralName":"Dessert Shops","shortName":"Desserts","icon":{"prefix":"https:\/\/foursquare.com\/img\/categories_v2\/food\/dessert_","suffix":".png"},"primary":true}],"verified":false,"stats":{"checkinsCount":8,"usersCount":7,"tipCount":0},"likes":{"count":0,"groups":[]},"specials":{"count":0,"items":[]},"hereNow":{"count":0,"groups":[]}},{"id":"4e5e2e95e4cdfc603ed70baf","name":"BAR CHANCE","contact":{"phone":"+819036238838","formattedPhone":"+81 90-3623-8838"},"location":{"address":"桃山井伊掃部西町14-8","crossStreet":"丹波橋ビル1F","lat":34.93915178442554,"lng":135.76535541936244,"postalCode":"612-0071","city":"京都市伏見区","state":"京都府","country":"Japan"},"categories":[{"id":"4bf58dd8d48988d116941735","name":"Bar","pluralName":"Bars","shortName":"Bar","icon":{"prefix":"https:\/\/foursquare.com\/img\/categories_v2\/nightlife\/bar_","suffix":".png"},"primary":true}],"verified":false,"stats":{"checkinsCount":5,"usersCount":2,"tipCount":0},"likes":{"count":0,"groups":[]},"specials":{"count":0,"items":[]},"hereNow":{"count":0,"groups":[]}},{"id":"4f36011de4b0a1f19554510e","name":"スイーツボックス","contact":{},"location":{"lat":34.938751,"lng":135.765415,"country":"Japan"},"categories":[{"id":"4bf58dd8d48988d1d0941735","name":"Dessert Shop","pluralName":"Dessert Shops","shortName":"Desserts","icon":{"prefix":"https:\/\/foursquare.com\/img\/categories_v2\/food\/dessert_","suffix":".png"},"primary":true}],"verified":false,"stats":{"checkinsCount":1,"usersCount":1,"tipCount":0},"likes":{"count":0,"groups":[]},"specials":{"count":0,"items":[]},"hereNow":{"count":0,"groups":[]}}]}}
