{"meta":{"code":200},"response":{"venues":[{"id":"4dd4593b1f6ec4e0bb78630c","name":"サンクス 大宮通上鳥羽店","contact":{"phone":"+81756941222","formattedPhone":"+81 75-694-1222"},"location":{"address":"南区上鳥羽町田57番","lat":34.96366004211821,"lng":135.74841409921646,"postalCode":"601-8132","city":"京都市","state":"京都府","country":"Japan"},"categories":[{"id":"4d954b0ea243a5684a65b473","name":"Convenience Store","pluralName":"Convenience Stores","shortName":"Convenience Stores","icon":{"prefix":"https:\/\/foursquare.com\/img\/categories_v2\/shops\/conveniencestore_","suffix":".png"},"primary":true}],"verified":false,"stats":{"checkinsCount":31,"usersCount":14,"tipCount":0},"likes":{"count":0,"groups":[]},"specials":{"count":0,"items":[]},"hereNow":{"count":0,"groups":[]}},{"id":"4dd09f2545ddbe15f8be71a4","name":"NTTコミュニケーションズ 南京都","contact":{},"location":{"lat":34.96048,"lng":135.745807,"country":"Japan"},"categories":[],"verified":false,"stats":{"checkinsCount":1,"usersCount":1,"tipCount":0},"likes":{"count":0,"groups":[]},"specials":{"count":0,"items":[]},"hereNow":{"count":0,"groups":[]}},{"id":"4bb736c2f562ef3b6d1d3197","name":"焼肉小倉優子　１号線南インター店","contact":{},"location":{"address":"　","lat":34.960242,"lng":135.745989,"city":"京都府京都市南区上鳥羽石橋町４３－１","state":"JAPAN","country":"Japan"},"categories":[],"verified":false,"stats":{"checkinsCount":1,"usersCount":1,"tipCount":0},"likes":{"count":0,"groups":[]},"specials":{"count":0,"items":[]},"hereNow":{"count":0,"groups":[]}},{"id":"4e03ff947d8b00eb78c029ae","name":"本圀寺","contact":{},"location":{"lat":34.963579,"lng":135.750032,"city":"Kyoto","state":"Kyoto Prefecture","country":"Japan"},"categories":[{"id":"4bf58dd8d48988d13a941735","name":"Temple","pluralName":"Temples","shortName":"Temple","icon":{"prefix":"https:\/\/foursquare.com\/img\/categories_v2\/building\/religious_temple_","suffix":".png"},"primary":true}],"verified":false,"stats":{"checkinsCount":0,"usersCount":0,"tipCount":0},"likes":{"count":0,"groups":[]},"specials":{"count":0,"items":[]},"hereNow":{"count":0,"groups":[]}},{"id":"4f3c2b20754a0d3457de241e","name":"久世橋通大宮 バス停","contact":{},"location":{"address":"南区 上鳥羽北塔ノ本町・上鳥羽南塔ノ本町","crossStreet":"市バス84系統","lat":34.965624031939164,"lng":135.74972569942474,"city":"京都市","state":"京都府","country":"Japan"},"categories":[{"id":"4bf58dd8d48988d1fe931735","name":"Bus Station","pluralName":"Bus Stations","shortName":"Bus Station","icon":{"prefix":"https:\/\/foursquare.com\/img\/categories_v2\/travel\/busstation_","suffix":".png"},"primary":true}],"verified":false,"stats":{"checkinsCount":0,"usersCount":0,"tipCount":0},"likes":{"count":0,"groups":[]},"specials":{"count":0,"items":[]},"hereNow":{"count":0,"groups":[]}},{"id":"4bf2ae0a82002d7f89d0d0bb","name":"天下一品 上鳥羽店","contact":{"phone":"+81756819372","formattedPhone":"+81 75-681-9372"},"location":{"address":"上鳥羽南花名町36","crossStreet":"久瀬橋通大宮 ワインハイツ水仙","lat":34.96537455179096,"lng":135.7481700181961,"city":"京都市南区","state":"京都府","country":"Japan"},"categories":[{"id":"4bf58dd8d48988d1d1941735","name":"Ramen \/  Noodle House","pluralName":"Ramen \/  Noodle House","shortName":"Ramen \/ Noodles","icon":{"prefix":"https:\/\/foursquare.com\/img\/categories_v2\/food\/ramen_","suffix":".png"},"primary":true}],"verified":false,"stats":{"checkinsCount":75,"usersCount":52,"tipCount":1},"likes":{"count":0,"groups":[]},"specials":{"count":0,"items":[]},"hereNow":{"count":0,"groups":[]}},{"id":"4f13f549e4b067f6721c9659","name":"久世橋通大宮 交差点","contact":{},"location":{"lat":34.96553649477239,"lng":135.74827416544187,"country":"Japan"},"categories":[{"id":"4bf58dd8d48988d1f9931735","name":"Road","pluralName":"Roads","shortName":"Road","icon":{"prefix":"https:\/\/foursquare.com\/img\/categories_v2\/travel\/highway_","suffix":".png"},"primary":true}],"verified":false,"stats":{"checkinsCount":6,"usersCount":2,"tipCount":0},"likes":{"count":0,"groups":[]},"specials":{"count":0,"items":[]},"hereNow":{"count":0,"groups":[]}},{"id":"4ea8ee7129c2fa482192e7bb","name":"ファミリーマート 大宮大橋店","contact":{},"location":{"address":"上鳥羽卯ノ花63-1","lat":34.96000826,"lng":135.748232,"city":"京都市南区","state":"京都府","country":"Japan"},"categories":[{"id":"4d954b0ea243a5684a65b473","name":"Convenience Store","pluralName":"Convenience Stores","shortName":"Convenience Stores","icon":{"prefix":"https:\/\/foursquare.com\/img\/categories_v2\/shops\/conveniencestore_","suffix":".png"},"primary":true}],"verified":false,"stats":{"checkinsCount":19,"usersCount":9,"tipCount":0},"likes":{"count":0,"groups":[]},"specials":{"count":0,"items":[]},"hereNow":{"count":0,"groups":[]}},{"id":"4f695356e4b0656e86ccb99c","name":"桃園亭 南インター店","contact":{},"location":{"lat":34.96098481425542,"lng":135.74561835162802,"country":"Japan"},"categories":[{"id":"4bf58dd8d48988d145941735","name":"Chinese Restaurant","pluralName":"Chinese Restaurants","shortName":"Chinese","icon":{"prefix":"https:\/\/foursquare.com\/img\/categories_v2\/food\/chinese_","suffix":".png"},"primary":true}],"verified":false,"stats":{"checkinsCount":5,"usersCount":4,"tipCount":0},"likes":{"count":0,"groups":[]},"specials":{"count":0,"items":[]},"hereNow":{"count":0,"groups":[]}},{"id":"4ee6e1bb2c5b5fc6ceaba39d","name":"株式会社フジキン","contact":{},"location":{"address":"京都府京都市南区上鳥羽藁田20-1","lat":34.96248602994676,"lng":135.74937500233418,"country":"Japan"},"categories":[{"id":"4bf58dd8d48988d174941735","name":"Coworking Space","pluralName":"Coworking Spaces","shortName":"Coworking Space","icon":{"prefix":"https:\/\/foursquare.com\/img\/categories_v2\/building\/office_coworkingspace_","suffix":".png"},"primary":true}],"verified":false,"stats":{"checkinsCount":3,"usersCount":1,"tipCount":1},"likes":{"count":0,"groups":[]},"specials":{"count":0,"items":[]},"hereNow":{"count":0,"groups":[]}},{"id":"4d562bc5a747b60caf60252b","name":"ジャンブルストア京都上鳥羽店","contact":{},"location":{"address":"上鳥羽大溝22番地1","lat":34.96224786247677,"lng":135.74546566997054,"city":"京都市南区","state":"京都府","country":"Japan"},"categories":[{"id":"4bf58dd8d48988d103951735","name":"Clothing Store","pluralName":"Clothing Stores","shortName":"Apparel","icon":{"prefix":"https:\/\/foursquare.com\/img\/categories_v2\/shops\/apparel_","suffix":".png"},"primary":true}],"verified":false,"stats":{"checkinsCount":16,"usersCount":12,"tipCount":0},"likes":{"count":0,"groups":[]},"specials":{"count":0,"items":[]},"hereNow":{"count":0,"groups":[]}},{"id":"4dbe4a2efa8cee72737c3295","name":"JAF京都支部","contact":{"phone":"+81756826000","formattedPhone":"+81 75-682-6000"},"location":{"address":"南区上鳥羽大溝5","lat":34.961619,"lng":135.748293,"postalCode":"601-8134","city":"Kyoto","state":"Kyoto Prefecture","country":"Japan"},"categories":[{"id":"4bf58dd8d48988d124941735","name":"Office","pluralName":"Offices","shortName":"Corporate \/ Office","icon":{"prefix":"https:\/\/foursquare.com\/img\/categories_v2\/building\/default_","suffix":".png"},"primary":true}],"verified":false,"stats":{"checkinsCount":1,"usersCount":1,"tipCount":0},"likes":{"count":0,"groups":[]},"hereNow":{"count":0,"groups":[]}},{"id":"4ceb425ffe90a35dd454520e","name":"フジムラオート","contact":{"phone":"+81756619393","formattedPhone":"+81 75-661-9393"},"location":{"address":"南区上鳥羽卯ノ花６５","lat":34.960479311855316,"lng":135.74816465377808,"city":"京都市","state":"京都府","country":"Japan"},"categories":[{"id":"4bf58dd8d48988d124951735","name":"Automotive Shop","pluralName":"Automotive Shops","shortName":"Automotive","icon":{"prefix":"https:\/\/foursquare.com\/img\/categories_v2\/shops\/automotive_","suffix":".png"},"primary":true}],"verified":false,"stats":{"checkinsCount":1,"usersCount":1,"tipCount":0},"likes":{"count":0,"groups":[]},"specials":{"count":0,"items":[]},"hereNow":{"count":0,"groups":[]}},{"id":"4c25dcf55c5ca5931f1645fe","name":"ウッドハート","contact":{},"location":{"lat":34.961565,"lng":135.745134,"country":"Japan"},"categories":[],"verified":false,"stats":{"checkinsCount":1,"usersCount":1,"tipCount":0},"likes":{"count":0,"groups":[]},"specials":{"count":0,"items":[]},"hereNow":{"count":0,"groups":[]}},{"id":"4cf3660a1457a09061b547c6","name":"早阪農園","contact":{"phone":"+81756916043","formattedPhone":"+81 75-691-6043"},"location":{"address":"京都府京都市南区上鳥羽奈須野町7-313","lat":34.960973,"lng":135.74508,"city":"Kyoto","state":"Kyoto","country":"Japan"},"categories":[{"id":"4bf58dd8d48988d1fa941735","name":"Farmers Market","pluralName":"Farmers Markets","shortName":"Farmer's Market","icon":{"prefix":"https:\/\/foursquare.com\/img\/categories_v2\/shops\/food_farmersmarket_","suffix":".png"},"primary":true}],"verified":false,"stats":{"checkinsCount":2,"usersCount":2,"tipCount":0},"likes":{"count":0,"groups":[]},"specials":{"count":0,"items":[]},"hereNow":{"count":0,"groups":[]}},{"id":"4bdfe47f0ee3a593f79935b0","name":"くら寿司 京都南インター店","contact":{"phone":"+81756821602","formattedPhone":"+81 75-682-1602"},"location":{"address":"上鳥羽鴨田12-1","lat":34.96408,"lng":135.745765,"city":"京都市南区","state":"京都府","country":"Japan"},"categories":[{"id":"4bf58dd8d48988d1d2941735","name":"Sushi Restaurant","pluralName":"Sushi Restaurants","shortName":"Sushi","icon":{"prefix":"https:\/\/foursquare.com\/img\/categories_v2\/food\/sushi_","suffix":".png"},"primary":true}],"verified":false,"stats":{"checkinsCount":55,"usersCount":48,"tipCount":0},"likes":{"count":0,"groups":[]},"specials":{"count":0,"items":[]},"hereNow":{"count":0,"groups":[]}},{"id":"4be0423d2d77a59338d77c3f","name":"カレーハウス CoCo壱番屋 南区上鳥羽店","contact":{"phone":"+81756828533","formattedPhone":"+81 75-682-8533"},"location":{"address":"上鳥羽鴨田18-4","lat":34.963442,"lng":135.745725,"city":"京都市南区","state":"京都府","country":"Japan"},"categories":[{"id":"4bf58dd8d48988d10f941735","name":"Indian Restaurant","pluralName":"Indian Restaurants","shortName":"Indian","icon":{"prefix":"https:\/\/foursquare.com\/img\/categories_v2\/food\/default_","suffix":".png"},"primary":true}],"verified":false,"stats":{"checkinsCount":35,"usersCount":26,"tipCount":1},"likes":{"count":0,"groups":[]},"specials":{"count":0,"items":[]},"hereNow":{"count":0,"groups":[]}},{"id":"4cd2908983e0721e589d5797","name":"肉家 かぐら","contact":{},"location":{"address":"上鳥羽南花名町10-2","lat":34.96530641170652,"lng":135.74714541435242,"city":"京都市南区","state":"京都府","country":"Japan"},"categories":[{"id":"4bf58dd8d48988d111941735","name":"Japanese Restaurant","pluralName":"Japanese Restaurants","shortName":"Japanese","icon":{"prefix":"https:\/\/foursquare.com\/img\/categories_v2\/food\/japanese_","suffix":".png"},"primary":true}],"verified":false,"stats":{"checkinsCount":8,"usersCount":4,"tipCount":0},"likes":{"count":0,"groups":[]},"specials":{"count":0,"items":[]},"hereNow":{"count":0,"groups":[]}},{"id":"4d8c401d7bc4224bc1893e22","name":"日工自動車(株) 車検センター京都南","contact":{},"location":{"address":"京都府京都市南区上鳥羽鴨田町18-2","lat":34.963607,"lng":135.745833,"city":"京都市南区","state":"京都府","country":"Japan"},"categories":[{"id":"4bf58dd8d48988d124951735","name":"Automotive Shop","pluralName":"Automotive Shops","shortName":"Automotive","icon":{"prefix":"https:\/\/foursquare.com\/img\/categories_v2\/shops\/automotive_","suffix":".png"},"primary":true}],"verified":false,"stats":{"checkinsCount":2,"usersCount":2,"tipCount":0},"likes":{"count":0,"groups":[]},"specials":{"count":0,"items":[]},"hereNow":{"count":0,"groups":[]}},{"id":"4f7ce7ebe4b0fe0940e44aaf","name":"中山稲荷交差点","contact":{},"location":{"lat":34.963775634765625,"lng":135.74533081054688,"country":"Japan"},"categories":[{"id":"4bf58dd8d48988d1f9931735","name":"Road","pluralName":"Roads","shortName":"Road","icon":{"prefix":"https:\/\/foursquare.com\/img\/categories_v2\/travel\/highway_","suffix":".png"},"primary":true}],"verified":false,"stats":{"checkinsCount":1,"usersCount":1,"tipCount":0},"likes":{"count":0,"groups":[]},"specials":{"count":0,"items":[]},"hereNow":{"count":0,"groups":[]}}]}}
