{"meta":{"code":200},"response":{"venues":[{"id":"4da66d1ff7b192b4866d2f7f","name":"フクダ花店","contact":{},"location":{"lat":34.94231,"lng":135.76403,"city":"Kyoto","state":"Kyoto Prefecture","country":"Japan"},"categories":[],"verified":false,"stats":{"checkinsCount":1,"usersCount":1,"tipCount":0},"likes":{"count":0,"groups":[]},"specials":{"count":0,"items":[]},"hereNow":{"count":0,"groups":[]}},{"id":"4cb0029aef1b37043a823700","name":"下村歯科医院","contact":{},"location":{"lat":34.942694,"lng":135.764202,"country":"Japan"},"categories":[{"id":"4bf58dd8d48988d178941735","name":"Dentist's Office","pluralName":"Dentist's Offices","shortName":"Dentist's Office","icon":{"prefix":"https:\/\/foursquare.com\/img\/categories_v2\/building\/medical_dentist_","suffix":".png"},"primary":true}],"verified":false,"stats":{"checkinsCount":11,"usersCount":2,"tipCount":1},"likes":{"count":0,"groups":[]},"specials":{"count":0,"items":[]},"hereNow":{"count":0,"groups":[]}},{"id":"4d9e60ab36818cfa670cf300","name":"サガワ酒店","contact":{"phone":"+81756111188","formattedPhone":"+81 75-611-1188"},"location":{"address":"新町12丁目318","lat":34.941682,"lng":135.763399,"postalCode":"6128081","city":"Kyoto","state":"Kyoto Prefecture","country":"Japan"},"categories":[{"id":"4bf58dd8d48988d186941735","name":"Liquor Store","pluralName":"Liquor Stores","shortName":"Liquor Store","icon":{"prefix":"https:\/\/foursquare.com\/img\/categories_v2\/shops\/food_liquor_","suffix":".png"},"primary":true}],"verified":false,"stats":{"checkinsCount":4,"usersCount":1,"tipCount":0},"likes":{"count":0,"groups":[]},"specials":{"count":0,"items":[]},"hereNow":{"count":0,"groups":[]}},{"id":"4efc1dafc2ee80dc2e56dbfc","name":"常盤橋","contact":{},"location":{"address":"堀詰町","lat":34.94159901616475,"lng":135.7624313235283,"city":"京都市伏見区","state":"京都府","country":"Japan"},"categories":[{"id":"4bf58dd8d48988d1df941735","name":"Bridge","pluralName":"Bridges","shortName":"Bridge","icon":{"prefix":"https:\/\/foursquare.com\/img\/categories_v2\/parks_outdoors\/bridge_","suffix":".png"},"primary":true}],"verified":false,"stats":{"checkinsCount":0,"usersCount":0,"tipCount":0},"likes":{"count":0,"groups":[]},"specials":{"count":0,"items":[]},"hereNow":{"count":0,"groups":[]}},{"id":"4e2b12c345dd3272c80ebba5","name":"Yショップ仲岩店","contact":{},"location":{"lat":34.944371,"lng":135.764514,"city":"京都市","state":"京都府","country":"Japan"},"categories":[{"id":"4bf58dd8d48988d123951735","name":"Smoke Shop","pluralName":"Smoke Shops","shortName":"Tobacco & Cigars","icon":{"prefix":"https:\/\/foursquare.com\/img\/categories_v2\/shops\/tobacco_","suffix":".png"},"primary":true}],"verified":false,"stats":{"checkinsCount":25,"usersCount":3,"tipCount":1},"likes":{"count":0,"groups":[]},"specials":{"count":0,"items":[]},"hereNow":{"count":0,"groups":[]}},{"id":"4d9150bf270e6ea84ac251ff","name":"丸栄ガクブチ","contact":{"phone":"075-601-280","formattedPhone":"075-601-280"},"location":{"address":"両替町14-165","lat":34.943979,"lng":135.764268,"postalCode":"612-8082","city":"京都市伏見区","state":"京都府","country":"Japan"},"categories":[{"id":"4bf58dd8d48988d127951735","name":"Arts & Crafts Store","pluralName":"Arts & Crafts Stores","shortName":"Arts & Crafts","icon":{"prefix":"https:\/\/foursquare.com\/img\/categories_v2\/shops\/artstore_","suffix":".png"},"primary":true}],"verified":false,"stats":{"checkinsCount":23,"usersCount":8,"tipCount":0},"likes":{"count":0,"groups":[]},"specials":{"count":0,"items":[]},"hereNow":{"count":0,"groups":[]}},{"id":"4e7d5f014fc6527560aa94e0","name":"津知橋","contact":{},"location":{"address":"伏見区","lat":34.94444848701932,"lng":135.76347470283508,"city":"京都市","state":"京都府","country":"Japan"},"categories":[{"id":"4bf58dd8d48988d1df941735","name":"Bridge","pluralName":"Bridges","shortName":"Bridge","icon":{"prefix":"https:\/\/foursquare.com\/img\/categories_v2\/parks_outdoors\/bridge_","suffix":".png"},"primary":true}],"verified":false,"stats":{"checkinsCount":25,"usersCount":2,"tipCount":0},"likes":{"count":0,"groups":[]},"specials":{"count":0,"items":[]},"hereNow":{"count":0,"groups":[]}},{"id":"4ebdb841d3e3700a5a9389b3","name":"上板橋","contact":{},"location":{"address":"上板橋町","lat":34.94228061156715,"lng":135.76290607452393,"city":"京都市伏見区","state":"京都府","country":"Japan"},"categories":[{"id":"4bf58dd8d48988d1df941735","name":"Bridge","pluralName":"Bridges","shortName":"Bridge","icon":{"prefix":"https:\/\/foursquare.com\/img\/categories_v2\/parks_outdoors\/bridge_","suffix":".png"},"primary":true}],"verified":false,"stats":{"checkinsCount":7,"usersCount":1,"tipCount":0},"likes":{"count":0,"groups":[]},"specials":{"count":0,"items":[]},"hereNow":{"count":0,"groups":[]}},{"id":"4efc1976c2ee80dc2e566896","name":"東住吉橋","contact":{},"location":{"address":"住吉町","lat":34.94392301334365,"lng":135.76318100094795,"city":"京都市伏見区","state":"京都府","country":"Japan"},"categories":[{"id":"4bf58dd8d48988d1df941735","name":"Bridge","pluralName":"Bridges","shortName":"Bridge","icon":{"prefix":"https:\/\/foursquare.com\/img\/categories_v2\/parks_outdoors\/bridge_","suffix":".png"},"primary":true}],"verified":false,"stats":{"checkinsCount":0,"usersCount":0,"tipCount":0},"likes":{"count":0,"groups":[]},"specials":{"count":0,"items":[]},"hereNow":{"count":0,"groups":[]}}]}}
