{"meta":{"code":200},"response":{"venues":[{"id":"4c1d77aafcf8c9b6a1e6ab0b","name":"薪神社","contact":{},"location":{"address":"薪里ノ内1番","lat":34.82140470181168,"lng":135.75533151626587,"postalCode":"610-0341","city":"京田辺市","state":"京都府","country":"Japan"},"categories":[{"id":"4eb1d80a4b900d56c88a45ff","name":"Shrine","pluralName":"Shrines","shortName":"Shrine","icon":{"prefix":"https:\/\/foursquare.com\/img\/categories_v2\/building\/religious_shrine_","suffix":".png"},"primary":true}],"verified":false,"stats":{"checkinsCount":3,"usersCount":3,"tipCount":0},"likes":{"count":0,"groups":[]},"specials":{"count":0,"items":[]},"hereNow":{"count":0,"groups":[]}},{"id":"4eed55cc9a52993fb72ec4bc","name":"西念寺","contact":{},"location":{"lat":34.81945293921443,"lng":135.76610063647027,"city":"京田辺市","country":"Japan"},"categories":[{"id":"4bf58dd8d48988d13a941735","name":"Temple","pluralName":"Temples","shortName":"Temple","icon":{"prefix":"https:\/\/foursquare.com\/img\/categories_v2\/building\/religious_temple_","suffix":".png"},"primary":true}],"verified":false,"stats":{"checkinsCount":1,"usersCount":1,"tipCount":0},"likes":{"count":0,"groups":[]},"specials":{"count":0,"items":[]},"hereNow":{"count":0,"groups":[]}},{"id":"4bd36f0da8b3a593a1006a5f","name":"ローソン 京田辺薪店","contact":{"phone":"+81774627003","formattedPhone":"+81 774-62-7003","twitter":"akiko_lawson"},"location":{"address":"薪西沢4-1","lat":34.82412953495366,"lng":135.7611545920372,"city":"京田辺市","state":"京都府","country":"Japan"},"categories":[{"id":"4d954b0ea243a5684a65b473","name":"Convenience Store","pluralName":"Convenience Stores","shortName":"Convenience Stores","icon":{"prefix":"https:\/\/foursquare.com\/img\/categories_v2\/shops\/conveniencestore_","suffix":".png"},"primary":true}],"verified":true,"stats":{"checkinsCount":32,"usersCount":19,"tipCount":0},"likes":{"count":0,"groups":[]},"specials":{"count":0,"items":[]},"hereNow":{"count":0,"groups":[]}},{"id":"4d7716f8f2c05481528ca4a1","name":"酬恩庵 一休寺","contact":{"phone":"+81774620193","formattedPhone":"+81 774-62-0193"},"location":{"address":"薪里ノ内102","lat":34.82101275880104,"lng":135.757514834404,"postalCode":"610-0341","city":"京田辺市","state":"京都府","country":"Japan"},"categories":[{"id":"4bf58dd8d48988d13a941735","name":"Temple","pluralName":"Temples","shortName":"Temple","icon":{"prefix":"https:\/\/foursquare.com\/img\/categories_v2\/building\/religious_temple_","suffix":".png"},"primary":true}],"verified":false,"stats":{"checkinsCount":38,"usersCount":34,"tipCount":0},"url":"http:\/\/www.ikkyuji.org","likes":{"count":0,"groups":[]},"specials":{"count":0,"items":[]},"hereNow":{"count":0,"groups":[]}},{"id":"4e563f93922e68c545c23302","name":"甘南備寺","contact":{},"location":{"address":"薪山垣外61","lat":34.82146635559865,"lng":135.76337814331055,"postalCode":"610-0341","city":"京田辺市","state":"京都府","country":"Japan"},"categories":[{"id":"4bf58dd8d48988d13a941735","name":"Temple","pluralName":"Temples","shortName":"Temple","icon":{"prefix":"https:\/\/foursquare.com\/img\/categories_v2\/building\/religious_temple_","suffix":".png"},"primary":true}],"verified":false,"stats":{"checkinsCount":2,"usersCount":2,"tipCount":0},"likes":{"count":0,"groups":[]},"specials":{"count":0,"items":[]},"hereNow":{"count":0,"groups":[]}},{"id":"4c2ff0a2452620a1be7a1e0f","name":"棚倉孫神社","contact":{},"location":{"address":"田辺棚倉49","lat":34.82143112486889,"lng":135.76339960098267,"postalCode":"610-0031","city":"京田辺市","state":"京都府","country":"Japan"},"categories":[{"id":"4eb1d80a4b900d56c88a45ff","name":"Shrine","pluralName":"Shrines","shortName":"Shrine","icon":{"prefix":"https:\/\/foursquare.com\/img\/categories_v2\/building\/religious_shrine_","suffix":".png"},"primary":true}],"verified":false,"stats":{"checkinsCount":4,"usersCount":3,"tipCount":0},"likes":{"count":0,"groups":[]},"specials":{"count":0,"items":[]},"hereNow":{"count":0,"groups":[]}},{"id":"4dd0fd9d887785124433c82e","name":"川東整形外科","contact":{},"location":{"lat":34.82816131400871,"lng":135.75827875191302,"city":"Kyotanabe","state":"Kyoto Prefecture","country":"Japan"},"categories":[{"id":"4bf58dd8d48988d196941735","name":"Hospital","pluralName":"Hospitals","shortName":"Hospital","icon":{"prefix":"https:\/\/foursquare.com\/img\/categories_v2\/building\/medical_hospital_","suffix":".png"},"primary":true}],"verified":false,"stats":{"checkinsCount":12,"usersCount":3,"tipCount":0},"likes":{"count":0,"groups":[]},"specials":{"count":0,"items":[]},"hereNow":{"count":0,"groups":[]}},{"id":"4dd09cd9d4c065592fb40454","name":"STEAK Papa","contact":{},"location":{"lat":34.827768,"lng":135.758446,"city":"Kyotanabe","state":"Kyoto Prefecture","country":"Japan"},"categories":[{"id":"4bf58dd8d48988d1cc941735","name":"Steakhouse","pluralName":"Steakhouses","shortName":"Steakhouse","icon":{"prefix":"https:\/\/foursquare.com\/img\/categories_v2\/food\/steakhouse_","suffix":".png"},"primary":true}],"verified":false,"stats":{"checkinsCount":5,"usersCount":2,"tipCount":0},"likes":{"count":0,"groups":[]},"specials":{"count":0,"items":[]},"hereNow":{"count":0,"groups":[]}},{"id":"4e565f19922e68c545c24784","name":"ながた米穀店","contact":{},"location":{"address":"薪茶屋前27-2","lat":34.82770636089696,"lng":135.75822561979294,"city":"京田辺市","state":"京都府","country":"Japan"},"categories":[{"id":"4bf58dd8d48988d11d951735","name":"Butcher","pluralName":"Butchers","shortName":"Butcher","icon":{"prefix":"https:\/\/foursquare.com\/img\/categories_v2\/shops\/food_butcher_","suffix":".png"},"primary":true}],"verified":false,"stats":{"checkinsCount":0,"usersCount":0,"tipCount":0},"likes":{"count":0,"groups":[]},"specials":{"count":0,"items":[]},"hereNow":{"count":0,"groups":[]}},{"id":"4e6590c2b61cd78089e641c0","name":"カフェ・ド・グランリュ","contact":{},"location":{"lat":34.8297413410563,"lng":135.7587739455893,"country":"Japan"},"categories":[{"id":"4bf58dd8d48988d16d941735","name":"Café","pluralName":"Cafés","shortName":"Café","icon":{"prefix":"https:\/\/foursquare.com\/img\/categories_v2\/food\/cafe_","suffix":".png"},"primary":true}],"verified":false,"stats":{"checkinsCount":17,"usersCount":4,"tipCount":0},"likes":{"count":0,"groups":[]},"specials":{"count":0,"items":[]},"hereNow":{"count":0,"groups":[]}},{"id":"4bb1e0f3f964a52014a83ce3","name":"シェル石油 京田辺SS","contact":{},"location":{"address":"薪名松1-1","lat":34.82874558190784,"lng":135.75787961483002,"city":"京田辺市","state":"京都府","country":"Japan"},"categories":[{"id":"4bf58dd8d48988d113951735","name":"Gas Station \/ Garage","pluralName":"Gas Stations \/ Garages","shortName":"Gas Station \/ Garage","icon":{"prefix":"https:\/\/foursquare.com\/img\/categories_v2\/shops\/gas_","suffix":".png"},"primary":true}],"verified":false,"stats":{"checkinsCount":53,"usersCount":4,"tipCount":1},"likes":{"count":0,"groups":[]},"specials":{"count":0,"items":[]},"hereNow":{"count":0,"groups":[]}},{"id":"4d0c977b5c46a0930a4f09b4","name":"多幸烈","contact":{},"location":{"lat":34.828904,"lng":135.75834,"country":"Japan"},"categories":[{"id":"4bf58dd8d48988d118941735","name":"Dive Bar","pluralName":"Dive Bars","shortName":"Dive Bar","icon":{"prefix":"https:\/\/foursquare.com\/img\/categories_v2\/nightlife\/divebar_","suffix":".png"},"primary":true}],"verified":false,"stats":{"checkinsCount":1,"usersCount":1,"tipCount":0},"likes":{"count":0,"groups":[]},"specials":{"count":0,"items":[]},"hereNow":{"count":0,"groups":[]}},{"id":"4e56268db0fbb294aaa3f790","name":"ツバサ薬局 京田辺店","contact":{},"location":{"address":"薪水取54-5","lat":34.82877068,"lng":135.75767895,"city":"京田辺市","state":"京都府","country":"Japan"},"categories":[{"id":"4bf58dd8d48988d10f951735","name":"Drugstore \/ Pharmacy","pluralName":"Drugstores \/ Pharmacies","shortName":"Pharmacy","icon":{"prefix":"https:\/\/foursquare.com\/img\/categories_v2\/shops\/pharmacy_","suffix":".png"},"primary":true}],"verified":false,"stats":{"checkinsCount":3,"usersCount":2,"tipCount":0},"likes":{"count":0,"groups":[]},"specials":{"count":0,"items":[]},"hereNow":{"count":0,"groups":[]}}]}}
