{"meta":{"code":200},"response":{"venues":[{"id":"4df32d88a809141629a19b7c","name":"ピザ リトルパーティー 城陽店","contact":{"phone":"+81774541001","formattedPhone":"+81 774-54-1001"},"location":{"address":"寺田水度坂15-110","crossStreet":"水度マンション1F","lat":34.85475706102495,"lng":135.78239768743515,"postalCode":"610-0121","city":"城陽市","state":"京都府","country":"Japan"},"categories":[{"id":"4bf58dd8d48988d1ca941735","name":"Pizza Place","pluralName":"Pizza Places","shortName":"Pizza","icon":{"prefix":"https:\/\/foursquare.com\/img\/categories_v2\/food\/pizza_","suffix":".png"},"primary":true}],"verified":false,"stats":{"checkinsCount":158,"usersCount":3,"tipCount":0},"likes":{"count":0,"groups":[]},"specials":{"count":0,"items":[]},"hereNow":{"count":0,"groups":[]}},{"id":"4f80c92fe4b06d09f98de544","name":"お食事処 まるに","contact":{},"location":{"lat":34.856946383190326,"lng":135.78270672455173,"country":"Japan"},"categories":[{"id":"4bf58dd8d48988d111941735","name":"Japanese Restaurant","pluralName":"Japanese Restaurants","shortName":"Japanese","icon":{"prefix":"https:\/\/foursquare.com\/img\/categories_v2\/food\/japanese_","suffix":".png"},"primary":true}],"verified":false,"stats":{"checkinsCount":4,"usersCount":1,"tipCount":0},"likes":{"count":0,"groups":[]},"specials":{"count":0,"items":[]},"hereNow":{"count":0,"groups":[]}},{"id":"4ead1215e5fad025f7fac54b","name":"かに満","contact":{},"location":{"lat":34.85716645871756,"lng":135.78132227716702,"country":"Japan"},"categories":[{"id":"4bf58dd8d48988d111941735","name":"Japanese Restaurant","pluralName":"Japanese Restaurants","shortName":"Japanese","icon":{"prefix":"https:\/\/foursquare.com\/img\/categories_v2\/food\/japanese_","suffix":".png"},"primary":true}],"verified":false,"stats":{"checkinsCount":4,"usersCount":1,"tipCount":0},"likes":{"count":0,"groups":[]},"specials":{"count":0,"items":[]},"hereNow":{"count":0,"groups":[]}},{"id":"4de61655e4cde71744b69450","name":"ユニチカスイミングクラブ城陽","contact":{},"location":{"address":"寺田北山田23-4","lat":34.857442273630404,"lng":135.78178346157074,"postalCode":"610-0121","city":"城陽市","state":"京都府","country":"Japan"},"categories":[{"id":"4bf58dd8d48988d105941735","name":"Gym Pool","pluralName":"Gym Pools","shortName":"Pool","icon":{"prefix":"https:\/\/foursquare.com\/img\/categories_v2\/shops\/gym_pool_","suffix":".png"},"primary":true}],"verified":false,"stats":{"checkinsCount":11,"usersCount":1,"tipCount":0},"likes":{"count":0,"groups":[]},"specials":{"count":0,"items":[]},"hereNow":{"count":0,"groups":[]}},{"id":"4df32ecb7d8b18e1722e1ad9","name":"栗太郎本舗","contact":{},"location":{"lat":34.85694203497193,"lng":135.78267894260384,"city":"Joyo","state":"Kyoto Prefecture","country":"Japan"},"categories":[{"id":"4bf58dd8d48988d1d0941735","name":"Dessert Shop","pluralName":"Dessert Shops","shortName":"Desserts","icon":{"prefix":"https:\/\/foursquare.com\/img\/categories_v2\/food\/dessert_","suffix":".png"},"primary":true}],"verified":false,"stats":{"checkinsCount":353,"usersCount":2,"tipCount":0},"likes":{"count":0,"groups":[]},"specials":{"count":0,"items":[]},"hereNow":{"count":0,"groups":[]}},{"id":"4dca583eb0fb9c8f8ae2c412","name":"京都府山城家畜保健衛生所","contact":{},"location":{"lat":34.856861,"lng":135.782553,"city":"Joyo","state":"Kyoto Prefecture","country":"Japan"},"categories":[{"id":"4bf58dd8d48988d124941735","name":"Office","pluralName":"Offices","shortName":"Corporate \/ Office","icon":{"prefix":"https:\/\/foursquare.com\/img\/categories_v2\/building\/default_","suffix":".png"},"primary":true}],"verified":false,"stats":{"checkinsCount":210,"usersCount":3,"tipCount":0},"likes":{"count":0,"groups":[]},"hereNow":{"count":0,"groups":[]}},{"id":"4b628dd8f964a520364b2ae3","name":"城陽駅 (Joyo Sta.)","contact":{},"location":{"address":"寺田林ノ口7","lat":34.85612609020658,"lng":135.7807695865631,"city":"城陽市","state":"京都府","country":"Japan"},"categories":[{"id":"4bf58dd8d48988d129951735","name":"Train Station","pluralName":"Train Stations","shortName":"Train Station","icon":{"prefix":"https:\/\/foursquare.com\/img\/categories_v2\/travel\/trainstation_","suffix":".png"},"primary":true}],"verified":false,"stats":{"checkinsCount":643,"usersCount":125,"tipCount":3},"likes":{"count":0,"groups":[]},"specials":{"count":0,"items":[]},"hereNow":{"count":0,"groups":[]}},{"id":"4f549a1be4b036244c886b8c","name":"自宅","contact":{},"location":{"lat":34.856776,"lng":135.782639,"country":"Japan"},"categories":[],"verified":false,"stats":{"checkinsCount":1,"usersCount":1,"tipCount":0},"likes":{"count":0,"groups":[]},"specials":{"count":0,"items":[]},"hereNow":{"count":0,"groups":[]}},{"id":"4edb2de17ee5e8e3e7d31bc6","name":"ショップ 五里五里の里","contact":{},"location":{"address":"城陽市寺田北山田２７－７","lat":34.856413585112975,"lng":135.78058145225924,"city":"城陽市","state":"京都府","country":"Japan"},"categories":[{"id":"4d954b0ea243a5684a65b473","name":"Convenience Store","pluralName":"Convenience Stores","shortName":"Convenience Stores","icon":{"prefix":"https:\/\/foursquare.com\/img\/categories_v2\/shops\/conveniencestore_","suffix":".png"},"primary":true}],"verified":false,"stats":{"checkinsCount":13,"usersCount":3,"tipCount":1},"likes":{"count":0,"groups":[]},"specials":{"count":0,"items":[]},"hereNow":{"count":0,"groups":[]}},{"id":"4e61a99d45ddda35293dfede","name":"城陽市男女共同参画支援センター ぱれっとJOYO","contact":{},"location":{"address":"寺田林ノ口11番地の114","lat":34.855384352143446,"lng":135.78261762857437,"city":"城陽市","state":"京都府","country":"Japan"},"categories":[{"id":"4bf58dd8d48988d171941735","name":"Event Space","pluralName":"Event Spaces","shortName":"Event Space","icon":{"prefix":"https:\/\/foursquare.com\/img\/categories_v2\/building\/eventspace_","suffix":".png"},"primary":true}],"verified":false,"stats":{"checkinsCount":50,"usersCount":4,"tipCount":0},"likes":{"count":0,"groups":[]},"specials":{"count":0,"items":[]},"hereNow":{"count":0,"groups":[]}},{"id":"4c00a6478c1076b0288f2071","name":"コープ城陽","contact":{"phone":"+81774554626","formattedPhone":"+81 774-55-4626"},"location":{"address":"寺田林ノ口11-436","lat":34.85614369815057,"lng":135.78251838684082,"city":"城陽市","state":"京都府","country":"Japan"},"categories":[{"id":"4bf58dd8d48988d118951735","name":"Grocery Store","pluralName":"Grocery Stores","shortName":"Grocery Store","icon":{"prefix":"https:\/\/foursquare.com\/img\/categories_v2\/shops\/food_grocery_","suffix":".png"},"primary":true}],"verified":false,"stats":{"checkinsCount":203,"usersCount":8,"tipCount":0},"likes":{"count":0,"groups":[]},"specials":{"count":0,"items":[]},"hereNow":{"count":0,"groups":[]}},{"id":"4e8d8b8e93adeeb4cda58a1c","name":"京寿司 都人 城陽店","contact":{"phone":"+81774582038","formattedPhone":"+81 774-58-2038"},"location":{"address":"寺田5","crossStreet":"薮田ビル1F","lat":34.856558,"lng":135.780641,"postalCode":"6100121","city":"城陽市","state":"京都府","country":"Japan"},"categories":[{"id":"4bf58dd8d48988d1d2941735","name":"Sushi Restaurant","pluralName":"Sushi Restaurants","shortName":"Sushi","icon":{"prefix":"https:\/\/foursquare.com\/img\/categories_v2\/food\/sushi_","suffix":".png"},"primary":true}],"verified":false,"stats":{"checkinsCount":8,"usersCount":3,"tipCount":0},"likes":{"count":0,"groups":[]},"specials":{"count":0,"items":[]},"hereNow":{"count":0,"groups":[]}},{"id":"4ecb8dedd3e32939cd769c0d","name":"ＣＫミュージックコンサルタント","contact":{},"location":{"lat":34.85634141352056,"lng":135.78074350672472,"city":"城陽市","state":"京都府","country":"Japan"},"categories":[{"id":"4bf58dd8d48988d1e5931735","name":"Music Venue","pluralName":"Music Venues","shortName":"Music Venue","icon":{"prefix":"https:\/\/foursquare.com\/img\/categories_v2\/arts_entertainment\/musicvenue_","suffix":".png"},"primary":true}],"verified":false,"stats":{"checkinsCount":3,"usersCount":2,"tipCount":0},"likes":{"count":0,"groups":[]},"specials":{"count":0,"items":[]},"hereNow":{"count":0,"groups":[]}},{"id":"4fd810f3a17c090a826c02f1","name":"パンこっこ城陽","contact":{},"location":{"address":"寺田林ノ口11-436","crossStreet":"コープ城陽","lat":34.85540416125874,"lng":135.7826042175293,"postalCode":"610-0121","city":"城陽市","state":"京都府","country":"Japan"},"categories":[{"id":"4bf58dd8d48988d16a941735","name":"Bakery","pluralName":"Bakeries","shortName":"Bakery","icon":{"prefix":"https:\/\/foursquare.com\/img\/categories_v2\/food\/bakery_","suffix":".png"},"primary":true}],"verified":false,"stats":{"checkinsCount":0,"usersCount":0,"tipCount":0},"likes":{"count":0,"groups":[]},"specials":{"count":0,"items":[]},"hereNow":{"count":0,"groups":[]}}]}}
