{"meta":{"code":200},"response":{"venues":[{"id":"4def24a045dd29e26897ff45","name":"MILK BLOOSSOM Matsubara","contact":{},"location":{"lat":34.931273,"lng":135.764753,"country":"Japan"},"categories":[{"id":"4bf58dd8d48988d1e0931735","name":"Coffee Shop","pluralName":"Coffee Shops","shortName":"Coffee Shop","icon":{"prefix":"https:\/\/foursquare.com\/img\/categories_v2\/food\/coffeeshop_","suffix":".png"},"primary":true}],"verified":false,"stats":{"checkinsCount":2,"usersCount":1,"tipCount":0},"likes":{"count":0,"groups":[]},"specials":{"count":0,"items":[]},"hereNow":{"count":0,"groups":[]}},{"id":"4d95408061a3a1cd89038042","name":"大進亭","contact":{},"location":{"lat":34.93169,"lng":135.765543,"country":"Japan"},"categories":[{"id":"4bf58dd8d48988d1c4941735","name":"Restaurant","pluralName":"Restaurants","shortName":"Other - Food","icon":{"prefix":"https:\/\/foursquare.com\/img\/categories_v2\/food\/default_","suffix":".png"},"primary":true}],"verified":false,"stats":{"checkinsCount":2,"usersCount":2,"tipCount":0},"likes":{"count":0,"groups":[]},"specials":{"count":0,"items":[]},"hereNow":{"count":0,"groups":[]}},{"id":"4dc8972f1f6e936efe47f410","name":"京都南労働基準監督署","contact":{},"location":{"address":"日本","lat":34.93009150028229,"lng":135.76544880867004,"city":"京都市","state":"京都府","country":"Japan"},"categories":[],"verified":false,"stats":{"checkinsCount":6,"usersCount":2,"tipCount":0},"likes":{"count":0,"groups":[]},"specials":{"count":0,"items":[]},"hereNow":{"count":0,"groups":[]}},{"id":"4fd14994e4b0362dd35df19a","name":"京都京町郵便局","contact":{},"location":{"address":"京町","crossStreet":"伏見区","lat":34.93030990775576,"lng":135.76463798532836,"city":"京都市","country":"Japan"},"categories":[{"id":"4bf58dd8d48988d1fd941735","name":"Mall","pluralName":"Malls","shortName":"Mall","icon":{"prefix":"https:\/\/foursquare.com\/img\/categories_v2\/shops\/mall_","suffix":".png"},"primary":true}],"verified":false,"stats":{"checkinsCount":3,"usersCount":1,"tipCount":0},"likes":{"count":0,"groups":[]},"specials":{"count":0,"items":[]},"hereNow":{"count":0,"groups":[]}},{"id":"4c53b0f6479fc9281ce1e391","name":"ケンタッキーフライドチキン 伏見大手筋店","contact":{"phone":"+81756044830","formattedPhone":"+81 75-604-4830"},"location":{"address":"新町四丁目453-2","crossStreet":"ニューグランドビル","lat":34.932876293615,"lng":135.76334059238434,"city":"京都市伏見区","state":"京都府","country":"Japan"},"categories":[{"id":"4d4ae6fc7a7b7dea34424761","name":"Fried Chicken Joint","pluralName":"Fried Chicken Joints","shortName":"Fried Chicken","icon":{"prefix":"https:\/\/foursquare.com\/img\/categories_v2\/food\/friedchicken_","suffix":".png"},"primary":true}],"verified":false,"stats":{"checkinsCount":34,"usersCount":18,"tipCount":0},"likes":{"count":0,"groups":[]},"specials":{"count":0,"items":[]},"hereNow":{"count":0,"groups":[]}},{"id":"4f8fccf6e4b054d9879b7c9e","name":"DOUXCE","contact":{},"location":{"address":"京都市伏見区新町4-462-3","lat":34.93367854444892,"lng":135.76500364390608,"country":"Japan"},"categories":[{"id":"4bf58dd8d48988d110951735","name":"Salon \/ Barbershop","pluralName":"Salons \/ Barbershops","shortName":"Salon \/ Barbershop","icon":{"prefix":"https:\/\/foursquare.com\/img\/categories_v2\/shops\/salon_barber_","suffix":".png"},"primary":true}],"verified":false,"stats":{"checkinsCount":1,"usersCount":1,"tipCount":0},"likes":{"count":0,"groups":[]},"specials":{"count":0,"items":[]},"hereNow":{"count":0,"groups":[]}},{"id":"4c2f16653896e21e7252e390","name":"游鈴","contact":{},"location":{"lat":34.932328756267594,"lng":135.76315820217133,"country":"Japan"},"categories":[{"id":"4bf58dd8d48988d145941735","name":"Chinese Restaurant","pluralName":"Chinese Restaurants","shortName":"Chinese","icon":{"prefix":"https:\/\/foursquare.com\/img\/categories_v2\/food\/chinese_","suffix":".png"},"primary":true}],"verified":false,"stats":{"checkinsCount":3,"usersCount":3,"tipCount":0},"likes":{"count":0,"groups":[]},"specials":{"count":0,"items":[]},"hereNow":{"count":0,"groups":[]}},{"id":"4b5c19b5f964a520112429e3","name":"京阪 伏見桃山駅 (Fushimi-momoyama Sta.)","contact":{},"location":{"address":"伏見区京町3-173","lat":34.932567,"lng":135.7643,"postalCode":"612-8083","city":"京都市","state":"京都府","country":"Japan"},"categories":[{"id":"4bf58dd8d48988d129951735","name":"Train Station","pluralName":"Train Stations","shortName":"Train Station","icon":{"prefix":"https:\/\/foursquare.com\/img\/categories_v2\/travel\/trainstation_","suffix":".png"},"primary":true}],"verified":false,"stats":{"checkinsCount":944,"usersCount":294,"tipCount":0},"likes":{"count":0,"groups":[]},"specials":{"count":0,"items":[]},"hereNow":{"count":0,"groups":[]}},{"id":"4b9cb69df964a520c37736e3","name":"大中","contact":{},"location":{"address":"観音寺町 高架下217","lat":34.93270945975293,"lng":135.76519804581102,"city":"京都市伏見区","state":"京都府","country":"Japan"},"categories":[{"id":"4bf58dd8d48988d1d1941735","name":"Ramen \/  Noodle House","pluralName":"Ramen \/  Noodle House","shortName":"Ramen \/ Noodles","icon":{"prefix":"https:\/\/foursquare.com\/img\/categories_v2\/food\/ramen_","suffix":".png"},"primary":true}],"verified":false,"stats":{"checkinsCount":265,"usersCount":137,"tipCount":2},"likes":{"count":0,"groups":[]},"specials":{"count":0,"items":[]},"hereNow":{"count":0,"groups":[]}},{"id":"4d9de956d19f8eec8520a0e1","name":"コナミスポーツクラブ 伏見","contact":{"phone":"+81756220641","formattedPhone":"+81 75-622-0641"},"location":{"address":"両替町2-348-1","lat":34.93092391223395,"lng":135.76316612221092,"postalCode":"612-8082","city":"京都市伏見区","state":"京都府","country":"Japan"},"categories":[{"id":"4bf58dd8d48988d176941735","name":"Gym","pluralName":"Gyms","shortName":"Gym","icon":{"prefix":"https:\/\/foursquare.com\/img\/categories_v2\/building\/gym_","suffix":".png"},"primary":true}],"verified":false,"stats":{"checkinsCount":24,"usersCount":7,"tipCount":0},"likes":{"count":0,"groups":[]},"specials":{"count":0,"items":[]},"hereNow":{"count":0,"groups":[]}},{"id":"4f7d8fb9e4b01f9f43b449c4","name":"珉珉 桃山店","contact":{"phone":"+81756028672","formattedPhone":"+81 75-602-8672"},"location":{"address":"伏見区京町４丁目１５７−１","lat":34.933041,"lng":135.765173,"city":"京都市","state":"京都府","country":"Japan"},"categories":[{"id":"4bf58dd8d48988d145941735","name":"Chinese Restaurant","pluralName":"Chinese Restaurants","shortName":"Chinese","icon":{"prefix":"https:\/\/foursquare.com\/img\/categories_v2\/food\/chinese_","suffix":".png"},"primary":true}],"verified":false,"stats":{"checkinsCount":1,"usersCount":1,"tipCount":0},"likes":{"count":0,"groups":[]},"specials":{"count":0,"items":[]},"hereNow":{"count":0,"groups":[]}},{"id":"4ee6acddb634710b8d098407","name":"こやま皮膚科クリニック","contact":{"phone":"+81756222033","formattedPhone":"+81 75-622-2033"},"location":{"address":"観音寺町210-1","crossStreet":"1F","lat":34.933032418052456,"lng":135.76535761356354,"postalCode":"612-8101","city":"京都市伏見区","state":"京都府","country":"Japan"},"categories":[{"id":"4bf58dd8d48988d196941735","name":"Hospital","pluralName":"Hospitals","shortName":"Hospital","icon":{"prefix":"https:\/\/foursquare.com\/img\/categories_v2\/building\/medical_hospital_","suffix":".png"},"primary":true}],"verified":false,"stats":{"checkinsCount":1,"usersCount":1,"tipCount":0},"likes":{"count":0,"groups":[]},"specials":{"count":0,"items":[]},"hereNow":{"count":0,"groups":[]}},{"id":"4ee2220661aff90fe43e0e8f","name":"ヤングリーフ","contact":{},"location":{"address":"京都市伏見区","lat":34.932914,"lng":135.765528,"city":"京都市伏見区","state":"京都府","country":"Japan"},"categories":[{"id":"4bf58dd8d48988d1cb941735","name":"Food Truck","pluralName":"Food Trucks","shortName":"Street Food","icon":{"prefix":"https:\/\/foursquare.com\/img\/categories_v2\/food\/streetfood_","suffix":".png"},"primary":true}],"verified":false,"stats":{"checkinsCount":10,"usersCount":3,"tipCount":0},"likes":{"count":0,"groups":[]},"specials":{"count":0,"items":[]},"hereNow":{"count":0,"groups":[]}},{"id":"4ce3b246c46e6dcb502ad715","name":"べんがらや","contact":{"phone":"+81756226908","formattedPhone":"+81 75-622-6908"},"location":{"address":"上油掛町185-2","lat":34.93034527712604,"lng":135.76294898986816,"city":"京都市伏見区","state":"京都府","country":"Japan"},"categories":[{"id":"4bf58dd8d48988d1c4941735","name":"Restaurant","pluralName":"Restaurants","shortName":"Other - Food","icon":{"prefix":"https:\/\/foursquare.com\/img\/categories_v2\/food\/default_","suffix":".png"},"primary":true}],"verified":false,"stats":{"checkinsCount":49,"usersCount":20,"tipCount":0},"likes":{"count":0,"groups":[]},"specials":{"count":0,"items":[]},"hereNow":{"count":0,"groups":[]}},{"id":"4cce5d4fc9b84688ab63c8c3","name":"韓国惣菜 Chili x 2","contact":{"phone":"+81756027506","formattedPhone":"+81 75-602-7506"},"location":{"address":"納屋町118 納屋町センター12","crossStreet":"納屋町センター","lat":34.93048948348074,"lng":135.76380484967933,"city":"京都市伏見区","state":"京都府","country":"Japan"},"categories":[{"id":"4bf58dd8d48988d113941735","name":"Korean Restaurant","pluralName":"Korean Restaurants","shortName":"Korean","icon":{"prefix":"https:\/\/foursquare.com\/img\/categories_v2\/food\/default_","suffix":".png"},"primary":true}],"verified":false,"stats":{"checkinsCount":20,"usersCount":2,"tipCount":2},"likes":{"count":0,"groups":[]},"specials":{"count":0,"items":[]},"hereNow":{"count":0,"groups":[]}},{"id":"4cae5770aef16dcb99f49f54","name":"Cascade","contact":{},"location":{"lat":34.930777,"lng":135.763705,"country":"Japan"},"categories":[{"id":"4bf58dd8d48988d16d941735","name":"Café","pluralName":"Cafés","shortName":"Café","icon":{"prefix":"https:\/\/foursquare.com\/img\/categories_v2\/food\/cafe_","suffix":".png"},"primary":true}],"verified":false,"stats":{"checkinsCount":2,"usersCount":2,"tipCount":0},"likes":{"count":0,"groups":[]},"specials":{"count":0,"items":[]},"hereNow":{"count":0,"groups":[]}},{"id":"4cf77ca855e13704cff1d2b6","name":"わかば","contact":{},"location":{"lat":34.932964,"lng":135.765585,"country":"Japan"},"categories":[{"id":"4bf58dd8d48988d11c941735","name":"Sake Bar","pluralName":"Sake Bars","shortName":"Sake Bar","icon":{"prefix":"https:\/\/foursquare.com\/img\/categories_v2\/nightlife\/sake_","suffix":".png"},"primary":true}],"verified":false,"stats":{"checkinsCount":2,"usersCount":2,"tipCount":0},"likes":{"count":0,"groups":[]},"specials":{"count":0,"items":[]},"hereNow":{"count":0,"groups":[]}},{"id":"4bf9103b8d30d13af5a50118","name":"饂の神","contact":{},"location":{"address":"伏見区両替町4-303","lat":34.932535457543004,"lng":135.76391458511353,"city":"京都市","state":"京都府","country":"Japan"},"categories":[{"id":"4bf58dd8d48988d1d1941735","name":"Ramen \/  Noodle House","pluralName":"Ramen \/  Noodle House","shortName":"Ramen \/ Noodles","icon":{"prefix":"https:\/\/foursquare.com\/img\/categories_v2\/food\/ramen_","suffix":".png"},"primary":true}],"verified":false,"stats":{"checkinsCount":90,"usersCount":22,"tipCount":0},"likes":{"count":0,"groups":[]},"specials":{"count":0,"items":[]},"hereNow":{"count":0,"groups":[]}},{"id":"4d909b73d4ec8cfa7081a689","name":"コロニーバー","contact":{},"location":{"address":"伏見区新町４－４６３","lat":34.932444780796,"lng":135.7633697735177,"city":"Kyoto","state":"Kyoto Prefecture","country":"Japan"},"categories":[{"id":"4bf58dd8d48988d116941735","name":"Bar","pluralName":"Bars","shortName":"Bar","icon":{"prefix":"https:\/\/foursquare.com\/img\/categories_v2\/nightlife\/bar_","suffix":".png"},"primary":true}],"verified":false,"stats":{"checkinsCount":15,"usersCount":5,"tipCount":0},"likes":{"count":0,"groups":[]},"specials":{"count":0,"items":[]},"hereNow":{"count":0,"groups":[]}},{"id":"4c01efb9b58376b0cb06453c","name":"ミスタードーナツ 伏見大手筋ショップ","contact":{"phone":"+81756226566","formattedPhone":"+81 75-622-6566"},"location":{"address":"両替町4","lat":34.932904879801825,"lng":135.76377511024475,"postalCode":"612-8082","city":"京都市伏見区","state":"京都府","country":"Japan"},"categories":[{"id":"4bf58dd8d48988d148941735","name":"Donut Shop","pluralName":"Donut Shops","shortName":"Donuts","icon":{"prefix":"https:\/\/foursquare.com\/img\/categories_v2\/food\/donuts_","suffix":".png"},"primary":true}],"verified":false,"stats":{"checkinsCount":44,"usersCount":23,"tipCount":1},"likes":{"count":0,"groups":[]},"specials":{"count":0,"items":[]},"hereNow":{"count":0,"groups":[]}},{"id":"4bb5b694941ad13ae6771ee3","name":"鳥貴族 伏見桃山店","contact":{"phone":"+81756056044","formattedPhone":"+81 75-605-6044"},"location":{"address":"京新町4丁目453-1","crossStreet":"八甲ビル2F","lat":34.932862,"lng":135.763587,"postalCode":"612-8081","city":"京都市伏見区","state":"都府","country":"Japan"},"categories":[{"id":"4bf58dd8d48988d1c4941735","name":"Restaurant","pluralName":"Restaurants","shortName":"Other - Food","icon":{"prefix":"https:\/\/foursquare.com\/img\/categories_v2\/food\/default_","suffix":".png"},"primary":true}],"verified":false,"stats":{"checkinsCount":34,"usersCount":13,"tipCount":0},"likes":{"count":0,"groups":[]},"specials":{"count":0,"items":[]},"hereNow":{"count":0,"groups":[]}},{"id":"4c91c96cae96a0933975a646","name":"花咲み","contact":{},"location":{"lat":34.93251556,"lng":135.76352878,"country":"Japan"},"categories":[{"id":"4bf58dd8d48988d1f9941735","name":"Food & Drink Shop","pluralName":"Food & Drink Shops","shortName":"Food & Drink","icon":{"prefix":"https:\/\/foursquare.com\/img\/categories_v2\/shops\/foodanddrink_","suffix":".png"},"primary":true}],"verified":false,"stats":{"checkinsCount":6,"usersCount":6,"tipCount":0},"likes":{"count":0,"groups":[]},"specials":{"count":0,"items":[]},"hereNow":{"count":0,"groups":[]}},{"id":"4d1b300670d76ea888484c73","name":"土筆んぼう 伏見桃山駅前店","contact":{"phone":"+81756211870","formattedPhone":"+81 75-621-1870"},"location":{"address":"両替町4-293-1","lat":34.932900481927575,"lng":135.76391994953156,"postalCode":"612-8082","city":"京都市伏見区","state":"京都府","country":"Japan"},"categories":[{"id":"4bf58dd8d48988d111941735","name":"Japanese Restaurant","pluralName":"Japanese Restaurants","shortName":"Japanese","icon":{"prefix":"https:\/\/foursquare.com\/img\/categories_v2\/food\/japanese_","suffix":".png"},"primary":true}],"verified":false,"stats":{"checkinsCount":14,"usersCount":11,"tipCount":0},"url":"http:\/\/r.gnavi.co.jp\/k390188","likes":{"count":0,"groups":[]},"specials":{"count":0,"items":[]},"hereNow":{"count":0,"groups":[]}},{"id":"4c3d8a2a7c1ee21e0f058e71","name":"いいあんべぇ","contact":{},"location":{"lat":34.93277972844358,"lng":135.76390204808797,"country":"Japan"},"categories":[],"verified":false,"stats":{"checkinsCount":4,"usersCount":1,"tipCount":0},"likes":{"count":0,"groups":[]},"specials":{"count":0,"items":[]},"hereNow":{"count":0,"groups":[]}},{"id":"4f8fce54e4b01582b2d082bd","name":"DOUXCE","contact":{},"location":{"address":"京都府京都市伏見区新町4-462-3","lat":34.931386520211746,"lng":135.76255517351183,"country":"Japan"},"categories":[{"id":"4bf58dd8d48988d110951735","name":"Salon \/ Barbershop","pluralName":"Salons \/ Barbershops","shortName":"Salon \/ Barbershop","icon":{"prefix":"https:\/\/foursquare.com\/img\/categories_v2\/shops\/salon_barber_","suffix":".png"},"primary":true}],"verified":false,"stats":{"checkinsCount":1,"usersCount":1,"tipCount":0},"likes":{"count":0,"groups":[]},"specials":{"count":0,"items":[]},"hereNow":{"count":0,"groups":[]}},{"id":"4d8345f881fdb1f7b0fee2bf","name":"「京阪バス発祥之地」の碑","contact":{"phone":"+81756228810","formattedPhone":"+81 75-622-8810"},"location":{"address":"京町4-155-1","crossStreet":"桃山京阪ビル","lat":34.933023622317414,"lng":135.76511085033417,"postalCode":"612-8083","city":"京都市伏見区","state":"京都府","country":"Japan"},"categories":[{"id":"4bf58dd8d48988d12d941735","name":"Monument \/ Landmark","pluralName":"Monuments \/ Landmarks","shortName":"Landmark","icon":{"prefix":"https:\/\/foursquare.com\/img\/categories_v2\/building\/government_monument_","suffix":".png"},"primary":true}],"verified":false,"stats":{"checkinsCount":51,"usersCount":14,"tipCount":0},"likes":{"count":0,"groups":[]},"specials":{"count":0,"items":[]},"hereNow":{"count":0,"groups":[]}},{"id":"4e19213c483b5cfa49d1facd","name":"中華屋がっつ","contact":{"phone":"+81756021725","formattedPhone":"+81 75-602-1725"},"location":{"address":"魚屋町573","lat":34.93159870078611,"lng":135.7637107372284,"city":"京都市伏見区","state":"京都府","country":"Japan"},"categories":[{"id":"4bf58dd8d48988d145941735","name":"Chinese Restaurant","pluralName":"Chinese Restaurants","shortName":"Chinese","icon":{"prefix":"https:\/\/foursquare.com\/img\/categories_v2\/food\/chinese_","suffix":".png"},"primary":true}],"verified":false,"stats":{"checkinsCount":10,"usersCount":9,"tipCount":0},"likes":{"count":0,"groups":[]},"specials":{"count":0,"items":[]},"hereNow":{"count":0,"groups":[]}},{"id":"4eb656fa722e578a4fd842b1","name":"STUDIO 307","contact":{"phone":"+81756210043","formattedPhone":"+81 75-621-0043"},"location":{"address":"伏見区西大手町307-139","lat":34.933132971363285,"lng":135.75967898173388,"city":"京都市","state":"京都府","country":"Japan"},"categories":[{"id":"4bf58dd8d48988d110951735","name":"Salon \/ Barbershop","pluralName":"Salons \/ Barbershops","shortName":"Salon \/ Barbershop","icon":{"prefix":"https:\/\/foursquare.com\/img\/categories_v2\/shops\/salon_barber_","suffix":".png"},"primary":true}],"verified":false,"stats":{"checkinsCount":2,"usersCount":2,"tipCount":0},"likes":{"count":0,"groups":[]},"specials":{"count":0,"items":[]},"hereNow":{"count":0,"groups":[]}},{"id":"4ec9a434e300719917accb63","name":"塚本光文堂","contact":{"phone":"+81756115439","formattedPhone":"+81 75-611-5439"},"location":{"address":"新町5丁目509","lat":34.93258,"lng":135.764293,"city":"京都市伏見区","state":"京都府","country":"Japan"},"categories":[{"id":"4bf58dd8d48988d1fb941735","name":"Hobby Shop","pluralName":"Hobby Shops","shortName":"Hobbies","icon":{"prefix":"https:\/\/foursquare.com\/img\/categories_v2\/shops\/hobbyshop_","suffix":".png"},"primary":true}],"verified":false,"stats":{"checkinsCount":3,"usersCount":2,"tipCount":0},"likes":{"count":0,"groups":[]},"specials":{"count":0,"items":[]},"hereNow":{"count":0,"groups":[]}},{"id":"4db408f30437fa536a22781e","name":"眠眠 伏見桃山店","contact":{},"location":{"address":"京町4丁目157-1","crossStreet":"文珠ビル ２Ｆ","lat":34.932981,"lng":135.765022,"city":"京都市伏見区","state":"京都府","country":"Japan"},"categories":[{"id":"4bf58dd8d48988d145941735","name":"Chinese Restaurant","pluralName":"Chinese Restaurants","shortName":"Chinese","icon":{"prefix":"https:\/\/foursquare.com\/img\/categories_v2\/food\/chinese_","suffix":".png"},"primary":true}],"verified":false,"stats":{"checkinsCount":7,"usersCount":6,"tipCount":0},"likes":{"count":0,"groups":[]},"specials":{"count":0,"items":[]},"hereNow":{"count":0,"groups":[]}},{"id":"4d2adc7a888af04d2a14dbaf","name":"サラダの店 サンチョ 伏見店","contact":{},"location":{"address":"魚屋町573","lat":34.93158,"lng":135.763612,"city":"京都市伏見区","state":"京都府","country":"Japan"},"categories":[{"id":"4bf58dd8d48988d1bd941735","name":"Salad Place","pluralName":"Salad Shop","shortName":"Salad","icon":{"prefix":"https:\/\/foursquare.com\/img\/categories_v2\/food\/salad_","suffix":".png"},"primary":true}],"verified":false,"stats":{"checkinsCount":62,"usersCount":28,"tipCount":0},"likes":{"count":0,"groups":[]},"specials":{"count":0,"items":[]},"hereNow":{"count":0,"groups":[]}},{"id":"4f1f658be4b057da8bd00326","name":"臥水 正庵","contact":{},"location":{"address":"京都市伏見区京町3丁目","lat":34.93252432644953,"lng":135.76472129969426,"country":"Japan"},"categories":[{"id":"4bf58dd8d48988d1e2931735","name":"Art Gallery","pluralName":"Art Galleries","shortName":"Art Gallery","icon":{"prefix":"https:\/\/foursquare.com\/img\/categories_v2\/arts_entertainment\/artgallery_","suffix":".png"},"primary":true}],"verified":false,"stats":{"checkinsCount":2,"usersCount":2,"tipCount":0},"likes":{"count":0,"groups":[]},"specials":{"count":0,"items":[]},"hereNow":{"count":0,"groups":[]}},{"id":"4ef6ecc77716bd35228ff55a","name":"サクラ堂歯科医院","contact":{},"location":{"address":"京町3-198-1","lat":34.93178341423273,"lng":135.7646729797125,"city":"京都市伏見区","state":"京都府","country":"Japan"},"categories":[{"id":"4bf58dd8d48988d178941735","name":"Dentist's Office","pluralName":"Dentist's Offices","shortName":"Dentist's Office","icon":{"prefix":"https:\/\/foursquare.com\/img\/categories_v2\/building\/medical_dentist_","suffix":".png"},"primary":true}],"verified":false,"stats":{"checkinsCount":0,"usersCount":0,"tipCount":0},"likes":{"count":0,"groups":[]},"specials":{"count":0,"items":[]},"hereNow":{"count":0,"groups":[]}},{"id":"4f967865e4b0266a4f853a03","name":"林戸耳鼻咽喉医院","contact":{},"location":{"address":"京都市伏見区魚屋町","lat":34.931755,"lng":135.764141,"city":"京都市伏見区魚屋町","country":"Japan"},"categories":[{"id":"4bf58dd8d48988d177941735","name":"Doctor's Office","pluralName":"Doctor's Offices","shortName":"Doctor's Office","icon":{"prefix":"https:\/\/foursquare.com\/img\/categories_v2\/building\/medical_","suffix":".png"},"primary":true}],"verified":false,"stats":{"checkinsCount":0,"usersCount":0,"tipCount":0},"likes":{"count":0,"groups":[]},"specials":{"count":0,"items":[]},"hereNow":{"count":0,"groups":[]}},{"id":"4fcd7b09e4b0bbfdf3d900e0","name":"NTT伏見別館","contact":{},"location":{"lat":34.93278121948242,"lng":135.7650909423828,"country":"Japan"},"categories":[{"id":"4bf58dd8d48988d1ff941735","name":"Miscellaneous Shop","pluralName":"Miscellaneous Shops","shortName":"Other - Shop","icon":{"prefix":"https:\/\/foursquare.com\/img\/categories_v2\/shops\/default_","suffix":".png"},"primary":true}],"verified":false,"stats":{"checkinsCount":1,"usersCount":1,"tipCount":0},"likes":{"count":0,"groups":[]},"specials":{"count":0,"items":[]},"hereNow":{"count":0,"groups":[]}},{"id":"4f92f348e4b00fe65ec067d8","name":"billiards darts bar SUN","contact":{},"location":{"address":"Fushimi Ward","crossStreet":"Kyoto City","lat":34.9316,"lng":135.763928,"city":"Kyoto Prefecture","state":"Japan","country":"Japan"},"categories":[{"id":"4bf58dd8d48988d121941735","name":"Lounge","pluralName":"Lounges","shortName":"Lounge","icon":{"prefix":"https:\/\/foursquare.com\/img\/categories_v2\/nightlife\/lounge_","suffix":".png"},"primary":true}],"verified":false,"stats":{"checkinsCount":2,"usersCount":2,"tipCount":0},"likes":{"count":0,"groups":[]},"specials":{"count":0,"items":[]},"hereNow":{"count":0,"groups":[]}},{"id":"4f645d75e4b0ce431d0569a1","name":"日本料理・生簀割烹・寿司料理　しま文","contact":{},"location":{"lat":34.932041,"lng":135.763767,"country":"Japan"},"categories":[{"id":"4bf58dd8d48988d111941735","name":"Japanese Restaurant","pluralName":"Japanese Restaurants","shortName":"Japanese","icon":{"prefix":"https:\/\/foursquare.com\/img\/categories_v2\/food\/japanese_","suffix":".png"},"primary":true}],"verified":false,"stats":{"checkinsCount":2,"usersCount":2,"tipCount":0},"likes":{"count":0,"groups":[]},"specials":{"count":0,"items":[]},"hereNow":{"count":0,"groups":[]}},{"id":"4ddcdf2bae60d6fc1595ba10","name":"養老乃瀧 伏見桃山店","contact":{},"location":{"address":"京町4-167-1","lat":34.93313854697862,"lng":135.76439267165233,"city":"京都市伏見区","state":"京都府","country":"Japan"},"categories":[{"id":"4bf58dd8d48988d111941735","name":"Japanese Restaurant","pluralName":"Japanese Restaurants","shortName":"Japanese","icon":{"prefix":"https:\/\/foursquare.com\/img\/categories_v2\/food\/japanese_","suffix":".png"},"primary":true}],"verified":false,"stats":{"checkinsCount":21,"usersCount":6,"tipCount":0},"likes":{"count":0,"groups":[]},"specials":{"count":0,"items":[]},"hereNow":{"count":0,"groups":[]}},{"id":"4db95ec4f7b1b4c54f4f43c3","name":"トスカーナの食卓","contact":{"phone":"+815058167834","formattedPhone":"+81 50-5816-7834"},"location":{"address":"魚屋町574-102","crossStreet":"ハイツ桃山102","lat":34.931770220428916,"lng":135.76353907585144,"city":"京都市伏見区","state":"京都府","country":"Japan"},"categories":[{"id":"4bf58dd8d48988d110941735","name":"Italian Restaurant","pluralName":"Italian Restaurants","shortName":"Italian","icon":{"prefix":"https:\/\/foursquare.com\/img\/categories_v2\/food\/italian_","suffix":".png"},"primary":true}],"verified":false,"stats":{"checkinsCount":13,"usersCount":6,"tipCount":0},"likes":{"count":0,"groups":[]},"specials":{"count":0,"items":[]},"hereNow":{"count":0,"groups":[]}},{"id":"4e2d44cd52b1b8f198738e07","name":"やぎ接骨院","contact":{},"location":{"lat":34.931821,"lng":135.76388,"country":"Japan"},"categories":[{"id":"4bf58dd8d48988d177941735","name":"Doctor's Office","pluralName":"Doctor's Offices","shortName":"Doctor's Office","icon":{"prefix":"https:\/\/foursquare.com\/img\/categories_v2\/building\/medical_","suffix":".png"},"primary":true}],"verified":false,"stats":{"checkinsCount":1,"usersCount":1,"tipCount":0},"likes":{"count":0,"groups":[]},"specials":{"count":0,"items":[]},"hereNow":{"count":0,"groups":[]}},{"id":"4fa0f6d8e4b0908b48fd177a","name":"石勢","contact":{},"location":{"lat":34.93164,"lng":135.763699,"country":"Japan"},"categories":[{"id":"4bf58dd8d48988d111941735","name":"Japanese Restaurant","pluralName":"Japanese Restaurants","shortName":"Japanese","icon":{"prefix":"https:\/\/foursquare.com\/img\/categories_v2\/food\/japanese_","suffix":".png"},"primary":true}],"verified":false,"stats":{"checkinsCount":2,"usersCount":2,"tipCount":0},"likes":{"count":0,"groups":[]},"specials":{"count":0,"items":[]},"hereNow":{"count":0,"groups":[]}},{"id":"4c131b6da5eb76b0d381bfb7","name":"中華そばますたに伏見桃山店","contact":{"phone":"+81756125445","formattedPhone":"+81 75-612-5445"},"location":{"address":"新町4丁目473","lat":34.93174,"lng":135.763283,"postalCode":"612-8081","city":"京都市伏見区","state":"京都府","country":"Japan"},"categories":[{"id":"4bf58dd8d48988d145941735","name":"Chinese Restaurant","pluralName":"Chinese Restaurants","shortName":"Chinese","icon":{"prefix":"https:\/\/foursquare.com\/img\/categories_v2\/food\/chinese_","suffix":".png"},"primary":true}],"verified":false,"stats":{"checkinsCount":1,"usersCount":1,"tipCount":0},"likes":{"count":0,"groups":[]},"specials":{"count":0,"items":[]},"hereNow":{"count":0,"groups":[]}},{"id":"4fc8979de4b0e4b1e99b2970","name":"花涼ん","contact":{},"location":{"address":"京都市","lat":34.93223571777344,"lng":135.76339721679688,"city":"京都市伏見区","state":"京都","country":"Japan"},"categories":[{"id":"4bf58dd8d48988d111941735","name":"Japanese Restaurant","pluralName":"Japanese Restaurants","shortName":"Japanese","icon":{"prefix":"https:\/\/foursquare.com\/img\/categories_v2\/food\/japanese_","suffix":".png"},"primary":true}],"verified":false,"stats":{"checkinsCount":1,"usersCount":1,"tipCount":0},"likes":{"count":0,"groups":[]},"specials":{"count":0,"items":[]},"hereNow":{"count":0,"groups":[]}},{"id":"4faf32a1e4b085f6b2ebcb6d","name":"IL Baccanale","contact":{},"location":{"lat":34.932147,"lng":135.763208,"country":"Japan"},"categories":[{"id":"4bf58dd8d48988d110941735","name":"Italian Restaurant","pluralName":"Italian Restaurants","shortName":"Italian","icon":{"prefix":"https:\/\/foursquare.com\/img\/categories_v2\/food\/italian_","suffix":".png"},"primary":true}],"verified":false,"stats":{"checkinsCount":2,"usersCount":2,"tipCount":0},"likes":{"count":0,"groups":[]},"specials":{"count":0,"items":[]},"hereNow":{"count":0,"groups":[]}},{"id":"4e544f32d4c0fe0342791c2a","name":"三井住友銀行 伏見支店","contact":{},"location":{"address":"銀座町1丁目354-1。","lat":34.93295171,"lng":135.76435432,"city":"京都市伏見区","state":"京都府","country":"Japan"},"categories":[{"id":"4bf58dd8d48988d10a951735","name":"Bank","pluralName":"Banks","shortName":"Bank \/ Financial","icon":{"prefix":"https:\/\/foursquare.com\/img\/categories_v2\/shops\/financial_","suffix":".png"},"primary":true}],"verified":false,"stats":{"checkinsCount":30,"usersCount":7,"tipCount":1},"likes":{"count":0,"groups":[]},"specials":{"count":0,"items":[]},"hereNow":{"count":0,"groups":[]}},{"id":"4c174a55955976b0d1c6a5f6","name":"ソフトバンク伏見桃山","contact":{"phone":"+81756020201","formattedPhone":"+81 75-602-0201","twitter":"SBfushimi"},"location":{"address":"両替町4-291-1","crossStreet":"辻熊ビル 1F","lat":34.93284770741818,"lng":135.76411843299866,"postalCode":"612-8082","city":"京都市伏見区","state":"京都府","country":"Japan"},"categories":[{"id":"4f04afc02fb6e1c99f3db0bc","name":"Mobile Phone Shop","pluralName":"Mobile Phone Shops","shortName":"Mobile Phone","icon":{"prefix":"https:\/\/foursquare.com\/img\/categories_v2\/shops\/mobilephoneshop_","suffix":".png"},"primary":true}],"verified":false,"stats":{"checkinsCount":17,"usersCount":12,"tipCount":0},"likes":{"count":0,"groups":[]},"specials":{"count":0,"items":[]},"hereNow":{"count":0,"groups":[]}},{"id":"4da6d69293a04785b907f563","name":"坐・和民 伏見桃山店","contact":{},"location":{"address":"京町3-173","crossStreet":"伏見桃山駅前ビルB1F","lat":34.93278833605458,"lng":135.7645207643509,"city":"京都市伏見区","state":"京都府","country":"Japan"},"categories":[{"id":"4bf58dd8d48988d111941735","name":"Japanese Restaurant","pluralName":"Japanese Restaurants","shortName":"Japanese","icon":{"prefix":"https:\/\/foursquare.com\/img\/categories_v2\/food\/japanese_","suffix":".png"},"primary":true}],"verified":false,"stats":{"checkinsCount":22,"usersCount":15,"tipCount":0},"likes":{"count":0,"groups":[]},"specials":{"count":0,"items":[]},"hereNow":{"count":0,"groups":[]}},{"id":"4d47d641564e224b048fd5cd","name":"うまいもん屋 櫻","contact":{},"location":{"address":"銀座1-355","lat":34.9328784925528,"lng":135.7644510269165,"city":"京都市伏見区","state":"京都府","country":"Japan"},"categories":[{"id":"4bf58dd8d48988d111941735","name":"Japanese Restaurant","pluralName":"Japanese Restaurants","shortName":"Japanese","icon":{"prefix":"https:\/\/foursquare.com\/img\/categories_v2\/food\/japanese_","suffix":".png"},"primary":true}],"verified":false,"stats":{"checkinsCount":48,"usersCount":32,"tipCount":0},"likes":{"count":0,"groups":[]},"specials":{"count":0,"items":[]},"hereNow":{"count":0,"groups":[]}},{"id":"4f645b16e4b0777dfc4080db","name":"味福","contact":{},"location":{"lat":34.932681,"lng":135.764117,"country":"Japan"},"categories":[{"id":"4bf58dd8d48988d111941735","name":"Japanese Restaurant","pluralName":"Japanese Restaurants","shortName":"Japanese","icon":{"prefix":"https:\/\/foursquare.com\/img\/categories_v2\/food\/japanese_","suffix":".png"},"primary":true}],"verified":false,"stats":{"checkinsCount":1,"usersCount":1,"tipCount":0},"likes":{"count":0,"groups":[]},"specials":{"count":0,"items":[]},"hereNow":{"count":0,"groups":[]}},{"id":"4f0d5e36e4b08f669844060a","name":"かめた","contact":{},"location":{"address":"伏見区","lat":34.932843,"lng":135.764263,"country":"Japan"},"categories":[{"id":"4bf58dd8d48988d1f3941735","name":"Toy \/ Game Store","pluralName":"Toy \/ Game Stores","shortName":"Toys & Games","icon":{"prefix":"https:\/\/foursquare.com\/img\/categories_v2\/shops\/toys_","suffix":".png"},"primary":true}],"verified":false,"stats":{"checkinsCount":4,"usersCount":1,"tipCount":0},"likes":{"count":0,"groups":[]},"specials":{"count":0,"items":[]},"hereNow":{"count":0,"groups":[]}}]}}
