{"meta":{"code":200},"response":{"venues":[{"id":"4e16ba0dae60de5d28f54aa0","name":"大岩神社","contact":{},"location":{"address":"深草向ケ原町89-2","lat":34.95157612781032,"lng":135.79221725463867,"city":"京都市伏見区","state":"京都府","country":"Japan"},"categories":[{"id":"4eb1d80a4b900d56c88a45ff","name":"Shrine","pluralName":"Shrines","shortName":"Shrine","icon":{"prefix":"https:\/\/foursquare.com\/img\/categories_v2\/building\/religious_shrine_","suffix":".png"},"primary":true}],"verified":false,"stats":{"checkinsCount":5,"usersCount":5,"tipCount":0},"likes":{"count":0,"groups":[]},"specials":{"count":0,"items":[]},"hereNow":{"count":0,"groups":[]}},{"id":"4d26bc1b3c7954812454be9b","name":"御香宮社 (古御香宮)","contact":{},"location":{"address":"伏見区深草大亀谷古御香町20","lat":34.94488061813515,"lng":135.78468207315018,"city":"京都市","state":"京都府","country":"Japan"},"categories":[{"id":"4bf58dd8d48988d131941735","name":"Religious Center","pluralName":"Religious Centers","shortName":"Religious","icon":{"prefix":"https:\/\/foursquare.com\/img\/categories_v2\/building\/religious_","suffix":".png"},"primary":true}],"verified":false,"stats":{"checkinsCount":10,"usersCount":6,"tipCount":0},"likes":{"count":0,"groups":[]},"specials":{"count":0,"items":[]},"hereNow":{"count":0,"groups":[]}},{"id":"4ef45e6b93ad743f5f3de94b","name":"ステーキハウス文琳","contact":{"phone":"+81756415299","formattedPhone":"+81 75-641-5299"},"location":{"address":"大亀谷大山町85-2","lat":34.945369706800896,"lng":135.78227698802948,"postalCode":"612-0847","city":"京都市伏見区","state":"京都府","country":"Japan"},"categories":[{"id":"4bf58dd8d48988d1cc941735","name":"Steakhouse","pluralName":"Steakhouses","shortName":"Steakhouse","icon":{"prefix":"https:\/\/foursquare.com\/img\/categories_v2\/food\/steakhouse_","suffix":".png"},"primary":true}],"verified":false,"stats":{"checkinsCount":4,"usersCount":4,"tipCount":1},"likes":{"count":0,"groups":[]},"specials":{"count":0,"items":[]},"hereNow":{"count":0,"groups":[]}},{"id":"4c6229d5de1b2d7f8ad1e170","name":"コスモ石油 深草SS","contact":{"phone":"+81756463672","formattedPhone":"+81 75-646-3672"},"location":{"address":"深草馬谷町20-1","lat":34.95578822381555,"lng":135.7888162136078,"city":"京都市 伏見区","state":"京都府","country":"Japan"},"categories":[{"id":"4bf58dd8d48988d113951735","name":"Gas Station \/ Garage","pluralName":"Gas Stations \/ Garages","shortName":"Gas Station \/ Garage","icon":{"prefix":"https:\/\/foursquare.com\/img\/categories_v2\/shops\/gas_","suffix":".png"},"primary":true}],"verified":false,"stats":{"checkinsCount":22,"usersCount":4,"tipCount":0},"likes":{"count":0,"groups":[]},"specials":{"count":0,"items":[]},"hereNow":{"count":0,"groups":[]}},{"id":"4eeaa1c519835bc6eede1da1","name":"ローソン 伏見深草谷口店","contact":{"phone":"+81756430665","formattedPhone":"+81 75-643-0665","twitter":"akiko_lawson"},"location":{"address":"深草谷口町55-1","lat":34.9540009,"lng":135.7821133,"city":"京都市伏見区","state":"京都府","country":"Japan"},"categories":[{"id":"4d954b0ea243a5684a65b473","name":"Convenience Store","pluralName":"Convenience Stores","shortName":"Convenience Stores","icon":{"prefix":"https:\/\/foursquare.com\/img\/categories_v2\/shops\/conveniencestore_","suffix":".png"},"primary":true}],"verified":true,"stats":{"checkinsCount":3,"usersCount":3,"tipCount":0},"likes":{"count":0,"groups":[]},"specials":{"count":0,"items":[]},"hereNow":{"count":0,"groups":[]}},{"id":"4ee418f06c25be963022653a","name":"石山ピアノ調律サービス","contact":{},"location":{"lat":34.953561,"lng":135.78235,"city":"京都市","country":"Japan"},"categories":[{"id":"4bf58dd8d48988d1fe941735","name":"Music Store","pluralName":"Music Stores","shortName":"Music Store","icon":{"prefix":"https:\/\/foursquare.com\/img\/categories_v2\/shops\/music_instruments_","suffix":".png"},"primary":true}],"verified":false,"stats":{"checkinsCount":2,"usersCount":2,"tipCount":0},"likes":{"count":0,"groups":[]},"specials":{"count":0,"items":[]},"hereNow":{"count":0,"groups":[]}},{"id":"4e560d801f6ecd24d00e1994","name":"OX CREATION 宇治東","contact":{"phone":"+81774381377","formattedPhone":"+81 774-38-1377"},"location":{"address":"五ヶ庄福角44-1","lat":34.95363383849551,"lng":135.78432083129883,"postalCode":"611-0011","city":"宇治市","state":"京都府","country":"Japan"},"categories":[{"id":"4bf58dd8d48988d110951735","name":"Salon \/ Barbershop","pluralName":"Salons \/ Barbershops","shortName":"Salon \/ Barbershop","icon":{"prefix":"https:\/\/foursquare.com\/img\/categories_v2\/shops\/salon_barber_","suffix":".png"},"primary":true}],"verified":false,"stats":{"checkinsCount":4,"usersCount":2,"tipCount":0},"likes":{"count":0,"groups":[]},"specials":{"count":0,"items":[]},"hereNow":{"count":0,"groups":[]}},{"id":"4e55ff9362e1e9bb4267741a","name":"OX CREATION 椥辻","contact":{"phone":"+81755836787","formattedPhone":"+81 75-583-6787"},"location":{"address":"椥辻草海道町4-7","lat":34.954223,"lng":135.780794,"postalCode":"607-8162","city":"京都市山科区","state":"京都府","country":"Japan"},"categories":[{"id":"4bf58dd8d48988d110951735","name":"Salon \/ Barbershop","pluralName":"Salons \/ Barbershops","shortName":"Salon \/ Barbershop","icon":{"prefix":"https:\/\/foursquare.com\/img\/categories_v2\/shops\/salon_barber_","suffix":".png"},"primary":true}],"verified":false,"stats":{"checkinsCount":2,"usersCount":1,"tipCount":0},"likes":{"count":0,"groups":[]},"specials":{"count":0,"items":[]},"hereNow":{"count":0,"groups":[]}}]}}
