{"meta":{"code":200},"response":{"venues":[{"id":"4efc68216d866121e6b7dfc9","name":"弘法大師の霊泉","contact":{},"location":{"address":"宇治田原町高尾","lat":34.86815143814047,"lng":135.84818959236145,"city":"綴喜郡","state":"京都府","country":"Japan"},"categories":[{"id":"4bf58dd8d48988d162941735","name":"Other Great Outdoors","pluralName":"Other Great Outdoors","shortName":"Other Outdoors","icon":{"prefix":"https:\/\/foursquare.com\/img\/categories_v2\/parks_outdoors\/outdoors_","suffix":".png"},"primary":true}],"verified":false,"stats":{"checkinsCount":0,"usersCount":0,"tipCount":0},"likes":{"count":0,"groups":[]},"specials":{"count":0,"items":[]},"hereNow":{"count":0,"groups":[]}},{"id":"4cba21f5dd41a35d8469e6a0","name":"近畿スポーツランド","contact":{"phone":"+81774883633","formattedPhone":"+81 774-88-3633"},"location":{"address":"高雄字柏尾10-1","lat":34.871517,"lng":135.85167453624308,"postalCode":"610-0251","city":"綴喜郡宇治田原町","state":"京都府","country":"Japan"},"categories":[{"id":"4bf58dd8d48988d1f4931735","name":"Racetrack","pluralName":"Racetracks","shortName":"Racetrack","icon":{"prefix":"https:\/\/foursquare.com\/img\/categories_v2\/arts_entertainment\/racetrack_","suffix":".png"},"primary":true}],"verified":false,"stats":{"checkinsCount":32,"usersCount":22,"tipCount":0},"likes":{"count":0,"groups":[]},"specials":{"count":0,"items":[]},"hereNow":{"count":0,"groups":[]}},{"id":"4d0a244b7397a0904b5d54fd","name":"くつわ池自然公園","contact":{},"location":{"address":"宇治田原町","lat":34.85973563991538,"lng":135.8344030380249,"city":"綴喜郡","state":"京都府","country":"Japan"},"categories":[{"id":"4bf58dd8d48988d163941735","name":"Park","pluralName":"Parks","shortName":"Park","icon":{"prefix":"https:\/\/foursquare.com\/img\/categories_v2\/parks_outdoors\/park_","suffix":".png"},"primary":true}],"verified":false,"stats":{"checkinsCount":6,"usersCount":3,"tipCount":0},"likes":{"count":0,"groups":[]},"specials":{"count":0,"items":[]},"hereNow":{"count":0,"groups":[]}},{"id":"4da2caf1b521224b55ea0fee","name":"赤政","contact":{"phone":"+81774882380","formattedPhone":"+81 774-88-2380"},"location":{"address":"24 Mukai","lat":34.856508,"lng":135.848184,"postalCode":"610-0255","city":"Tsuzuki District","state":"Kyoto Prefecture","country":"Japan"},"categories":[],"verified":false,"stats":{"checkinsCount":2,"usersCount":1,"tipCount":0},"likes":{"count":0,"groups":[]},"specials":{"count":0,"items":[]},"hereNow":{"count":0,"groups":[]}},{"id":"4d0a23537397a090105c54fd","name":"府民スポーツ広場","contact":{"phone":"+81774208881","formattedPhone":"+81 774-20-8881"},"location":{"address":"大字佐古小字梶石 1-2","crossStreet":"みどりが丘","lat":34.85944952285253,"lng":135.83217680454254,"city":"久世郡久御山町","state":"京都府","country":"Japan"},"categories":[{"id":"4bf58dd8d48988d1e7941735","name":"Playground","pluralName":"Playgrounds","shortName":"Playground","icon":{"prefix":"https:\/\/foursquare.com\/img\/categories_v2\/parks_outdoors\/playground_","suffix":".png"},"primary":true}],"verified":false,"stats":{"checkinsCount":2,"usersCount":2,"tipCount":0},"url":"http:\/\/www.pref.kyoto.jp\/koen-annai\/spo.html","likes":{"count":0,"groups":[]},"specials":{"count":0,"items":[]},"hereNow":{"count":0,"groups":[]}},{"id":"4e866701dab43a58d780aab1","name":"府民スポーツ広場多目的グラウンド","contact":{"phone":"+81774208881","formattedPhone":"+81 774-20-8881"},"location":{"address":"大字佐古小字梶石 1-2","crossStreet":"みどりが丘","lat":34.860158210987805,"lng":135.8307123184204,"city":"久世郡久御山町","state":"京都府","country":"Japan"},"categories":[{"id":"4bf58dd8d48988d15f941735","name":"Field","pluralName":"Fields","shortName":"Field","icon":{"prefix":"https:\/\/foursquare.com\/img\/categories_v2\/parks_outdoors\/field_","suffix":".png"},"primary":true}],"verified":false,"stats":{"checkinsCount":8,"usersCount":4,"tipCount":1},"url":"http:\/\/www.pref.kyoto.jp\/koen-annai\/spo.html","likes":{"count":0,"groups":[]},"specials":{"count":0,"items":[]},"hereNow":{"count":0,"groups":[]}}]}}
