{"meta":{"code":200},"response":{"venues":[{"id":"4ef6e4ff7716bd35228f257a","name":"出雲橋","contact":{},"location":{"address":"深草墨染町","lat":34.945910561325434,"lng":135.76765224337578,"city":"京都市伏見区","state":"京都府","country":"Japan"},"categories":[{"id":"4bf58dd8d48988d1df941735","name":"Bridge","pluralName":"Bridges","shortName":"Bridge","icon":{"prefix":"https:\/\/foursquare.com\/img\/categories_v2\/parks_outdoors\/bridge_","suffix":".png"},"primary":true}],"verified":false,"stats":{"checkinsCount":9,"usersCount":1,"tipCount":0},"likes":{"count":0,"groups":[]},"specials":{"count":0,"items":[]},"hereNow":{"count":0,"groups":[]}},{"id":"4c4d65379932e21e89961dcc","name":"ラーメン はなふく","contact":{},"location":{"address":"鑓屋町1112-2","lat":34.94552,"lng":135.765757,"city":"京都市伏見区","state":"京都府","country":"Japan"},"categories":[{"id":"4bf58dd8d48988d1d1941735","name":"Ramen \/  Noodle House","pluralName":"Ramen \/  Noodle House","shortName":"Ramen \/ Noodles","icon":{"prefix":"https:\/\/foursquare.com\/img\/categories_v2\/food\/ramen_","suffix":".png"},"primary":true}],"verified":false,"stats":{"checkinsCount":15,"usersCount":8,"tipCount":0},"likes":{"count":0,"groups":[]},"specials":{"count":0,"items":[]},"hereNow":{"count":0,"groups":[]}},{"id":"4eb521b3e5e87437050a4734","name":"パサージュ (PasSage)","contact":{},"location":{"address":"深草出羽屋敷町23","crossStreet":"イズミヤ伏見店 1F","lat":34.9468845301914,"lng":135.7633540034294,"city":"京都市伏見区","state":"京都府","country":"Japan"},"categories":[{"id":"4bf58dd8d48988d1c5941735","name":"Sandwich Place","pluralName":"Sandwich Places","shortName":"Sandwiches","icon":{"prefix":"https:\/\/foursquare.com\/img\/categories_v2\/food\/sandwiches_","suffix":".png"},"primary":true}],"verified":false,"stats":{"checkinsCount":0,"usersCount":0,"tipCount":0},"likes":{"count":0,"groups":[]},"specials":{"count":0,"items":[]},"hereNow":{"count":0,"groups":[]}},{"id":"4fc99da7e4b0b44b52e96cff","name":"超★次郎","contact":{},"location":{"lat":34.945316,"lng":135.765371,"country":"Japan"},"categories":[{"id":"4bf58dd8d48988d1d1941735","name":"Ramen \/  Noodle House","pluralName":"Ramen \/  Noodle House","shortName":"Ramen \/ Noodles","icon":{"prefix":"https:\/\/foursquare.com\/img\/categories_v2\/food\/ramen_","suffix":".png"},"primary":true}],"verified":false,"stats":{"checkinsCount":1,"usersCount":1,"tipCount":0},"likes":{"count":0,"groups":[]},"specials":{"count":0,"items":[]},"hereNow":{"count":0,"groups":[]}},{"id":"4efc2dabc2ee80dc2e58a6f2","name":"曙橋","contact":{},"location":{"address":"深草紺屋町","lat":34.94563134012614,"lng":135.76366782188416,"city":"京都市伏見区","state":"京都府","country":"Japan"},"categories":[{"id":"4bf58dd8d48988d1df941735","name":"Bridge","pluralName":"Bridges","shortName":"Bridge","icon":{"prefix":"https:\/\/foursquare.com\/img\/categories_v2\/parks_outdoors\/bridge_","suffix":".png"},"primary":true}],"verified":false,"stats":{"checkinsCount":5,"usersCount":2,"tipCount":0},"likes":{"count":0,"groups":[]},"specials":{"count":0,"items":[]},"hereNow":{"count":0,"groups":[]}},{"id":"4d7c771179c4b1f7c836fcf2","name":"ヒーリンフィーリン 伏見深草店","contact":{},"location":{"lat":34.945671963970916,"lng":135.7637789952253,"country":"Japan"},"categories":[],"verified":false,"stats":{"checkinsCount":6,"usersCount":4,"tipCount":0},"likes":{"count":0,"groups":[]},"specials":{"count":0,"items":[]},"hereNow":{"count":0,"groups":[]}},{"id":"4e78b0dc091a2a74e04df86f","name":"伏見インクライン","contact":{},"location":{"address":"桃山町丹下14","lat":34.94506629904216,"lng":135.76681405305862,"city":"京都市伏見区","state":"京都府","country":"Japan"},"categories":[{"id":"4bf58dd8d48988d162941735","name":"Other Great Outdoors","pluralName":"Other Great Outdoors","shortName":"Other Outdoors","icon":{"prefix":"https:\/\/foursquare.com\/img\/categories_v2\/parks_outdoors\/outdoors_","suffix":".png"},"primary":true}],"verified":false,"stats":{"checkinsCount":37,"usersCount":8,"tipCount":0},"likes":{"count":0,"groups":[]},"specials":{"count":0,"items":[]},"hereNow":{"count":0,"groups":[]}},{"id":"4d9a6356e5fd6ea852726cf5","name":"伏見上ダム","contact":{},"location":{"address":"桃山町丹下","lat":34.94510770229332,"lng":135.76674726334272,"city":"京都市伏見区","state":"京都府","country":"Japan"},"categories":[{"id":"4eb1d4dd4b900d56c88a45fd","name":"River","pluralName":"Rivers","shortName":"River","icon":{"prefix":"https:\/\/foursquare.com\/img\/categories_v2\/parks_outdoors\/river_","suffix":".png"},"primary":true}],"verified":false,"stats":{"checkinsCount":13,"usersCount":6,"tipCount":0},"likes":{"count":0,"groups":[]},"specials":{"count":0,"items":[]},"hereNow":{"count":0,"groups":[]}},{"id":"4e78b15e091a2a74e04e065c","name":"関西電力 墨染発電所","contact":{},"location":{"address":"桃山丹下14-11","lat":34.94561155276098,"lng":135.76674163341522,"city":"京都市伏見区","state":"京都府","country":"Japan"},"categories":[{"id":"4bf58dd8d48988d130941735","name":"Building","pluralName":"Buildings","shortName":"Other - Buildings","icon":{"prefix":"https:\/\/foursquare.com\/img\/categories_v2\/building\/default_","suffix":".png"},"primary":true}],"verified":false,"stats":{"checkinsCount":34,"usersCount":5,"tipCount":0},"likes":{"count":0,"groups":[]},"specials":{"count":0,"items":[]},"hereNow":{"count":0,"groups":[]}},{"id":"4e655aa97d8b85408aea8b40","name":"サークルK 伏見墨染店","contact":{"phone":"+81756411728","formattedPhone":"+81 75-641-1728"},"location":{"address":"伏見区深草大島屋敷町32番地","lat":34.9485125493807,"lng":135.76578676700592,"postalCode":"612-0081","city":"京都市","state":"京都府","country":"Japan"},"categories":[{"id":"4d954b0ea243a5684a65b473","name":"Convenience Store","pluralName":"Convenience Stores","shortName":"Convenience Stores","icon":{"prefix":"https:\/\/foursquare.com\/img\/categories_v2\/shops\/conveniencestore_","suffix":".png"},"primary":true}],"verified":false,"stats":{"checkinsCount":2,"usersCount":2,"tipCount":0},"likes":{"count":0,"groups":[]},"specials":{"count":0,"items":[]},"hereNow":{"count":0,"groups":[]}},{"id":"4ebd5b7e469002701a3570af","name":"京都教育大学第二学舎","contact":{},"location":{"address":"深草越後屋敷町114","lat":34.948444975673205,"lng":135.76460095676808,"postalCode":"6128431","city":"京都市伏見区","state":"京都府","country":"Japan"},"categories":[{"id":"4bf58dd8d48988d1a3941735","name":"College Residence Hall","pluralName":"College Residence Halls","shortName":"Residence Hall","icon":{"prefix":"https:\/\/foursquare.com\/img\/categories_v2\/education\/residencehall_","suffix":".png"},"primary":true}],"verified":false,"stats":{"checkinsCount":3,"usersCount":2,"tipCount":0},"likes":{"count":0,"groups":[]},"specials":{"count":0,"items":[]},"hereNow":{"count":0,"groups":[]}},{"id":"4b7fec49f964a520a04430e3","name":"ラーメン荘 地球規模で考えろ","contact":{"phone":"+81726447544","formattedPhone":"+81 72-644-7544"},"location":{"address":"撞木町1153-9","lat":34.94545545226837,"lng":135.765261054039,"city":"京都市伏見区","state":"京都府","country":"Japan"},"categories":[{"id":"4bf58dd8d48988d1d1941735","name":"Ramen \/  Noodle House","pluralName":"Ramen \/  Noodle House","shortName":"Ramen \/ Noodles","icon":{"prefix":"https:\/\/foursquare.com\/img\/categories_v2\/food\/ramen_","suffix":".png"},"primary":true}],"verified":false,"stats":{"checkinsCount":446,"usersCount":137,"tipCount":1},"likes":{"count":0,"groups":[]},"specials":{"count":0,"items":[]},"hereNow":{"count":0,"groups":[]}},{"id":"4cc1182a22ce4688059e3b47","name":"サークルＫ 伏見出羽屋敷店","contact":{"phone":"+81756437518","formattedPhone":"+81 75-643-7518"},"location":{"address":"深草出羽屋敷町23-11","lat":34.94597432036358,"lng":135.7637482881546,"city":"京都市伏見区","state":"京都府","country":"Japan"},"categories":[{"id":"4bf58dd8d48988d118951735","name":"Grocery Store","pluralName":"Grocery Stores","shortName":"Grocery Store","icon":{"prefix":"https:\/\/foursquare.com\/img\/categories_v2\/shops\/food_grocery_","suffix":".png"},"primary":true}],"verified":false,"stats":{"checkinsCount":45,"usersCount":26,"tipCount":1},"likes":{"count":0,"groups":[]},"specials":{"count":0,"items":[]},"hereNow":{"count":0,"groups":[]}},{"id":"4bda25d7ffafd13a05fd9a85","name":"イズミヤ 伏見店","contact":{"phone":"+81756414892","formattedPhone":"+81 75-641-4892"},"location":{"address":"深草出羽屋敷町23","crossStreet":"国道24号線","lat":34.94629281227391,"lng":135.7630411547944,"postalCode":"612-0088","city":"京都市伏見区","state":"京都府","country":"Japan"},"categories":[{"id":"4bf58dd8d48988d1fd941735","name":"Mall","pluralName":"Malls","shortName":"Mall","icon":{"prefix":"https:\/\/foursquare.com\/img\/categories_v2\/shops\/mall_","suffix":".png"},"primary":true}],"verified":false,"stats":{"checkinsCount":108,"usersCount":41,"tipCount":1},"likes":{"count":0,"groups":[]},"specials":{"count":0,"items":[]},"hereNow":{"count":0,"groups":[]}},{"id":"4e34cb0d52b17fb1c601e8f5","name":"マクドナルド 伏見イズミヤ店","contact":{"phone":"+81756460511","formattedPhone":"+81 75-646-0511"},"location":{"address":"深草出羽屋敷町23","lat":34.94647144435227,"lng":135.76293470132768,"postalCode":"612-0088","city":"京都市伏見区","state":"京都府","country":"Japan"},"categories":[{"id":"4bf58dd8d48988d16e941735","name":"Fast Food Restaurant","pluralName":"Fast Food Restaurants","shortName":"Fast Food","icon":{"prefix":"https:\/\/foursquare.com\/img\/categories_v2\/food\/fastfood_","suffix":".png"},"primary":true}],"verified":false,"stats":{"checkinsCount":15,"usersCount":7,"tipCount":0},"likes":{"count":0,"groups":[]},"specials":{"count":0,"items":[]},"hereNow":{"count":0,"groups":[]}},{"id":"4bda2afcffafd13a1ffe9a85","name":"ミスタードーナツ　伏見ショップ","contact":{"phone":"+81756416668","formattedPhone":"+81 75-641-6668"},"location":{"address":"深草出羽屋敷町23","crossStreet":"国道24号線","lat":34.9460099,"lng":135.762947,"postalCode":"612-0088","city":"京都市伏見区","state":"京都府","country":"Japan"},"categories":[{"id":"4bf58dd8d48988d148941735","name":"Donut Shop","pluralName":"Donut Shops","shortName":"Donuts","icon":{"prefix":"https:\/\/foursquare.com\/img\/categories_v2\/food\/donuts_","suffix":".png"},"primary":true}],"verified":false,"stats":{"checkinsCount":55,"usersCount":30,"tipCount":3},"likes":{"count":0,"groups":[]},"specials":{"count":0,"items":[]},"hereNow":{"count":0,"groups":[]}},{"id":"4eb4ede5d3e3644ca5ff3409","name":"業務スーパー 深草店","contact":{},"location":{"lat":34.94594891894368,"lng":135.76341605802696,"country":"Japan"},"categories":[{"id":"4bf58dd8d48988d118951735","name":"Grocery Store","pluralName":"Grocery Stores","shortName":"Grocery Store","icon":{"prefix":"https:\/\/foursquare.com\/img\/categories_v2\/shops\/food_grocery_","suffix":".png"},"primary":true}],"verified":false,"stats":{"checkinsCount":10,"usersCount":7,"tipCount":0},"likes":{"count":0,"groups":[]},"specials":{"count":0,"items":[]},"hereNow":{"count":0,"groups":[]}},{"id":"4c9f287fd3c2b60c690ad2bc","name":"伏見郵便局","contact":{"phone":"+81756436218","formattedPhone":"+81 75-643-6218"},"location":{"address":"撞木町1148","lat":34.945824816333904,"lng":135.7643437385559,"postalCode":"612-0085","city":"京都市伏見区","state":"京都府","country":"Japan"},"categories":[{"id":"4bf58dd8d48988d172941735","name":"Post Office","pluralName":"Post Offices","shortName":"Post Office","icon":{"prefix":"https:\/\/foursquare.com\/img\/categories_v2\/building\/postoffice_","suffix":".png"},"primary":true}],"verified":false,"stats":{"checkinsCount":127,"usersCount":36,"tipCount":0},"likes":{"count":0,"groups":[]},"specials":{"count":0,"items":[]},"hereNow":{"count":0,"groups":[]}},{"id":"4f28a2cde5e8eae50764ed44","name":"下町 バス停","contact":{},"location":{"address":"伏見区西桝屋町","crossStreet":"市バス南8系統","lat":34.9473912972261,"lng":135.7662957161665,"city":"京都市","state":"京都府","country":"Japan"},"categories":[{"id":"4bf58dd8d48988d1fe931735","name":"Bus Station","pluralName":"Bus Stations","shortName":"Bus Station","icon":{"prefix":"https:\/\/foursquare.com\/img\/categories_v2\/travel\/busstation_","suffix":".png"},"primary":true}],"verified":false,"stats":{"checkinsCount":1,"usersCount":1,"tipCount":0},"likes":{"count":0,"groups":[]},"specials":{"count":0,"items":[]},"hereNow":{"count":0,"groups":[]}},{"id":"4ef1f4e0d5fb2baf20e46274","name":"橦木町廓入口","contact":{},"location":{"address":"撞木町","lat":34.94587758249314,"lng":135.76575726270676,"city":"京都市伏見区","state":"京都府","country":"Japan"},"categories":[{"id":"4deefb944765f83613cdba6e","name":"Historic Site","pluralName":"Historic Sites","shortName":"Historic Site","icon":{"prefix":"https:\/\/foursquare.com\/img\/categories_v2\/arts_entertainment\/historicsite_","suffix":".png"},"primary":true}],"verified":false,"stats":{"checkinsCount":2,"usersCount":1,"tipCount":0},"likes":{"count":0,"groups":[]},"specials":{"count":0,"items":[]},"hereNow":{"count":0,"groups":[]}},{"id":"4b9dd2baf964a52026bf36e3","name":"伏見税務署","contact":{"phone":"+81756415111","formattedPhone":"+81 75-641-5111"},"location":{"address":"伏見区鑓屋町","lat":34.946194178735496,"lng":135.76638221740723,"postalCode":"612-0084","city":"京都市","state":"京都府","country":"Japan"},"categories":[{"id":"4bf58dd8d48988d126941735","name":"Government Building","pluralName":"Government Buildings","shortName":"Government","icon":{"prefix":"https:\/\/foursquare.com\/img\/categories_v2\/building\/government_","suffix":".png"},"primary":true}],"verified":false,"stats":{"checkinsCount":14,"usersCount":11,"tipCount":0},"likes":{"count":0,"groups":[]},"specials":{"count":0,"items":[]},"hereNow":{"count":0,"groups":[]}},{"id":"4d9d349a7509b1f7579e3ca0","name":"墨染寺","contact":{},"location":{"address":"日本","lat":34.94802458839928,"lng":135.76709582034093,"city":"京都市","state":"京都府","country":"Japan"},"categories":[{"id":"4bf58dd8d48988d13a941735","name":"Temple","pluralName":"Temples","shortName":"Temple","icon":{"prefix":"https:\/\/foursquare.com\/img\/categories_v2\/building\/religious_temple_","suffix":".png"},"primary":true}],"verified":false,"stats":{"checkinsCount":24,"usersCount":19,"tipCount":1},"likes":{"count":0,"groups":[]},"specials":{"count":0,"items":[]},"hereNow":{"count":0,"groups":[]}},{"id":"4dd50b8f183859a589b02393","name":"デイリーヤマザキ 墨染店","contact":{},"location":{"lat":34.94794496072616,"lng":135.76794290018978,"city":"Kyoto","state":"Kyoto Prefecture","country":"Japan"},"categories":[{"id":"4d954b0ea243a5684a65b473","name":"Convenience Store","pluralName":"Convenience Stores","shortName":"Convenience Stores","icon":{"prefix":"https:\/\/foursquare.com\/img\/categories_v2\/shops\/conveniencestore_","suffix":".png"},"primary":true}],"verified":false,"stats":{"checkinsCount":11,"usersCount":5,"tipCount":0},"likes":{"count":0,"groups":[]},"specials":{"count":0,"items":[]},"hereNow":{"count":0,"groups":[]}},{"id":"4ef6e4d47716bd35228f2138","name":"墨染橋","contact":{},"location":{"address":"墨染町","lat":34.947821112364494,"lng":135.7685199379921,"city":"京都市伏見区","state":"京都府","country":"Japan"},"categories":[{"id":"4bf58dd8d48988d1df941735","name":"Bridge","pluralName":"Bridges","shortName":"Bridge","icon":{"prefix":"https:\/\/foursquare.com\/img\/categories_v2\/parks_outdoors\/bridge_","suffix":".png"},"primary":true}],"verified":false,"stats":{"checkinsCount":13,"usersCount":7,"tipCount":0},"likes":{"count":0,"groups":[]},"specials":{"count":0,"items":[]},"hereNow":{"count":0,"groups":[]}},{"id":"4f8e3641e4b0d3d2c9507551","name":"お好み焼きそば だるま","contact":{},"location":{"lat":34.947858,"lng":135.767009,"country":"Japan"},"categories":[{"id":"4bf58dd8d48988d111941735","name":"Japanese Restaurant","pluralName":"Japanese Restaurants","shortName":"Japanese","icon":{"prefix":"https:\/\/foursquare.com\/img\/categories_v2\/food\/japanese_","suffix":".png"},"primary":true}],"verified":false,"stats":{"checkinsCount":1,"usersCount":1,"tipCount":0},"likes":{"count":0,"groups":[]},"specials":{"count":0,"items":[]},"hereNow":{"count":0,"groups":[]}},{"id":"4f28a31ee5e8eae50764fbcc","name":"伏見インクライン前 バス停","contact":{},"location":{"address":"伏見区鑓屋町","crossStreet":"市バス南8系統","lat":34.94611228156088,"lng":135.7659000903368,"city":"京都市","state":"京都府","country":"Japan"},"categories":[{"id":"4bf58dd8d48988d1fe931735","name":"Bus Station","pluralName":"Bus Stations","shortName":"Bus Station","icon":{"prefix":"https:\/\/foursquare.com\/img\/categories_v2\/travel\/busstation_","suffix":".png"},"primary":true}],"verified":false,"stats":{"checkinsCount":0,"usersCount":0,"tipCount":0},"likes":{"count":0,"groups":[]},"specials":{"count":0,"items":[]},"hereNow":{"count":0,"groups":[]}},{"id":"4eb51e9ce5e874370509f9aa","name":"フェデリーニ (Fedelieni)","contact":{"phone":"+81756411862","formattedPhone":"+81 75-641-1862"},"location":{"address":"墨染町734","lat":34.948073943746245,"lng":135.76735854148865,"city":"京都市伏見区","state":"京都府","country":"Japan"},"categories":[{"id":"4bf58dd8d48988d1c4941735","name":"Restaurant","pluralName":"Restaurants","shortName":"Other - Food","icon":{"prefix":"https:\/\/foursquare.com\/img\/categories_v2\/food\/default_","suffix":".png"},"primary":true}],"verified":false,"stats":{"checkinsCount":0,"usersCount":0,"tipCount":0},"likes":{"count":0,"groups":[]},"specials":{"count":0,"items":[]},"hereNow":{"count":0,"groups":[]}},{"id":"4e4fe80f2271a1bdc3e4d478","name":"Knot Hair","contact":{"phone":"+81756450034","formattedPhone":"+81 75-645-0034"},"location":{"address":"墨染町699","crossStreet":"クラフトハウス1F","lat":34.94788926698763,"lng":135.76837241649628,"postalCode":"612-0051","city":"京都市伏見区","state":"京都府","country":"Japan"},"categories":[{"id":"4bf58dd8d48988d110951735","name":"Salon \/ Barbershop","pluralName":"Salons \/ Barbershops","shortName":"Salon \/ Barbershop","icon":{"prefix":"https:\/\/foursquare.com\/img\/categories_v2\/shops\/salon_barber_","suffix":".png"},"primary":true}],"verified":false,"stats":{"checkinsCount":2,"usersCount":1,"tipCount":0},"likes":{"count":0,"groups":[]},"specials":{"count":0,"items":[]},"hereNow":{"count":0,"groups":[]}},{"id":"4e78aabf091a2a74e04d4662","name":"麺屋 ひろ","contact":{"phone":"+81756456000","formattedPhone":"+81 75-645-6000"},"location":{"address":"伏見区撞木町1153-10","lat":34.945448856466356,"lng":135.76527446508408,"city":"京都市","state":"京都府","country":"Japan"},"categories":[{"id":"4bf58dd8d48988d1d1941735","name":"Ramen \/  Noodle House","pluralName":"Ramen \/  Noodle House","shortName":"Ramen \/ Noodles","icon":{"prefix":"https:\/\/foursquare.com\/img\/categories_v2\/food\/ramen_","suffix":".png"},"primary":true}],"verified":false,"stats":{"checkinsCount":0,"usersCount":0,"tipCount":0},"likes":{"count":0,"groups":[]},"specials":{"count":0,"items":[]},"hereNow":{"count":0,"groups":[]}}]}}
