{"meta":{"code":200},"response":{"venues":[{"id":"4e1ce1f9d1640dd2520168b7","name":"伏見桃山ゴルフコース","contact":{"phone":"+81756418211","formattedPhone":"+81 75-641-8211"},"location":{"address":"伏見区小栗栖小坂町48","lat":34.95180476488174,"lng":135.79367637634277,"postalCode":"601-1455","city":"京都市","state":"京都府","country":"Japan"},"categories":[{"id":"4bf58dd8d48988d1e6941735","name":"Golf Course","pluralName":"Golf Courses","shortName":"Golf Course","icon":{"prefix":"https:\/\/foursquare.com\/img\/categories_v2\/parks_outdoors\/golfcourse_","suffix":".png"},"primary":true}],"verified":false,"stats":{"checkinsCount":13,"usersCount":12,"tipCount":0},"likes":{"count":0,"groups":[]},"specials":{"count":0,"items":[]},"hereNow":{"count":0,"groups":[]}},{"id":"4e81f90fc2eedbc42f3e0dbf","name":"大岩山展望所","contact":{},"location":{"address":"伏見区","lat":34.950503283804935,"lng":135.7929790019989,"city":"京都市","state":"京都府","country":"Japan"},"categories":[{"id":"4bf58dd8d48988d165941735","name":"Scenic Lookout","pluralName":"Scenic Lookouts","shortName":"Scenic Lookout","icon":{"prefix":"https:\/\/foursquare.com\/img\/categories_v2\/parks_outdoors\/sceniclookout_","suffix":".png"},"primary":true}],"verified":false,"stats":{"checkinsCount":4,"usersCount":4,"tipCount":1},"likes":{"count":0,"groups":[]},"specials":{"count":0,"items":[]},"hereNow":{"count":0,"groups":[]}},{"id":"4e561812d22dd2065dc25248","name":"OX CREATION 小倉","contact":{"phone":"+81774283363","formattedPhone":"+81 774-28-3363"},"location":{"address":"小倉町久保114-2","lat":34.95659456221077,"lng":135.791787657895,"postalCode":"611-0042","city":"宇治市","state":"京都府","country":"Japan"},"categories":[{"id":"4bf58dd8d48988d110951735","name":"Salon \/ Barbershop","pluralName":"Salons \/ Barbershops","shortName":"Salon \/ Barbershop","icon":{"prefix":"https:\/\/foursquare.com\/img\/categories_v2\/shops\/salon_barber_","suffix":".png"},"primary":true}],"verified":false,"stats":{"checkinsCount":8,"usersCount":5,"tipCount":0},"likes":{"count":0,"groups":[]},"specials":{"count":0,"items":[]},"hereNow":{"count":0,"groups":[]}},{"id":"4d72e0c0ecab60fc55d61d7b","name":"小栗栖中学校 (ogurisu chuugakkou)","contact":{"phone":"+81755723135","formattedPhone":"+81 75-572-3135"},"location":{"address":"伏見区石田川向43","lat":34.955266,"lng":135.791306,"postalCode":"601-1438","city":"京都市","state":"京都府","country":"Japan"},"categories":[{"id":"4bf58dd8d48988d13b941735","name":"School","pluralName":"Schools","shortName":"School","icon":{"prefix":"https:\/\/foursquare.com\/img\/categories_v2\/building\/school_","suffix":".png"},"primary":true}],"verified":false,"stats":{"checkinsCount":1,"usersCount":1,"tipCount":0},"likes":{"count":0,"groups":[]},"specials":{"count":0,"items":[]},"hereNow":{"count":0,"groups":[]}}]}}
