{"meta":{"code":200},"response":{"venues":[{"id":"4c2e022711cb9c74750173b3","name":"月桂冠大倉記念館","contact":{"phone":"+81756232056","formattedPhone":"+81 75-623-2056"},"location":{"address":"南浜町247番地","lat":34.928834,"lng":135.76194694,"postalCode":"612-8660","city":"京都市伏見区","state":"京都府","country":"Japan"},"categories":[{"id":"4bf58dd8d48988d190941735","name":"History Museum","pluralName":"History Museums","shortName":"History Museum","icon":{"prefix":"https:\/\/foursquare.com\/img\/categories_v2\/arts_entertainment\/museum_history_","suffix":".png"},"primary":true}],"verified":false,"stats":{"checkinsCount":179,"usersCount":148,"tipCount":0},"likes":{"count":0,"groups":[]},"specials":{"count":0,"items":[]},"hereNow":{"count":0,"groups":[]}},{"id":"4ee20977754a44a66d2923d4","name":"後崇光太上天皇 伏見松林院陵","contact":{},"location":{"address":"丹後町","lat":34.92930733988112,"lng":135.76299726963043,"city":"京都市伏見区","state":"京都府","country":"Japan"},"categories":[{"id":"4bf58dd8d48988d15c941735","name":"Cemetery","pluralName":"Cemeteries","shortName":"Cemetery","icon":{"prefix":"https:\/\/foursquare.com\/img\/categories_v2\/parks_outdoors\/cemetery_","suffix":".png"},"primary":true}],"verified":false,"stats":{"checkinsCount":2,"usersCount":1,"tipCount":0},"likes":{"count":0,"groups":[]},"specials":{"count":0,"items":[]},"hereNow":{"count":0,"groups":[]}},{"id":"4ce3b246c46e6dcb502ad715","name":"べんがらや","contact":{"phone":"+81756226908","formattedPhone":"+81 75-622-6908"},"location":{"address":"上油掛町185-2","lat":34.93034527712604,"lng":135.76294898986816,"city":"京都市伏見区","state":"京都府","country":"Japan"},"categories":[{"id":"4bf58dd8d48988d1c4941735","name":"Restaurant","pluralName":"Restaurants","shortName":"Other - Food","icon":{"prefix":"https:\/\/foursquare.com\/img\/categories_v2\/food\/default_","suffix":".png"},"primary":true}],"verified":false,"stats":{"checkinsCount":49,"usersCount":20,"tipCount":0},"likes":{"count":0,"groups":[]},"specials":{"count":0,"items":[]},"hereNow":{"count":0,"groups":[]}},{"id":"4ec79a3ed3e3e131f25a58e5","name":"ガーデンオリエンタル","contact":{},"location":{"lat":34.929331809307946,"lng":135.76273568026687,"country":"Japan"},"categories":[],"verified":false,"stats":{"checkinsCount":1,"usersCount":1,"tipCount":0},"likes":{"count":0,"groups":[]},"specials":{"count":0,"items":[]},"hereNow":{"count":0,"groups":[]}},{"id":"4d9de956d19f8eec8520a0e1","name":"コナミスポーツクラブ 伏見","contact":{"phone":"+81756220641","formattedPhone":"+81 75-622-0641"},"location":{"address":"両替町2-348-1","lat":34.93092391223395,"lng":135.76316612221092,"postalCode":"612-8082","city":"京都市伏見区","state":"京都府","country":"Japan"},"categories":[{"id":"4bf58dd8d48988d176941735","name":"Gym","pluralName":"Gyms","shortName":"Gym","icon":{"prefix":"https:\/\/foursquare.com\/img\/categories_v2\/building\/gym_","suffix":".png"},"primary":true}],"verified":false,"stats":{"checkinsCount":24,"usersCount":7,"tipCount":0},"likes":{"count":0,"groups":[]},"specials":{"count":0,"items":[]},"hereNow":{"count":0,"groups":[]}},{"id":"4bda8e082a3a0f47d06eabb6","name":"キザクラ カッパカントリー","contact":{"phone":"+81756119921","formattedPhone":"+81 75-611-9921"},"location":{"address":"塩屋町228","lat":34.93065313734304,"lng":135.76049208641052,"postalCode":"612-8046","city":"京都市伏見区","state":"京都府","country":"Japan"},"categories":[{"id":"4bf58dd8d48988d171941735","name":"Event Space","pluralName":"Event Spaces","shortName":"Event Space","icon":{"prefix":"https:\/\/foursquare.com\/img\/categories_v2\/building\/eventspace_","suffix":".png"},"primary":true}],"verified":false,"stats":{"checkinsCount":309,"usersCount":198,"tipCount":0},"likes":{"count":0,"groups":[]},"specials":{"count":0,"items":[]},"hereNow":{"count":0,"groups":[]}},{"id":"4cb666c6e262b60c76fb6ee0","name":"伏見 夢百衆","contact":{"phone":"+81756231360","formattedPhone":"+81 75-623-1360"},"location":{"address":"南浜町247","lat":34.9297119610468,"lng":135.76215505599976,"city":"京都市伏見区","state":"京都府","country":"Japan"},"categories":[{"id":"4bf58dd8d48988d16d941735","name":"Café","pluralName":"Cafés","shortName":"Café","icon":{"prefix":"https:\/\/foursquare.com\/img\/categories_v2\/food\/cafe_","suffix":".png"},"primary":true}],"verified":false,"stats":{"checkinsCount":52,"usersCount":27,"tipCount":0},"likes":{"count":0,"groups":[]},"specials":{"count":0,"items":[]},"hereNow":{"count":0,"groups":[]}},{"id":"4cdb632099026dcb96d70c81","name":"かどや","contact":{},"location":{"address":"納屋町","crossStreet":"納屋町センター","lat":34.931476591103554,"lng":135.76080105372756,"city":"京都市伏見区","state":"京都府","country":"Japan"},"categories":[{"id":"4bf58dd8d48988d1ce941735","name":"Seafood Restaurant","pluralName":"Seafood Restaurants","shortName":"Seafood","icon":{"prefix":"https:\/\/foursquare.com\/img\/categories_v2\/food\/seafood_","suffix":".png"},"primary":true}],"verified":false,"stats":{"checkinsCount":36,"usersCount":3,"tipCount":0},"likes":{"count":0,"groups":[]},"specials":{"count":0,"items":[]},"hereNow":{"count":0,"groups":[]}},{"id":"4c96cdf703413704d6d187ef","name":"京菓子司 富英堂","contact":{"phone":"+81756011366","formattedPhone":"+81 75-601-1366"},"location":{"address":"中油掛町93","lat":34.93148875210851,"lng":135.7606154680252,"city":"京都市伏見区","state":"京都府","country":"Japan"},"categories":[{"id":"4bf58dd8d48988d1d0941735","name":"Dessert Shop","pluralName":"Dessert Shops","shortName":"Desserts","icon":{"prefix":"https:\/\/foursquare.com\/img\/categories_v2\/food\/dessert_","suffix":".png"},"primary":true}],"verified":false,"stats":{"checkinsCount":9,"usersCount":4,"tipCount":1},"likes":{"count":0,"groups":[]},"specials":{"count":0,"items":[]},"hereNow":{"count":0,"groups":[]}},{"id":"4cbc17aa4c60a09325594fca","name":"美ゅらら","contact":{},"location":{"lat":34.929953,"lng":135.761812,"country":"Japan"},"categories":[],"verified":false,"stats":{"checkinsCount":2,"usersCount":2,"tipCount":0},"likes":{"count":0,"groups":[]},"specials":{"count":0,"items":[]},"hereNow":{"count":0,"groups":[]}},{"id":"4edaf3e661af8a14b7106b59","name":"京都市立 南浜小学校","contact":{},"location":{"address":"京都市伏見区","lat":34.92995001872877,"lng":135.76256099513327,"city":"京都市","state":"京都府","country":"Japan"},"categories":[{"id":"4bf58dd8d48988d13b941735","name":"School","pluralName":"Schools","shortName":"School","icon":{"prefix":"https:\/\/foursquare.com\/img\/categories_v2\/building\/school_","suffix":".png"},"primary":true}],"verified":false,"stats":{"checkinsCount":2,"usersCount":1,"tipCount":0},"likes":{"count":0,"groups":[]},"specials":{"count":0,"items":[]},"hereNow":{"count":0,"groups":[]}},{"id":"4f2bb3cfe4b0dd6b7749d2a9","name":"かっぱ天国 黄桜酒場 Kappa Tengoku","contact":{"phone":"+81756119919","formattedPhone":"+81 75-611-9919"},"location":{"address":"塩屋町228","lat":34.93090617175557,"lng":135.76049096538924,"postalCode":"612-8046","city":"伏見区","state":"京都","country":"Japan"},"categories":[{"id":"4bf58dd8d48988d111941735","name":"Japanese Restaurant","pluralName":"Japanese Restaurants","shortName":"Japanese","icon":{"prefix":"https:\/\/foursquare.com\/img\/categories_v2\/food\/japanese_","suffix":".png"},"primary":true}],"verified":false,"stats":{"checkinsCount":12,"usersCount":11,"tipCount":1},"url":"http:\/\/www.kizakura.co.jp\/","likes":{"count":0,"groups":[]},"specials":{"count":0,"items":[]},"hereNow":{"count":0,"groups":[]}},{"id":"4bd1152b462cb713dec9d907","name":"チャイニーズ Lee","contact":{"phone":"+81756210345","formattedPhone":"+81 75-621-0345"},"location":{"address":"納屋町120-1","lat":34.93048804031109,"lng":135.76142586471724,"city":"京都市","state":"京都府","country":"Japan"},"categories":[{"id":"4bf58dd8d48988d145941735","name":"Chinese Restaurant","pluralName":"Chinese Restaurants","shortName":"Chinese","icon":{"prefix":"https:\/\/foursquare.com\/img\/categories_v2\/food\/chinese_","suffix":".png"},"primary":true}],"verified":false,"stats":{"checkinsCount":15,"usersCount":4,"tipCount":1},"likes":{"count":0,"groups":[]},"specials":{"count":0,"items":[]},"hereNow":{"count":0,"groups":[]}},{"id":"4e22a067483b041af1f92ccb","name":"伏見土佐藩邸跡","contact":{},"location":{"lat":34.9306839233012,"lng":135.7614952325821,"city":"京都市","state":"京都府","country":"Japan"},"categories":[{"id":"4deefb944765f83613cdba6e","name":"Historic Site","pluralName":"Historic Sites","shortName":"Historic Site","icon":{"prefix":"https:\/\/foursquare.com\/img\/categories_v2\/arts_entertainment\/historicsite_","suffix":".png"},"primary":true}],"verified":false,"stats":{"checkinsCount":22,"usersCount":6,"tipCount":0},"likes":{"count":0,"groups":[]},"specials":{"count":0,"items":[]},"hereNow":{"count":0,"groups":[]}},{"id":"4ecb7ff4cc214a29d13d74c3","name":"SIZUYA 志津屋 大手筋店","contact":{},"location":{"address":"新町5丁目509","lat":34.93144884148371,"lng":135.76118056757417,"city":"京都市伏見区","state":"京都府","country":"Japan"},"categories":[{"id":"4bf58dd8d48988d16a941735","name":"Bakery","pluralName":"Bakeries","shortName":"Bakery","icon":{"prefix":"https:\/\/foursquare.com\/img\/categories_v2\/food\/bakery_","suffix":".png"},"primary":true}],"verified":false,"stats":{"checkinsCount":13,"usersCount":4,"tipCount":0},"likes":{"count":0,"groups":[]},"specials":{"count":0,"items":[]},"hereNow":{"count":0,"groups":[]}},{"id":"4b6d477af964a520fe6e2ce3","name":"鳥せい 本店","contact":{"phone":"+81756225533","formattedPhone":"+81 75-622-5533"},"location":{"address":"上油掛町186","lat":34.93108853767762,"lng":135.76195657253265,"postalCode":"612-8047","city":"京都市伏見区","state":"京都府","country":"Japan"},"categories":[{"id":"4bf58dd8d48988d111941735","name":"Japanese Restaurant","pluralName":"Japanese Restaurants","shortName":"Japanese","icon":{"prefix":"https:\/\/foursquare.com\/img\/categories_v2\/food\/japanese_","suffix":".png"},"primary":true}],"verified":false,"stats":{"checkinsCount":341,"usersCount":212,"tipCount":4},"likes":{"count":0,"groups":[]},"specials":{"count":0,"items":[]},"hereNow":{"count":0,"groups":[]}},{"id":"4f1d1570e4b0d7904451a911","name":"総本家駿河屋伏見本舗","contact":{},"location":{"address":"伏見区京町３丁目","lat":34.93142401550316,"lng":135.7610787464894,"city":"京都市","state":"京都府","country":"Japan"},"categories":[{"id":"4bf58dd8d48988d117951735","name":"Candy Store","pluralName":"Candy Stores","shortName":"Candy Store","icon":{"prefix":"https:\/\/foursquare.com\/img\/categories_v2\/shops\/candystore_","suffix":".png"},"primary":true}],"verified":false,"stats":{"checkinsCount":17,"usersCount":2,"tipCount":1},"likes":{"count":0,"groups":[]},"specials":{"count":0,"items":[]},"hereNow":{"count":0,"groups":[]}},{"id":"4c33f36216adc928e386c49c","name":"天天有 伏見店","contact":{"phone":"+81756121533","formattedPhone":"+81 75-612-1533"},"location":{"address":"御堂前町617-1","crossStreet":"山京ビル 1F","lat":34.9315203,"lng":135.76114528,"city":"京都市伏見区","state":"京都府","country":"Japan"},"categories":[{"id":"4bf58dd8d48988d1d1941735","name":"Ramen \/  Noodle House","pluralName":"Ramen \/  Noodle House","shortName":"Ramen \/ Noodles","icon":{"prefix":"https:\/\/foursquare.com\/img\/categories_v2\/food\/ramen_","suffix":".png"},"primary":true}],"verified":false,"stats":{"checkinsCount":25,"usersCount":9,"tipCount":0},"likes":{"count":0,"groups":[]},"specials":{"count":0,"items":[]},"hereNow":{"count":0,"groups":[]}},{"id":"4ec61b1b6c251306c9c87a2a","name":"近畿労働金庫 伏見支店","contact":{},"location":{"address":"銀座町1-362","crossStreet":"大手筋ビル1F","lat":34.93147013159638,"lng":135.76106023358824,"city":"京都市伏見区","state":"京都府","country":"Japan"},"categories":[{"id":"4bf58dd8d48988d10a951735","name":"Bank","pluralName":"Banks","shortName":"Bank \/ Financial","icon":{"prefix":"https:\/\/foursquare.com\/img\/categories_v2\/shops\/financial_","suffix":".png"},"primary":true}],"verified":false,"stats":{"checkinsCount":10,"usersCount":2,"tipCount":0},"likes":{"count":0,"groups":[]},"specials":{"count":0,"items":[]},"hereNow":{"count":0,"groups":[]}},{"id":"4b68e320f964a520a3912be3","name":"ダイソー 伏見プラザ大手筋店","contact":{"phone":"+81756111516","formattedPhone":"+81 75-611-1516"},"location":{"address":"伏見区伯耆町15番地3","crossStreet":"プラザ大手筋4階","lat":34.93146121908221,"lng":135.76110651585458,"city":"京都市","state":"京都府","country":"Japan"},"categories":[{"id":"4bf58dd8d48988d1ff941735","name":"Miscellaneous Shop","pluralName":"Miscellaneous Shops","shortName":"Other - Shop","icon":{"prefix":"https:\/\/foursquare.com\/img\/categories_v2\/shops\/default_","suffix":".png"},"primary":true}],"verified":false,"stats":{"checkinsCount":23,"usersCount":8,"tipCount":0},"likes":{"count":0,"groups":[]},"specials":{"count":0,"items":[]},"hereNow":{"count":0,"groups":[]}},{"id":"4c2dc0d4e307d13a43490eda","name":"京都宇治とろろ家 伏見大手筋店","contact":{"phone":"+81756231678","formattedPhone":"+81 75-623-1678"},"location":{"address":"新町5-510","crossStreet":"オクダビル2F","lat":34.931414360000005,"lng":135.76111013,"postalCode":"612-8081","city":"京都市伏見区","state":"京都府","country":"Japan"},"categories":[{"id":"4bf58dd8d48988d111941735","name":"Japanese Restaurant","pluralName":"Japanese Restaurants","shortName":"Japanese","icon":{"prefix":"https:\/\/foursquare.com\/img\/categories_v2\/food\/japanese_","suffix":".png"},"primary":true}],"verified":false,"stats":{"checkinsCount":12,"usersCount":5,"tipCount":0},"likes":{"count":0,"groups":[]},"specials":{"count":0,"items":[]},"hereNow":{"count":0,"groups":[]}},{"id":"4e2d2596c65bcaf400402705","name":"大手筋整骨院","contact":{"phone":"+81756111270","formattedPhone":"+81 75-611-1270"},"location":{"address":"伏見区東大手町784-4","lat":34.931473,"lng":135.76101411,"city":"京都市","state":"京都府","country":"Japan"},"categories":[{"id":"4d4b7105d754a06375d81259","name":"Professional & Other Places","pluralName":"Professional & Other Places","shortName":"Professional & Other Places","icon":{"prefix":"https:\/\/foursquare.com\/img\/categories_v2\/building\/default_","suffix":".png"},"primary":true}],"verified":false,"stats":{"checkinsCount":16,"usersCount":3,"tipCount":0},"likes":{"count":0,"groups":[]},"specials":{"count":0,"items":[]},"hereNow":{"count":0,"groups":[]}},{"id":"4e3764cf18a8470916cace22","name":"かつ廣 桃山店","contact":{},"location":{"address":"魚屋町574","lat":34.93147035646974,"lng":135.76101857958702,"city":"京都市伏見区","state":"京都府","country":"Japan"},"categories":[{"id":"4bf58dd8d48988d111941735","name":"Japanese Restaurant","pluralName":"Japanese Restaurants","shortName":"Japanese","icon":{"prefix":"https:\/\/foursquare.com\/img\/categories_v2\/food\/japanese_","suffix":".png"},"primary":true}],"verified":false,"stats":{"checkinsCount":8,"usersCount":3,"tipCount":0},"likes":{"count":0,"groups":[]},"specials":{"count":0,"items":[]},"hereNow":{"count":0,"groups":[]}},{"id":"4f72b6b9e4b0a4b289cc6a68","name":"お菓子のアトリエ Lunch Box 京都本店","contact":{},"location":{"address":"京都市伏見区中油掛町94","lat":34.93149266400269,"lng":135.7625783153653,"country":"Japan"},"categories":[{"id":"4bf58dd8d48988d16d941735","name":"Café","pluralName":"Cafés","shortName":"Café","icon":{"prefix":"https:\/\/foursquare.com\/img\/categories_v2\/food\/cafe_","suffix":".png"},"primary":true}],"verified":false,"stats":{"checkinsCount":2,"usersCount":2,"tipCount":0},"likes":{"count":0,"groups":[]},"specials":{"count":0,"items":[]},"hereNow":{"count":0,"groups":[]}},{"id":"4b66853af964a5202b232be3","name":"中央信用金庫 大手筋支店","contact":{},"location":{"lat":34.93144205,"lng":135.7610855833333,"country":"Japan"},"categories":[],"verified":false,"stats":{"checkinsCount":7,"usersCount":1,"tipCount":0},"likes":{"count":0,"groups":[]},"specials":{"count":0,"items":[]},"hereNow":{"count":0,"groups":[]}},{"id":"4cfafe0ad8468cfaead3f16b","name":"伏見銘酒協同組合","contact":{},"location":{"lat":34.930636,"lng":135.761912,"country":"Japan"},"categories":[{"id":"4bf58dd8d48988d111941735","name":"Japanese Restaurant","pluralName":"Japanese Restaurants","shortName":"Japanese","icon":{"prefix":"https:\/\/foursquare.com\/img\/categories_v2\/food\/japanese_","suffix":".png"},"primary":true}],"verified":false,"stats":{"checkinsCount":32,"usersCount":15,"tipCount":0},"likes":{"count":0,"groups":[]},"specials":{"count":0,"items":[]},"hereNow":{"count":0,"groups":[]}},{"id":"4f52e84ee4b09f74b82de5ff","name":"彩かのこ","contact":{},"location":{"address":"伏見区大手町771-1","lat":34.93137704415719,"lng":135.76261997072984,"city":"京都市","country":"Japan"},"categories":[{"id":"4bf58dd8d48988d11d951735","name":"Butcher","pluralName":"Butchers","shortName":"Butcher","icon":{"prefix":"https:\/\/foursquare.com\/img\/categories_v2\/shops\/food_butcher_","suffix":".png"},"primary":true}],"verified":false,"stats":{"checkinsCount":7,"usersCount":2,"tipCount":0},"likes":{"count":0,"groups":[]},"specials":{"count":0,"items":[]},"hereNow":{"count":0,"groups":[]}},{"id":"4be0f1de071bc9b675c7594e","name":"京の台所 月の蔵人","contact":{},"location":{"address":"上油掛町185-1","lat":34.930807188951995,"lng":135.7618794363453,"city":"京都市伏見区","state":"京都府","country":"Japan"},"categories":[{"id":"4bf58dd8d48988d111941735","name":"Japanese Restaurant","pluralName":"Japanese Restaurants","shortName":"Japanese","icon":{"prefix":"https:\/\/foursquare.com\/img\/categories_v2\/food\/japanese_","suffix":".png"},"primary":true}],"verified":false,"stats":{"checkinsCount":62,"usersCount":49,"tipCount":0},"likes":{"count":0,"groups":[]},"specials":{"count":0,"items":[]},"hereNow":{"count":0,"groups":[]}},{"id":"4fbf8b2fe4b07afe94cf9ccc","name":"axes femme イオンモールKYOTO店","contact":{},"location":{"address":"京都府京都市南区西九条鳥居口町1番地","lat":34.93149390251756,"lng":135.7624764912941,"country":"Japan"},"categories":[{"id":"4bf58dd8d48988d108951735","name":"Women's Store","pluralName":"Women's Stores","shortName":"Women's Store","icon":{"prefix":"https:\/\/foursquare.com\/img\/categories_v2\/shops\/apparel_women_","suffix":".png"},"primary":true}],"verified":false,"stats":{"checkinsCount":1,"usersCount":1,"tipCount":0},"likes":{"count":0,"groups":[]},"specials":{"count":0,"items":[]},"hereNow":{"count":0,"groups":[]}},{"id":"4efbddcdf9ab0847f9887c5a","name":"鳥せん","contact":{},"location":{"lat":34.931793,"lng":135.76248,"city":"京都","country":"Japan"},"categories":[{"id":"4bf58dd8d48988d111941735","name":"Japanese Restaurant","pluralName":"Japanese Restaurants","shortName":"Japanese","icon":{"prefix":"https:\/\/foursquare.com\/img\/categories_v2\/food\/japanese_","suffix":".png"},"primary":true}],"verified":false,"stats":{"checkinsCount":2,"usersCount":2,"tipCount":0},"likes":{"count":0,"groups":[]},"specials":{"count":0,"items":[]},"hereNow":{"count":0,"groups":[]}},{"id":"4e1d417c483bbda41819f140","name":"酒の器 Toyoda","contact":{},"location":{"address":"上油掛町190","lat":34.93067072932057,"lng":135.7619297504425,"city":"京都市伏見区","state":"京都府","country":"Japan"},"categories":[{"id":"4bf58dd8d48988d127951735","name":"Arts & Crafts Store","pluralName":"Arts & Crafts Stores","shortName":"Arts & Crafts","icon":{"prefix":"https:\/\/foursquare.com\/img\/categories_v2\/shops\/artstore_","suffix":".png"},"primary":true}],"verified":false,"stats":{"checkinsCount":8,"usersCount":4,"tipCount":1},"likes":{"count":0,"groups":[]},"specials":{"count":0,"items":[]},"hereNow":{"count":0,"groups":[]}},{"id":"4e9129329adf26eeba4e5b16","name":"とり清","contact":{},"location":{"lat":34.93083073315115,"lng":135.76164339342873,"country":"Japan"},"categories":[{"id":"4bf58dd8d48988d111941735","name":"Japanese Restaurant","pluralName":"Japanese Restaurants","shortName":"Japanese","icon":{"prefix":"https:\/\/foursquare.com\/img\/categories_v2\/food\/japanese_","suffix":".png"},"primary":true}],"verified":false,"stats":{"checkinsCount":2,"usersCount":2,"tipCount":0},"likes":{"count":0,"groups":[]},"specials":{"count":0,"items":[]},"hereNow":{"count":0,"groups":[]}},{"id":"4ee2ec41aa1fd7f753017014","name":"手づくり小物 ふじわら","contact":{},"location":{"lat":34.93084302266119,"lng":135.76171697592207,"city":"Kyoto","country":"Japan"},"categories":[{"id":"4bf58dd8d48988d1fb941735","name":"Hobby Shop","pluralName":"Hobby Shops","shortName":"Hobbies","icon":{"prefix":"https:\/\/foursquare.com\/img\/categories_v2\/shops\/hobbyshop_","suffix":".png"},"primary":true}],"verified":false,"stats":{"checkinsCount":1,"usersCount":1,"tipCount":0},"likes":{"count":0,"groups":[]},"specials":{"count":0,"items":[]},"hereNow":{"count":0,"groups":[]}},{"id":"4dd0d576ae603b786d68a1d2","name":"白菊水","contact":{},"location":{"lat":34.93121,"lng":135.761968,"city":"Kyoto","state":"Kyoto Prefecture","country":"Japan"},"categories":[{"id":"4bf58dd8d48988d162941735","name":"Other Great Outdoors","pluralName":"Other Great Outdoors","shortName":"Other Outdoors","icon":{"prefix":"https:\/\/foursquare.com\/img\/categories_v2\/parks_outdoors\/outdoors_","suffix":".png"},"primary":true}],"verified":false,"stats":{"checkinsCount":1,"usersCount":1,"tipCount":0},"likes":{"count":0,"groups":[]},"specials":{"count":0,"items":[]},"hereNow":{"count":0,"groups":[]}},{"id":"4f3b2378e4b08082ade331b9","name":"眼鏡市場 伏見桃山店","contact":{},"location":{"address":"京都市伏見区大手筋","lat":34.930873,"lng":135.762538,"country":"Japan"},"categories":[{"id":"4bf58dd8d48988d127951735","name":"Arts & Crafts Store","pluralName":"Arts & Crafts Stores","shortName":"Arts & Crafts","icon":{"prefix":"https:\/\/foursquare.com\/img\/categories_v2\/shops\/artstore_","suffix":".png"},"primary":true}],"verified":false,"stats":{"checkinsCount":0,"usersCount":0,"tipCount":0},"likes":{"count":0,"groups":[]},"specials":{"count":0,"items":[]},"hereNow":{"count":0,"groups":[]}},{"id":"4eb7ac86469073bbc714c2b2","name":"みばやし歯科医院","contact":{},"location":{"lat":34.931274,"lng":135.761956,"city":"京都市","state":"京都府","country":"Japan"},"categories":[{"id":"4bf58dd8d48988d178941735","name":"Dentist's Office","pluralName":"Dentist's Offices","shortName":"Dentist's Office","icon":{"prefix":"https:\/\/foursquare.com\/img\/categories_v2\/building\/medical_dentist_","suffix":".png"},"primary":true}],"verified":false,"stats":{"checkinsCount":1,"usersCount":1,"tipCount":0},"likes":{"count":0,"groups":[]},"specials":{"count":0,"items":[]},"hereNow":{"count":0,"groups":[]}},{"id":"4fdc0539e4b044d93b0be134","name":"ＬＵＸＡＲＡ(ルクサラ)","contact":{},"location":{"address":"京都市伏見区新町4-473","lat":34.931244161069365,"lng":135.7626523693719,"country":"Japan"},"categories":[{"id":"4bf58dd8d48988d142941735","name":"Asian Restaurant","pluralName":"Asian Restaurants","shortName":"Asian","icon":{"prefix":"https:\/\/foursquare.com\/img\/categories_v2\/food\/asian_","suffix":".png"},"primary":true}],"verified":false,"stats":{"checkinsCount":2,"usersCount":2,"tipCount":0},"likes":{"count":0,"groups":[]},"specials":{"count":0,"items":[]},"hereNow":{"count":0,"groups":[]}},{"id":"4f5842b9e4b059140dfc790e","name":"千原交差点","contact":{},"location":{"address":"京都府亀岡市千代川町千原2","lat":34.931344746478715,"lng":135.76259682885615,"country":"Japan"},"categories":[{"id":"4bf58dd8d48988d1f9931735","name":"Road","pluralName":"Roads","shortName":"Road","icon":{"prefix":"https:\/\/foursquare.com\/img\/categories_v2\/travel\/highway_","suffix":".png"},"primary":true}],"verified":false,"stats":{"checkinsCount":1,"usersCount":1,"tipCount":0},"likes":{"count":0,"groups":[]},"specials":{"count":0,"items":[]},"hereNow":{"count":0,"groups":[]}}]}}
