{"meta":{"code":200},"response":{"venues":[{"id":"4dbfe0b96e8124d25dbf3b32","name":"セブンイレブン 宇治伊勢田町店","contact":{"phone":"+81774437236","formattedPhone":"+81 774-43-7236"},"location":{"address":"伊勢田町名木2-1-181","lat":34.884256,"lng":135.769055,"postalCode":"611-0044","city":"宇治市","state":"京都府","country":"Japan"},"categories":[{"id":"4bf58dd8d48988d1ff941735","name":"Miscellaneous Shop","pluralName":"Miscellaneous Shops","shortName":"Other - Shop","icon":{"prefix":"https:\/\/foursquare.com\/img\/categories_v2\/shops\/default_","suffix":".png"},"primary":true}],"verified":false,"stats":{"checkinsCount":409,"usersCount":10,"tipCount":0},"likes":{"count":0,"groups":[]},"specials":{"count":0,"items":[]},"hereNow":{"count":0,"groups":[]}},{"id":"4dd8e643c65bee535ad64b72","name":"セブンイレブン 宇治開町店","contact":{"phone":"+81774464230","formattedPhone":"+81 774-46-4230"},"location":{"address":"開町26-3","lat":34.88121578649668,"lng":135.78064620494843,"city":"宇治市","state":"京都府","country":"Japan"},"categories":[{"id":"4d954b0ea243a5684a65b473","name":"Convenience Store","pluralName":"Convenience Stores","shortName":"Convenience Stores","icon":{"prefix":"https:\/\/foursquare.com\/img\/categories_v2\/shops\/conveniencestore_","suffix":".png"},"primary":true}],"verified":false,"stats":{"checkinsCount":5,"usersCount":4,"tipCount":0},"likes":{"count":0,"groups":[]},"specials":{"count":0,"items":[]},"hereNow":{"count":0,"groups":[]}},{"id":"4e3a5f04a809ec55443ad3d6","name":"ADhoc","contact":{"phone":"+81120115236","formattedPhone":"+81 120-115-236"},"location":{"address":"開町25-13","lat":34.881248791316374,"lng":135.78138381242752,"city":"宇治市","state":"京都府","country":"Japan"},"categories":[{"id":"4bf58dd8d48988d110951735","name":"Salon \/ Barbershop","pluralName":"Salons \/ Barbershops","shortName":"Salon \/ Barbershop","icon":{"prefix":"https:\/\/foursquare.com\/img\/categories_v2\/shops\/salon_barber_","suffix":".png"},"primary":true}],"verified":false,"stats":{"checkinsCount":5,"usersCount":3,"tipCount":0},"likes":{"count":0,"groups":[]},"specials":{"count":0,"items":[]},"hereNow":{"count":0,"groups":[]}},{"id":"4e547815d164a1ac2f36221d","name":"越前そば とまり","contact":{"phone":"+81774430289","formattedPhone":"+81 774-43-0289"},"location":{"address":"伊勢田町中ノ荒51-7","lat":34.880787,"lng":135.76886,"postalCode":"611-0043","city":"宇治市","state":"京都府","country":"Japan"},"categories":[{"id":"4bf58dd8d48988d1d1941735","name":"Ramen \/  Noodle House","pluralName":"Ramen \/  Noodle House","shortName":"Ramen \/ Noodles","icon":{"prefix":"https:\/\/foursquare.com\/img\/categories_v2\/food\/ramen_","suffix":".png"},"primary":true}],"verified":false,"stats":{"checkinsCount":1,"usersCount":1,"tipCount":0},"likes":{"count":0,"groups":[]},"specials":{"count":0,"items":[]},"hereNow":{"count":0,"groups":[]}},{"id":"4d32b2cdeefa8cfa6fc339b3","name":"新鮮具味","contact":{},"location":{"lat":34.890004,"lng":135.774025,"country":"Japan"},"categories":[],"verified":false,"stats":{"checkinsCount":1,"usersCount":1,"tipCount":0},"likes":{"count":0,"groups":[]},"specials":{"count":0,"items":[]},"hereNow":{"count":0,"groups":[]}},{"id":"4e58740a14954ed2833a7567","name":"満腹屋","contact":{},"location":{"lat":34.89417,"lng":135.775504,"city":"宇治市","state":"京都府","country":"Japan"},"categories":[{"id":"4bf58dd8d48988d147941735","name":"Diner","pluralName":"Diners","shortName":"Diner","icon":{"prefix":"https:\/\/foursquare.com\/img\/categories_v2\/food\/diner_","suffix":".png"},"primary":true}],"verified":false,"stats":{"checkinsCount":2,"usersCount":1,"tipCount":0},"likes":{"count":0,"groups":[]},"specials":{"count":0,"items":[]},"hereNow":{"count":0,"groups":[]}},{"id":"4efaae8f2c5b044503be1732","name":"まいどおおきに食堂 京宇治食堂","contact":{},"location":{"lat":34.88617886554802,"lng":135.7813546885194,"country":"Japan"},"categories":[{"id":"4bf58dd8d48988d111941735","name":"Japanese Restaurant","pluralName":"Japanese Restaurants","shortName":"Japanese","icon":{"prefix":"https:\/\/foursquare.com\/img\/categories_v2\/food\/japanese_","suffix":".png"},"primary":true}],"verified":false,"stats":{"checkinsCount":16,"usersCount":6,"tipCount":0},"likes":{"count":0,"groups":[]},"specials":{"count":0,"items":[]},"hereNow":{"count":0,"groups":[]}},{"id":"4eaf4959e5fa7081056f9ba7","name":"第二岡本総合病院","contact":{},"location":{"lat":34.887220503647406,"lng":135.7803036458849,"city":"宇治市","state":"京都府","country":"Japan"},"categories":[{"id":"4bf58dd8d48988d196941735","name":"Hospital","pluralName":"Hospitals","shortName":"Hospital","icon":{"prefix":"https:\/\/foursquare.com\/img\/categories_v2\/building\/medical_hospital_","suffix":".png"},"primary":true}],"verified":false,"stats":{"checkinsCount":4,"usersCount":4,"tipCount":0},"likes":{"count":0,"groups":[]},"specials":{"count":0,"items":[]},"hereNow":{"count":0,"groups":[]}},{"id":"4b5cd7b9f964a520d54629e3","name":"伊勢田駅 (Iseda Sta.)","contact":{},"location":{"address":"伊勢田町中山25","crossStreet":"近鉄京都線","lat":34.8820849089944,"lng":135.77893495559692,"city":"宇治市","state":"京都府","country":"Japan"},"categories":[{"id":"4bf58dd8d48988d12a951735","name":"Train","pluralName":"Trains","shortName":"Train","icon":{"prefix":"https:\/\/foursquare.com\/img\/categories_v2\/travel\/trainstation_","suffix":".png"},"primary":true}],"verified":false,"stats":{"checkinsCount":292,"usersCount":50,"tipCount":0},"likes":{"count":0,"groups":[]},"specials":{"count":0,"items":[]},"hereNow":{"count":0,"groups":[]}},{"id":"4d5cf5a3e7f7548125771f97","name":"新鮮館コスモ 伊勢田店","contact":{},"location":{"address":"羽拍子町1-2","lat":34.88482692,"lng":135.78109337948263,"city":"宇治市","state":"京都府","country":"Japan"},"categories":[{"id":"4bf58dd8d48988d118951735","name":"Grocery Store","pluralName":"Grocery Stores","shortName":"Grocery Store","icon":{"prefix":"https:\/\/foursquare.com\/img\/categories_v2\/shops\/food_grocery_","suffix":".png"},"primary":true}],"verified":false,"stats":{"checkinsCount":85,"usersCount":10,"tipCount":0},"likes":{"count":0,"groups":[]},"specials":{"count":0,"items":[]},"hereNow":{"count":0,"groups":[]}},{"id":"4e79556c7d8b5741b87fa21a","name":"シャトレーゼ 宇治伊勢田","contact":{"phone":"+81774208844","formattedPhone":"+81 774-20-8844"},"location":{"address":"伊勢田町砂田2番地","lat":34.88721615661432,"lng":135.77018333692968,"postalCode":"6110043","city":"宇治市","state":"京都府","country":"Japan"},"categories":[{"id":"4bf58dd8d48988d1d0941735","name":"Dessert Shop","pluralName":"Dessert Shops","shortName":"Desserts","icon":{"prefix":"https:\/\/foursquare.com\/img\/categories_v2\/food\/dessert_","suffix":".png"},"primary":true}],"verified":false,"stats":{"checkinsCount":27,"usersCount":7,"tipCount":0},"likes":{"count":0,"groups":[]},"specials":{"count":0,"items":[]},"hereNow":{"count":0,"groups":[]}},{"id":"4e37a987a809a0c63b380f61","name":"Express伊勢田SS","contact":{},"location":{"address":"伊勢田町中ノ田61","lat":34.88706623379664,"lng":135.7707005739212,"city":"宇治市","state":"京都府","country":"Japan"},"categories":[{"id":"4bf58dd8d48988d113951735","name":"Gas Station \/ Garage","pluralName":"Gas Stations \/ Garages","shortName":"Gas Station \/ Garage","icon":{"prefix":"https:\/\/foursquare.com\/img\/categories_v2\/shops\/gas_","suffix":".png"},"primary":true}],"verified":false,"stats":{"checkinsCount":26,"usersCount":2,"tipCount":0},"likes":{"count":0,"groups":[]},"specials":{"count":0,"items":[]},"hereNow":{"count":0,"groups":[]}},{"id":"4f1bb628e4b0817d3d092cfe","name":"宇治動物病院","contact":{},"location":{"address":"日本","lat":34.88960647583008,"lng":135.7825469970703,"city":"宇治市","state":"京都府","country":"Japan"},"categories":[{"id":"4d954af4a243a5684765b473","name":"Veterinarian","pluralName":"Veterinarians","shortName":"Veterinarians","icon":{"prefix":"https:\/\/foursquare.com\/img\/categories_v2\/building\/medical_veterinarian_","suffix":".png"},"primary":true}],"verified":false,"stats":{"checkinsCount":0,"usersCount":0,"tipCount":0},"likes":{"count":0,"groups":[]},"specials":{"count":0,"items":[]},"hereNow":{"count":0,"groups":[]}},{"id":"4d176485401db60cdd9beba4","name":"ビジネスホテル宇治","contact":{"phone":"+81774215255","formattedPhone":"+81 774-21-5255"},"location":{"address":"小倉町西山16-4","lat":34.890603,"lng":135.782615,"postalCode":"611-0042","city":"宇治市","state":"京都府","country":"Japan"},"categories":[],"verified":false,"stats":{"checkinsCount":3,"usersCount":3,"tipCount":1},"url":"http:\/\/www.pension-uji.com\/","likes":{"count":0,"groups":[]},"specials":{"count":0,"items":[]},"hereNow":{"count":0,"groups":[]}},{"id":"4bc2a7d3461576b05bbe7d32","name":"cafe&dining UP","contact":{"phone":"+81774452949","formattedPhone":"+81 774-45-2949"},"location":{"address":"羽拍子町3-2","lat":34.88548650005714,"lng":135.78108608722687,"city":"宇治市","state":"京都府","country":"Japan"},"categories":[{"id":"4bf58dd8d48988d1c4941735","name":"Restaurant","pluralName":"Restaurants","shortName":"Other - Food","icon":{"prefix":"https:\/\/foursquare.com\/img\/categories_v2\/food\/default_","suffix":".png"},"primary":true}],"verified":false,"stats":{"checkinsCount":55,"usersCount":8,"tipCount":0},"likes":{"count":0,"groups":[]},"specials":{"count":0,"items":[]},"hereNow":{"count":0,"groups":[]}},{"id":"4c8c4aaf8018a1cd58abebd2","name":"PC-Plus+","contact":{"phone":"+81774446351","formattedPhone":"+81 774-44-6351"},"location":{"address":"伊勢田町大谷33-3","lat":34.88572808251651,"lng":135.78092461821143,"postalCode":"611-0043","city":"宇治市","state":"京都府","country":"Japan"},"categories":[{"id":"4bf58dd8d48988d122951735","name":"Electronics Store","pluralName":"Electronics Stores","shortName":"Electronics","icon":{"prefix":"https:\/\/foursquare.com\/img\/categories_v2\/shops\/technology_","suffix":".png"},"primary":true}],"verified":false,"stats":{"checkinsCount":6,"usersCount":5,"tipCount":0},"url":"http:\/\/www.pc-plus.jp","likes":{"count":0,"groups":[]},"specials":{"count":0,"items":[]},"hereNow":{"count":0,"groups":[]}},{"id":"4e55bb1c7d8b47a8d2750777","name":"アムール","contact":{},"location":{"lat":34.889641,"lng":135.78289,"country":"Japan"},"categories":[{"id":"4bf58dd8d48988d16d941735","name":"Café","pluralName":"Cafés","shortName":"Café","icon":{"prefix":"https:\/\/foursquare.com\/img\/categories_v2\/food\/cafe_","suffix":".png"},"primary":true}],"verified":false,"stats":{"checkinsCount":0,"usersCount":0,"tipCount":0},"likes":{"count":0,"groups":[]},"specials":{"count":0,"items":[]},"hereNow":{"count":0,"groups":[]}},{"id":"4c48e96da3ace21e4b33df3a","name":"床屋さん  takumi","contact":{},"location":{"lat":34.88528231031443,"lng":135.78161861035144,"country":"Japan"},"categories":[{"id":"4bf58dd8d48988d10c951735","name":"Cosmetics Shop","pluralName":"Cosmetics Shops","shortName":"Beauty \/ Cosmetic","icon":{"prefix":"https:\/\/foursquare.com\/img\/categories_v2\/shops\/beauty_cosmetic_","suffix":".png"},"primary":true}],"verified":false,"stats":{"checkinsCount":4,"usersCount":2,"tipCount":0},"likes":{"count":0,"groups":[]},"specials":{"count":0,"items":[]},"hereNow":{"count":0,"groups":[]}},{"id":"4c3895583849c9286cafbfb1","name":"むーんらいと","contact":{},"location":{"address":"日本","lat":34.89106128,"lng":135.78285705,"city":"宇治市","state":"京都府","country":"Japan"},"categories":[],"verified":false,"stats":{"checkinsCount":1,"usersCount":1,"tipCount":0},"likes":{"count":0,"groups":[]},"specials":{"count":0,"items":[]},"hereNow":{"count":0,"groups":[]}},{"id":"4d60b3979f67f04d57747cfb","name":"京菓子司 与楽","contact":{},"location":{"address":"日本","lat":34.88563453768968,"lng":135.7690492183961,"city":"宇治市","state":"京都府","country":"Japan"},"categories":[{"id":"4bf58dd8d48988d111941735","name":"Japanese Restaurant","pluralName":"Japanese Restaurants","shortName":"Japanese","icon":{"prefix":"https:\/\/foursquare.com\/img\/categories_v2\/food\/japanese_","suffix":".png"},"primary":true}],"verified":false,"stats":{"checkinsCount":9,"usersCount":8,"tipCount":1},"likes":{"count":0,"groups":[]},"specials":{"count":0,"items":[]},"hereNow":{"count":0,"groups":[]}},{"id":"4d9095da34f2cbffdd68c7e3","name":"CoCo壱番屋 宇治伊勢田店","contact":{"phone":"+81774464649","formattedPhone":"+81 774-46-4649"},"location":{"address":"伊勢田町中ノ田37","lat":34.88621751571935,"lng":135.77012993395329,"city":"宇治市","state":"京都府","country":"Japan"},"categories":[{"id":"4bf58dd8d48988d10f941735","name":"Indian Restaurant","pluralName":"Indian Restaurants","shortName":"Indian","icon":{"prefix":"https:\/\/foursquare.com\/img\/categories_v2\/food\/default_","suffix":".png"},"primary":true}],"verified":false,"stats":{"checkinsCount":16,"usersCount":4,"tipCount":0},"likes":{"count":0,"groups":[]},"specials":{"count":0,"items":[]},"hereNow":{"count":0,"groups":[]}},{"id":"4c6d227c99b9236a734ce4c9","name":"京宇治食堂","contact":{"phone":"+81774286161","formattedPhone":"+81 774-28-6161"},"location":{"address":"伊勢田町57-13","lat":34.884759,"lng":135.781517,"city":"宇治市","state":"京都府","country":"Japan"},"categories":[{"id":"4bf58dd8d48988d111941735","name":"Japanese Restaurant","pluralName":"Japanese Restaurants","shortName":"Japanese","icon":{"prefix":"https:\/\/foursquare.com\/img\/categories_v2\/food\/japanese_","suffix":".png"},"primary":true}],"verified":false,"stats":{"checkinsCount":1,"usersCount":1,"tipCount":0},"likes":{"count":0,"groups":[]},"specials":{"count":0,"items":[]},"hereNow":{"count":0,"groups":[]}},{"id":"4c4a67e19c8d2d7f08947969","name":"手打うどん、そば処 いちはた","contact":{},"location":{"lat":34.88653379211307,"lng":135.7689866423607,"country":"Japan"},"categories":[{"id":"4bf58dd8d48988d111941735","name":"Japanese Restaurant","pluralName":"Japanese Restaurants","shortName":"Japanese","icon":{"prefix":"https:\/\/foursquare.com\/img\/categories_v2\/food\/japanese_","suffix":".png"},"primary":true}],"verified":false,"stats":{"checkinsCount":10,"usersCount":4,"tipCount":0},"likes":{"count":0,"groups":[]},"specials":{"count":0,"items":[]},"hereNow":{"count":0,"groups":[]}},{"id":"4e55a75345dd0a4826e9a1d8","name":"ファミリーマート 宇治伊勢田北山店","contact":{"phone":"+81774285068","formattedPhone":"+81 774-28-5068"},"location":{"address":"伊勢田町北山2-3","lat":34.88771527994312,"lng":135.77647268772125,"city":"宇治市","state":"京都府","country":"Japan"},"categories":[{"id":"4d954b0ea243a5684a65b473","name":"Convenience Store","pluralName":"Convenience Stores","shortName":"Convenience Stores","icon":{"prefix":"https:\/\/foursquare.com\/img\/categories_v2\/shops\/conveniencestore_","suffix":".png"},"primary":true}],"verified":false,"stats":{"checkinsCount":19,"usersCount":5,"tipCount":0},"likes":{"count":0,"groups":[]},"specials":{"count":0,"items":[]},"hereNow":{"count":0,"groups":[]}},{"id":"4d6781ae9792b1f7a40e3e1f","name":"セブンイレブン 宇治伊勢田中山店","contact":{"phone":"+81774467535","formattedPhone":"+81 774-46-7535"},"location":{"address":"伊勢田町中山68","lat":34.88362290324564,"lng":135.77818930149078,"city":"宇治市","state":"京都府","country":"Japan"},"categories":[{"id":"4d954b0ea243a5684a65b473","name":"Convenience Store","pluralName":"Convenience Stores","shortName":"Convenience Stores","icon":{"prefix":"https:\/\/foursquare.com\/img\/categories_v2\/shops\/conveniencestore_","suffix":".png"},"primary":true}],"verified":false,"stats":{"checkinsCount":101,"usersCount":14,"tipCount":1},"likes":{"count":0,"groups":[]},"specials":{"count":0,"items":[]},"hereNow":{"count":0,"groups":[]}},{"id":"4eb55445a17cab61281c3b4f","name":"弥須","contact":{"phone":"+81774446977","formattedPhone":"+81 774-44-6977"},"location":{"address":"羽拍子町84","crossStreet":"ボーン宇治１階","lat":34.882086009143634,"lng":135.77967524528503,"city":"宇治市","state":"京都府","country":"Japan"},"categories":[{"id":"4bf58dd8d48988d111941735","name":"Japanese Restaurant","pluralName":"Japanese Restaurants","shortName":"Japanese","icon":{"prefix":"https:\/\/foursquare.com\/img\/categories_v2\/food\/japanese_","suffix":".png"},"primary":true}],"verified":false,"stats":{"checkinsCount":3,"usersCount":3,"tipCount":0},"likes":{"count":0,"groups":[]},"specials":{"count":0,"items":[]},"hereNow":{"count":0,"groups":[]}},{"id":"4ee02a6b30f810beca7d31fe","name":"ラーメン四天王 伊勢田店","contact":{"phone":"+81774411227","formattedPhone":"+81 774-41-1227"},"location":{"address":"伊勢田町大谷18-7","lat":34.88325934543429,"lng":135.78005825160005,"postalCode":"611-0043","city":"宇治市","state":"京都府","country":"Japan"},"categories":[{"id":"4bf58dd8d48988d1d1941735","name":"Ramen \/  Noodle House","pluralName":"Ramen \/  Noodle House","shortName":"Ramen \/ Noodles","icon":{"prefix":"https:\/\/foursquare.com\/img\/categories_v2\/food\/ramen_","suffix":".png"},"primary":true}],"verified":false,"stats":{"checkinsCount":31,"usersCount":10,"tipCount":0},"likes":{"count":0,"groups":[]},"specials":{"count":0,"items":[]},"hereNow":{"count":0,"groups":[]}},{"id":"4d67794ba800721ea1ab0fb8","name":"ジャンボなかむら 伊勢田店","contact":{},"location":{"address":"日本","lat":34.88662344235493,"lng":135.77609507724156,"city":"宇治市","state":"京都府","country":"Japan"},"categories":[{"id":"4bf58dd8d48988d118951735","name":"Grocery Store","pluralName":"Grocery Stores","shortName":"Grocery Store","icon":{"prefix":"https:\/\/foursquare.com\/img\/categories_v2\/shops\/food_grocery_","suffix":".png"},"primary":true}],"verified":false,"stats":{"checkinsCount":27,"usersCount":4,"tipCount":0},"likes":{"count":0,"groups":[]},"specials":{"count":0,"items":[]},"hereNow":{"count":0,"groups":[]}},{"id":"4ca9892644a8224b17632240","name":"こいずみ医院","contact":{},"location":{"address":"羽拍子町82-1","lat":34.882625,"lng":135.780112,"postalCode":"611-0027","city":"宇治市","state":"京都府","country":"Japan"},"categories":[{"id":"4bf58dd8d48988d196941735","name":"Hospital","pluralName":"Hospitals","shortName":"Hospital","icon":{"prefix":"https:\/\/foursquare.com\/img\/categories_v2\/building\/medical_hospital_","suffix":".png"},"primary":true}],"verified":false,"stats":{"checkinsCount":1,"usersCount":1,"tipCount":0},"likes":{"count":0,"groups":[]},"specials":{"count":0,"items":[]},"hereNow":{"count":0,"groups":[]}},{"id":"4e03039fd22d034599eda6b4","name":"ベイブ","contact":{},"location":{"lat":34.8806905,"lng":135.7785911,"city":"宇治市","state":"京都府","country":"Japan"},"categories":[{"id":"4bf58dd8d48988d110951735","name":"Salon \/ Barbershop","pluralName":"Salons \/ Barbershops","shortName":"Salon \/ Barbershop","icon":{"prefix":"https:\/\/foursquare.com\/img\/categories_v2\/shops\/salon_barber_","suffix":".png"},"primary":true}],"verified":false,"stats":{"checkinsCount":0,"usersCount":0,"tipCount":0},"likes":{"count":0,"groups":[]},"specials":{"count":0,"items":[]},"hereNow":{"count":0,"groups":[]}},{"id":"4f9ce066e4b0d296c7de352f","name":"オフハウス 宇治大久保店","contact":{},"location":{"lat":34.880887,"lng":135.77933,"country":"Japan"},"categories":[{"id":"4bf58dd8d48988d101951735","name":"Thrift \/ Vintage Store","pluralName":"Thrift \/ Vintage Stores","shortName":"Thrift \/ Vintage","icon":{"prefix":"https:\/\/foursquare.com\/img\/categories_v2\/shops\/default_","suffix":".png"},"primary":true}],"verified":false,"stats":{"checkinsCount":1,"usersCount":1,"tipCount":0},"likes":{"count":0,"groups":[]},"specials":{"count":0,"items":[]},"hereNow":{"count":0,"groups":[]}},{"id":"4e186419d4c062b044e73455","name":"りゅう亭","contact":{"phone":"+81774449811","formattedPhone":"+81 774-44-9811"},"location":{"address":"日本","crossStreet":"伊勢田町毛語149-14","lat":34.88705743313571,"lng":135.7744824886322,"postalCode":"611-0043","city":"宇治市","state":"京都府","country":"Japan"},"categories":[{"id":"4bf58dd8d48988d111941735","name":"Japanese Restaurant","pluralName":"Japanese Restaurants","shortName":"Japanese","icon":{"prefix":"https:\/\/foursquare.com\/img\/categories_v2\/food\/japanese_","suffix":".png"},"primary":true}],"verified":false,"stats":{"checkinsCount":1,"usersCount":1,"tipCount":0},"likes":{"count":0,"groups":[]},"specials":{"count":0,"items":[]},"hereNow":{"count":0,"groups":[]}},{"id":"4ef5934c2c5b0445ff4ea187","name":"宇治バプテスト\u2022キリスト教会","contact":{"phone":"+81774417511","formattedPhone":"+81 774-41-7511"},"location":{"crossStreet":"開町8-2","lat":34.88005,"lng":135.78033,"city":"宇治市","country":"Japan"},"categories":[{"id":"4bf58dd8d48988d132941735","name":"Church","pluralName":"Churches","shortName":"Church","icon":{"prefix":"https:\/\/foursquare.com\/img\/categories_v2\/building\/religious_church_","suffix":".png"},"primary":true}],"verified":false,"stats":{"checkinsCount":3,"usersCount":1,"tipCount":0},"likes":{"count":0,"groups":[]},"specials":{"count":0,"items":[]},"hereNow":{"count":0,"groups":[]}},{"id":"4ce353121594236a7ddef649","name":"四天王ラーメン","contact":{},"location":{"address":"京都府宇治市","lat":34.88374850829558,"lng":135.78012307260923,"city":"宇治市","state":"京都府","country":"Japan"},"categories":[{"id":"4bf58dd8d48988d1d1941735","name":"Ramen \/  Noodle House","pluralName":"Ramen \/  Noodle House","shortName":"Ramen \/ Noodles","icon":{"prefix":"https:\/\/foursquare.com\/img\/categories_v2\/food\/ramen_","suffix":".png"},"primary":true}],"verified":false,"stats":{"checkinsCount":11,"usersCount":8,"tipCount":0},"likes":{"count":0,"groups":[]},"specials":{"count":0,"items":[]},"hereNow":{"count":0,"groups":[]}},{"id":"4f40a67ae4b015f1baa62fd2","name":"西宇治図書館","contact":{},"location":{"lat":34.888791,"lng":135.775523,"country":"Japan"},"categories":[{"id":"4bf58dd8d48988d1f1931735","name":"General Entertainment","pluralName":"General Entertainment","shortName":"Other - Entertainment","icon":{"prefix":"https:\/\/foursquare.com\/img\/categories_v2\/arts_entertainment\/default_","suffix":".png"},"primary":true}],"verified":false,"stats":{"checkinsCount":1,"usersCount":1,"tipCount":0},"likes":{"count":0,"groups":[]},"specials":{"count":0,"items":[]},"hereNow":{"count":0,"groups":[]}},{"id":"4d537256bbbf3704d2283578","name":"エーシック 省エネ館","contact":{"phone":"+81774413700","formattedPhone":"+81 774-41-3700","twitter":"shoenekan"},"location":{"address":"広野町西裏10-5","lat":34.87848074104986,"lng":135.77825903892517,"postalCode":"611-0031","city":"宇治市","state":"京都府","country":"Japan"},"categories":[{"id":"4bf58dd8d48988d122951735","name":"Electronics Store","pluralName":"Electronics Stores","shortName":"Electronics","icon":{"prefix":"https:\/\/foursquare.com\/img\/categories_v2\/shops\/technology_","suffix":".png"},"primary":true}],"verified":false,"stats":{"checkinsCount":1,"usersCount":1,"tipCount":0},"likes":{"count":0,"groups":[]},"specials":{"count":0,"items":[]},"hereNow":{"count":0,"groups":[]}},{"id":"4bfa513f508c0f4736f03f31","name":"グルメリア 但馬","contact":{},"location":{"lat":34.87795391101085,"lng":135.7776969748883,"country":"Japan"},"categories":[{"id":"4bf58dd8d48988d142941735","name":"Asian Restaurant","pluralName":"Asian Restaurants","shortName":"Asian","icon":{"prefix":"https:\/\/foursquare.com\/img\/categories_v2\/food\/asian_","suffix":".png"},"primary":true}],"verified":false,"stats":{"checkinsCount":3,"usersCount":3,"tipCount":0},"likes":{"count":0,"groups":[]},"specials":{"count":0,"items":[]},"hereNow":{"count":0,"groups":[]}},{"id":"4ec790d84690116a8c2ee2a6","name":"焼肉モリタ屋","contact":{},"location":{"lat":34.89116057397318,"lng":135.78014622299096,"country":"Japan"},"categories":[{"id":"4bf58dd8d48988d1cc941735","name":"Steakhouse","pluralName":"Steakhouses","shortName":"Steakhouse","icon":{"prefix":"https:\/\/foursquare.com\/img\/categories_v2\/food\/steakhouse_","suffix":".png"},"primary":true}],"verified":false,"stats":{"checkinsCount":3,"usersCount":2,"tipCount":1},"likes":{"count":0,"groups":[]},"specials":{"count":0,"items":[]},"hereNow":{"count":0,"groups":[]}}]}}
