{"meta":{"code":200},"response":{"venues":[{"id":"4eafd5ccb8f7116f20d7190b","name":"京乃四季","contact":{},"location":{"lat":34.93315337293032,"lng":135.7592552602627,"country":"Japan"},"categories":[{"id":"4bf58dd8d48988d1d1941735","name":"Ramen \/  Noodle House","pluralName":"Ramen \/  Noodle House","shortName":"Ramen \/ Noodles","icon":{"prefix":"https:\/\/foursquare.com\/img\/categories_v2\/food\/ramen_","suffix":".png"},"primary":true}],"verified":false,"stats":{"checkinsCount":11,"usersCount":9,"tipCount":0},"likes":{"count":0,"groups":[]},"specials":{"count":0,"items":[]},"hereNow":{"count":0,"groups":[]}},{"id":"4ba82ed3f964a520f0cf39e3","name":"餃子の店 冨士","contact":{},"location":{"lat":34.935349,"lng":135.757202,"country":"Japan"},"categories":[{"id":"4bf58dd8d48988d145941735","name":"Chinese Restaurant","pluralName":"Chinese Restaurants","shortName":"Chinese","icon":{"prefix":"https:\/\/foursquare.com\/img\/categories_v2\/food\/chinese_","suffix":".png"},"primary":true}],"verified":false,"stats":{"checkinsCount":8,"usersCount":5,"tipCount":1},"likes":{"count":0,"groups":[]},"specials":{"count":0,"items":[]},"hereNow":{"count":0,"groups":[]}},{"id":"4d8d74f53bfef04d721f8286","name":"レミューズカフェ","contact":{},"location":{"lat":34.932835,"lng":135.757623,"country":"Japan"},"categories":[{"id":"4bf58dd8d48988d16d941735","name":"Café","pluralName":"Cafés","shortName":"Café","icon":{"prefix":"https:\/\/foursquare.com\/img\/categories_v2\/food\/cafe_","suffix":".png"},"primary":true}],"verified":false,"stats":{"checkinsCount":1,"usersCount":1,"tipCount":0},"likes":{"count":0,"groups":[]},"specials":{"count":0,"items":[]},"hereNow":{"count":0,"groups":[]}},{"id":"4ea7b8e7d3e33e1d4f0ef8bc","name":"ハローワーク伏見","contact":{"phone":"+81756028609","formattedPhone":"+81 75-602-8609"},"location":{"address":"風呂屋町232","lat":34.934893,"lng":135.75969,"postalCode":"612-8058","city":"京都市伏見区","state":"京都府","country":"Japan"},"categories":[{"id":"4bf58dd8d48988d126941735","name":"Government Building","pluralName":"Government Buildings","shortName":"Government","icon":{"prefix":"https:\/\/foursquare.com\/img\/categories_v2\/building\/government_","suffix":".png"},"primary":true}],"verified":false,"stats":{"checkinsCount":13,"usersCount":9,"tipCount":0},"likes":{"count":0,"groups":[]},"specials":{"count":0,"items":[]},"hereNow":{"count":0,"groups":[]}},{"id":"4ef4650c9a528bc5d85b1e5e","name":"寶式 中華そば寶 伏見店","contact":{},"location":{"address":"西大手町313-1","crossStreet":"竹田街道","lat":34.93269378157193,"lng":135.75853943824768,"city":"京都市伏見区","state":"京都府","country":"Japan"},"categories":[{"id":"4bf58dd8d48988d1d1941735","name":"Ramen \/  Noodle House","pluralName":"Ramen \/  Noodle House","shortName":"Ramen \/ Noodles","icon":{"prefix":"https:\/\/foursquare.com\/img\/categories_v2\/food\/ramen_","suffix":".png"},"primary":true}],"verified":false,"stats":{"checkinsCount":16,"usersCount":14,"tipCount":2},"likes":{"count":0,"groups":[]},"specials":{"count":0,"items":[]},"hereNow":{"count":0,"groups":[]}},{"id":"4bd2c02f41b9ef3bffa8fee5","name":"ひょうたん","contact":{"phone":"+81756215391","formattedPhone":"+81 75-621-5391"},"location":{"address":"西大手町313-11","lat":34.932797131814866,"lng":135.75851529836655,"postalCode":"日本","city":"京都市伏見区","state":"京都府","country":"Japan"},"categories":[{"id":"4bf58dd8d48988d11c941735","name":"Sake Bar","pluralName":"Sake Bars","shortName":"Sake Bar","icon":{"prefix":"https:\/\/foursquare.com\/img\/categories_v2\/nightlife\/sake_","suffix":".png"},"primary":true}],"verified":false,"stats":{"checkinsCount":13,"usersCount":4,"tipCount":0},"likes":{"count":0,"groups":[]},"specials":{"count":0,"items":[]},"hereNow":{"count":0,"groups":[]}},{"id":"4c7b642ba8683704c64f164d","name":"三菱東京UFJ銀行 伏見支店","contact":{"phone":"+81756113101","formattedPhone":"+81 75-611-3101"},"location":{"address":"風呂屋町276","lat":34.933019,"lng":135.759735,"postalCode":"612-8058","city":"京都市伏見区","state":"京都府","country":"Japan"},"categories":[{"id":"4bf58dd8d48988d10a951735","name":"Bank","pluralName":"Banks","shortName":"Bank \/ Financial","icon":{"prefix":"https:\/\/foursquare.com\/img\/categories_v2\/shops\/financial_","suffix":".png"},"primary":true}],"verified":false,"stats":{"checkinsCount":118,"usersCount":22,"tipCount":0},"likes":{"count":0,"groups":[]},"specials":{"count":0,"items":[]},"hereNow":{"count":0,"groups":[]}},{"id":"4e6594367d8b85408b0239ef","name":"中華料理 桃園","contact":{},"location":{"lat":34.932831,"lng":135.759265,"city":"京都市","state":"京都府","country":"Japan"},"categories":[{"id":"4bf58dd8d48988d145941735","name":"Chinese Restaurant","pluralName":"Chinese Restaurants","shortName":"Chinese","icon":{"prefix":"https:\/\/foursquare.com\/img\/categories_v2\/food\/chinese_","suffix":".png"},"primary":true}],"verified":false,"stats":{"checkinsCount":2,"usersCount":2,"tipCount":0},"likes":{"count":0,"groups":[]},"specials":{"count":0,"items":[]},"hereNow":{"count":0,"groups":[]}},{"id":"4e571befb993bf36edfdba16","name":"UCC Cafe Mercado 大手筋店","contact":{"phone":"+81756011839","formattedPhone":"+81 75-601-1839"},"location":{"address":"伏見区伯耆町1","crossStreet":"大手筋四番街","lat":34.93321958,"lng":135.75892116,"city":"京都市","state":"京都府","country":"Japan"},"categories":[{"id":"4bf58dd8d48988d16d941735","name":"Café","pluralName":"Cafés","shortName":"Café","icon":{"prefix":"https:\/\/foursquare.com\/img\/categories_v2\/food\/cafe_","suffix":".png"},"primary":true}],"verified":false,"stats":{"checkinsCount":5,"usersCount":3,"tipCount":0},"likes":{"count":0,"groups":[]},"specials":{"count":0,"items":[]},"hereNow":{"count":0,"groups":[]}},{"id":"4cc4e5ec914137042115c655","name":"ON THE MOVE","contact":{"phone":"+81756010629","formattedPhone":"+81 75-601-0629"},"location":{"address":"西大手町328","lat":34.93277596546298,"lng":135.75956071248098,"postalCode":"612-8369","city":"京都市伏見区","state":"京都府","country":"Japan"},"categories":[{"id":"4bf58dd8d48988d103951735","name":"Clothing Store","pluralName":"Clothing Stores","shortName":"Apparel","icon":{"prefix":"https:\/\/foursquare.com\/img\/categories_v2\/shops\/apparel_","suffix":".png"},"primary":true}],"verified":false,"stats":{"checkinsCount":8,"usersCount":2,"tipCount":0},"likes":{"count":0,"groups":[]},"specials":{"count":0,"items":[]},"hereNow":{"count":0,"groups":[]}},{"id":"4eae5c714fc61478cc971fda","name":"酒シバオト","contact":{},"location":{"address":"京都府京都市伏見区西大手町310","lat":34.933036815919635,"lng":135.75880765914917,"city":"京都市伏見区","state":"京都府","country":"Japan"},"categories":[{"id":"4bf58dd8d48988d124941735","name":"Office","pluralName":"Offices","shortName":"Corporate \/ Office","icon":{"prefix":"https:\/\/foursquare.com\/img\/categories_v2\/building\/default_","suffix":".png"},"primary":true}],"verified":false,"stats":{"checkinsCount":3,"usersCount":1,"tipCount":0},"likes":{"count":0,"groups":[]},"hereNow":{"count":0,"groups":[]}},{"id":"4eab712b0aafb00bd8fc7171","name":"いちよし証券 伏見支店","contact":{"phone":"+81756016271","formattedPhone":"+81 75-601-6271"},"location":{"address":"西大手町307-30","crossStreet":"エイトビル","lat":34.93284330954088,"lng":135.75904369354248,"city":"京都市伏見区","state":"京都府","country":"Japan"},"categories":[{"id":"4bf58dd8d48988d124941735","name":"Office","pluralName":"Offices","shortName":"Corporate \/ Office","icon":{"prefix":"https:\/\/foursquare.com\/img\/categories_v2\/building\/default_","suffix":".png"},"primary":true}],"verified":false,"stats":{"checkinsCount":14,"usersCount":5,"tipCount":0},"likes":{"count":0,"groups":[]},"hereNow":{"count":0,"groups":[]}},{"id":"4d48612756eab60c74624186","name":"ホテルアーバンイン伏見","contact":{},"location":{"address":"西大手町307-53","crossStreet":"伏見区","lat":34.932468,"lng":135.758692,"city":"京都市","state":"京都府","country":"Japan"},"categories":[{"id":"4bf58dd8d48988d1fa931735","name":"Hotel","pluralName":"Hotels","shortName":"Hotel","icon":{"prefix":"https:\/\/foursquare.com\/img\/categories_v2\/travel\/hotel_","suffix":".png"},"primary":true}],"verified":false,"stats":{"checkinsCount":6,"usersCount":4,"tipCount":0},"likes":{"count":0,"groups":[]},"specials":{"count":0,"items":[]},"hereNow":{"count":0,"groups":[]}},{"id":"4e202c4b1f6effe84f635d07","name":"伏見味蔵 ひょうたん","contact":{"phone":"+81756215391","formattedPhone":"+81 75-621-5391"},"location":{"address":"伏見区西大手町","lat":34.93245629541397,"lng":135.7587432861328,"city":"京都市","state":"京都府","country":"Japan"},"categories":[{"id":"4bf58dd8d48988d11c941735","name":"Sake Bar","pluralName":"Sake Bars","shortName":"Sake Bar","icon":{"prefix":"https:\/\/foursquare.com\/img\/categories_v2\/nightlife\/sake_","suffix":".png"},"primary":true}],"verified":false,"stats":{"checkinsCount":5,"usersCount":3,"tipCount":0},"likes":{"count":0,"groups":[]},"specials":{"count":0,"items":[]},"hereNow":{"count":0,"groups":[]}},{"id":"4f0fb8efe4b07e9ec8b15383","name":"京人形み彌け　伏見店","contact":{},"location":{"lat":34.93291878955587,"lng":135.75906551062823,"country":"Japan"},"categories":[{"id":"4bf58dd8d48988d127951735","name":"Arts & Crafts Store","pluralName":"Arts & Crafts Stores","shortName":"Arts & Crafts","icon":{"prefix":"https:\/\/foursquare.com\/img\/categories_v2\/shops\/artstore_","suffix":".png"},"primary":true}],"verified":false,"stats":{"checkinsCount":4,"usersCount":1,"tipCount":1},"likes":{"count":0,"groups":[]},"specials":{"count":0,"items":[]},"hereNow":{"count":0,"groups":[]}},{"id":"4d018ba2e0c5a1cd5cdc77ae","name":"竹田街道大手筋","contact":{},"location":{"address":"西大手町","crossStreet":"竹田街道大手筋","lat":34.932945010393446,"lng":135.7583550363779,"city":"京都市伏見区","state":"京都府","country":"Japan"},"categories":[{"id":"4bf58dd8d48988d1f9931735","name":"Road","pluralName":"Roads","shortName":"Road","icon":{"prefix":"https:\/\/foursquare.com\/img\/categories_v2\/travel\/highway_","suffix":".png"},"primary":true}],"verified":false,"stats":{"checkinsCount":232,"usersCount":8,"tipCount":0},"likes":{"count":0,"groups":[]},"specials":{"count":0,"items":[]},"hereNow":{"count":0,"groups":[]}},{"id":"4e9a67d20aaf5f690e5895a0","name":"オーテケンネル","contact":{"phone":"+81756215257","formattedPhone":"+81 75-621-5257"},"location":{"address":"西大手町312-3","lat":34.933014065694486,"lng":135.75837131108761,"city":"京都市伏見区","state":"京都府","country":"Japan"},"categories":[{"id":"4bf58dd8d48988d100951735","name":"Pet Store","pluralName":"Pet Stores","shortName":"Pet Store","icon":{"prefix":"https:\/\/foursquare.com\/img\/categories_v2\/shops\/pet_store_","suffix":".png"},"primary":true}],"verified":false,"stats":{"checkinsCount":120,"usersCount":3,"tipCount":0},"likes":{"count":0,"groups":[]},"specials":{"count":0,"items":[]},"hereNow":{"count":0,"groups":[]}},{"id":"4d422b2133268cfae7395601","name":"ラーメン藤 大手筋店","contact":{"phone":"+81756112180","formattedPhone":"+81 75-611-2180"},"location":{"address":"村上町364-5","lat":34.932825718029264,"lng":135.75732171535492,"city":"京都市伏見区","state":"京都府","country":"Japan"},"categories":[{"id":"4bf58dd8d48988d1d1941735","name":"Ramen \/  Noodle House","pluralName":"Ramen \/  Noodle House","shortName":"Ramen \/ Noodles","icon":{"prefix":"https:\/\/foursquare.com\/img\/categories_v2\/food\/ramen_","suffix":".png"},"primary":true}],"verified":false,"stats":{"checkinsCount":55,"usersCount":13,"tipCount":2},"likes":{"count":0,"groups":[]},"specials":{"count":0,"items":[]},"hereNow":{"count":0,"groups":[]}},{"id":"4f3839960cd697b1c8eb3f86","name":"西大手筋 バス停","contact":{},"location":{"address":"伏見区 西大手町・村上町","crossStreet":"市バス\/京阪バス","lat":34.932944460659456,"lng":135.75835570693016,"city":"京都市","state":"京都府","country":"Japan"},"categories":[{"id":"4bf58dd8d48988d1fe931735","name":"Bus Station","pluralName":"Bus Stations","shortName":"Bus Station","icon":{"prefix":"https:\/\/foursquare.com\/img\/categories_v2\/travel\/busstation_","suffix":".png"},"primary":true}],"verified":false,"stats":{"checkinsCount":7,"usersCount":5,"tipCount":0},"likes":{"count":0,"groups":[]},"specials":{"count":0,"items":[]},"hereNow":{"count":0,"groups":[]}},{"id":"4e9bbd2a5c5ce9b9836b5f3f","name":"関西電力 伏見営業所","contact":{},"location":{"lat":34.933982849121094,"lng":135.75843811035156,"country":"Japan"},"categories":[{"id":"4bf58dd8d48988d130941735","name":"Building","pluralName":"Buildings","shortName":"Other - Buildings","icon":{"prefix":"https:\/\/foursquare.com\/img\/categories_v2\/building\/default_","suffix":".png"},"primary":true}],"verified":false,"stats":{"checkinsCount":6,"usersCount":4,"tipCount":0},"likes":{"count":0,"groups":[]},"specials":{"count":0,"items":[]},"hereNow":{"count":0,"groups":[]}},{"id":"4d52138cc305b60c0edc961e","name":"ほっかほっか亭 西大手筋店","contact":{"phone":"+81756216866","formattedPhone":"+81 75-621-6866"},"location":{"address":"片原町296-1","crossStreet":"若由ビル","lat":34.934642,"lng":135.758443,"city":"京都市伏見区","state":"京都府","country":"Japan"},"categories":[{"id":"4bf58dd8d48988d146941735","name":"Deli\/Bodega","pluralName":"Delis\/Bodegas","shortName":"Deli \/ Bodega","icon":{"prefix":"https:\/\/foursquare.com\/img\/categories_v2\/food\/deli_","suffix":".png"},"primary":true}],"verified":false,"stats":{"checkinsCount":8,"usersCount":4,"tipCount":0},"likes":{"count":0,"groups":[]},"specials":{"count":0,"items":[]},"hereNow":{"count":0,"groups":[]}},{"id":"4e1278e745dde6c62ddd2383","name":"吉田たばこ店","contact":{},"location":{"address":"西大手町312","lat":34.933010428713054,"lng":135.75852870941162,"city":"京都市伏見区","state":"京都府","country":"Japan"},"categories":[{"id":"4bf58dd8d48988d123951735","name":"Smoke Shop","pluralName":"Smoke Shops","shortName":"Tobacco & Cigars","icon":{"prefix":"https:\/\/foursquare.com\/img\/categories_v2\/shops\/tobacco_","suffix":".png"},"primary":true}],"verified":false,"stats":{"checkinsCount":30,"usersCount":4,"tipCount":0},"likes":{"count":0,"groups":[]},"specials":{"count":0,"items":[]},"hereNow":{"count":0,"groups":[]}},{"id":"4eccd7a461af1f8ac3d1e9d5","name":"Cotelette 洋食屋コートレット","contact":{"phone":"+81756115155","formattedPhone":"+81 75-611-5155"},"location":{"address":"伏見区片原町296-1","lat":34.934718,"lng":135.75856,"city":"京都市","state":"京都府","country":"Japan"},"categories":[{"id":"4bf58dd8d48988d1cc941735","name":"Steakhouse","pluralName":"Steakhouses","shortName":"Steakhouse","icon":{"prefix":"https:\/\/foursquare.com\/img\/categories_v2\/food\/steakhouse_","suffix":".png"},"primary":true}],"verified":false,"stats":{"checkinsCount":15,"usersCount":8,"tipCount":0},"likes":{"count":0,"groups":[]},"specials":{"count":0,"items":[]},"hereNow":{"count":0,"groups":[]}},{"id":"4bd81df235aad13a701690f3","name":"BAR EARTH","contact":{},"location":{"lat":34.934921,"lng":135.758499,"country":"Japan"},"categories":[{"id":"4bf58dd8d48988d116941735","name":"Bar","pluralName":"Bars","shortName":"Bar","icon":{"prefix":"https:\/\/foursquare.com\/img\/categories_v2\/nightlife\/bar_","suffix":".png"},"primary":true}],"verified":false,"stats":{"checkinsCount":3,"usersCount":2,"tipCount":0},"likes":{"count":0,"groups":[]},"specials":{"count":0,"items":[]},"hereNow":{"count":0,"groups":[]}},{"id":"4e048d67ae60ed89a8028ce5","name":"西大手筋交差点","contact":{},"location":{"address":"京都市","lat":34.93294006278732,"lng":135.75835704803467,"city":"伏見区","state":"京都府","country":"Japan"},"categories":[{"id":"4bf58dd8d48988d1f9931735","name":"Road","pluralName":"Roads","shortName":"Road","icon":{"prefix":"https:\/\/foursquare.com\/img\/categories_v2\/travel\/highway_","suffix":".png"},"primary":true}],"verified":false,"stats":{"checkinsCount":18,"usersCount":2,"tipCount":1},"likes":{"count":0,"groups":[]},"specials":{"count":0,"items":[]},"hereNow":{"count":0,"groups":[]}},{"id":"4e9f7eaaf5b99725b99f3ebc","name":"おはぎの丹波屋","contact":{},"location":{"lat":34.933031427793196,"lng":135.7585518019952,"country":"Japan"},"categories":[{"id":"4bf58dd8d48988d1d0941735","name":"Dessert Shop","pluralName":"Dessert Shops","shortName":"Desserts","icon":{"prefix":"https:\/\/foursquare.com\/img\/categories_v2\/food\/dessert_","suffix":".png"},"primary":true}],"verified":false,"stats":{"checkinsCount":2,"usersCount":1,"tipCount":0},"likes":{"count":0,"groups":[]},"specials":{"count":0,"items":[]},"hereNow":{"count":0,"groups":[]}},{"id":"4f824a4be4b06fa5180c363e","name":"京都中央信用金庫 大手筋店","contact":{},"location":{"lat":34.93317794799805,"lng":135.75804138183594,"country":"Japan"},"categories":[{"id":"4bf58dd8d48988d10a951735","name":"Bank","pluralName":"Banks","shortName":"Bank \/ Financial","icon":{"prefix":"https:\/\/foursquare.com\/img\/categories_v2\/shops\/financial_","suffix":".png"},"primary":true}],"verified":false,"stats":{"checkinsCount":0,"usersCount":0,"tipCount":0},"likes":{"count":0,"groups":[]},"specials":{"count":0,"items":[]},"hereNow":{"count":0,"groups":[]}},{"id":"4fdad8b8e4b0f9766993d994","name":"京都信用金庫 伏見支店","contact":{"phone":"+81756019131","formattedPhone":"+81 75-601-9131"},"location":{"address":"伏見区西大手町322-3","lat":34.933155,"lng":135.757657,"postalCode":"612-8362","city":"京都市","state":"京都府","country":"Japan"},"categories":[{"id":"4bf58dd8d48988d10a951735","name":"Bank","pluralName":"Banks","shortName":"Bank \/ Financial","icon":{"prefix":"https:\/\/foursquare.com\/img\/categories_v2\/shops\/financial_","suffix":".png"},"primary":true}],"verified":false,"stats":{"checkinsCount":1,"usersCount":1,"tipCount":0},"likes":{"count":0,"groups":[]},"specials":{"count":0,"items":[]},"hereNow":{"count":0,"groups":[]}},{"id":"4f44b701e4b0a28181e0d844","name":"和み鉄板 きた","contact":{},"location":{"address":"伏見区西大手町315-4","lat":34.932857,"lng":135.758255,"city":"京都市","state":"京都府","country":"Japan"},"categories":[{"id":"4bf58dd8d48988d1df931735","name":"BBQ Joint","pluralName":"BBQ Joints","shortName":"BBQ","icon":{"prefix":"https:\/\/foursquare.com\/img\/categories_v2\/food\/bbq_","suffix":".png"},"primary":true}],"verified":false,"stats":{"checkinsCount":1,"usersCount":1,"tipCount":0},"likes":{"count":0,"groups":[]},"specials":{"count":0,"items":[]},"hereNow":{"count":0,"groups":[]}}]}}
