{"meta":{"code":200},"response":{"venues":[{"id":"4bca699668f976b035735f83","name":"伏見公園","contact":{"phone":"+81753139131","formattedPhone":"+81 75-313-9131"},"location":{"address":"京都市伏見区桃陵町","lat":34.92917539776519,"lng":135.7665753364563,"postalCode":"612-8107","city":"京都市","state":"京都府","country":"Japan"},"categories":[{"id":"4bf58dd8d48988d1e8941735","name":"Baseball Field","pluralName":"Baseball Fields","shortName":"Baseball Field","icon":{"prefix":"https:\/\/foursquare.com\/img\/categories_v2\/parks_outdoors\/baseballfield_","suffix":".png"},"primary":true}],"verified":false,"stats":{"checkinsCount":10,"usersCount":4,"tipCount":0},"likes":{"count":0,"groups":[]},"specials":{"count":0,"items":[]},"hereNow":{"count":0,"groups":[]}},{"id":"4f9e3c5de4b08ea03ac2d562","name":"月見館","contact":{},"location":{"address":"桃山町泰長老160-4","lat":34.92835816344045,"lng":135.7698824457098,"city":"京都市伏見区","state":"京都府","country":"Japan"},"categories":[{"id":"4bf58dd8d48988d1fa931735","name":"Hotel","pluralName":"Hotels","shortName":"Hotel","icon":{"prefix":"https:\/\/foursquare.com\/img\/categories_v2\/travel\/hotel_","suffix":".png"},"primary":true}],"verified":false,"stats":{"checkinsCount":4,"usersCount":3,"tipCount":0},"likes":{"count":0,"groups":[]},"specials":{"count":0,"items":[]},"hereNow":{"count":0,"groups":[]}},{"id":"4c2ff02d452620a1de791e0f","name":"伏見奉行所跡","contact":{},"location":{"lat":34.931175,"lng":135.765965,"country":"Japan"},"categories":[],"verified":false,"stats":{"checkinsCount":3,"usersCount":3,"tipCount":0},"likes":{"count":0,"groups":[]},"specials":{"count":0,"items":[]},"hereNow":{"count":0,"groups":[]}},{"id":"4f1c5a0c6d86a4e1b7ee023f","name":"桃陵団地前 バス停","contact":{},"location":{"address":"伏見区桃山町泰長老","crossStreet":"市バス南8系統\/近鉄バス","lat":34.93014626687096,"lng":135.76800361275673,"city":"京都市","state":"京都府","country":"Japan"},"categories":[{"id":"4bf58dd8d48988d1fe931735","name":"Bus Station","pluralName":"Bus Stations","shortName":"Bus Station","icon":{"prefix":"https:\/\/foursquare.com\/img\/categories_v2\/travel\/busstation_","suffix":".png"},"primary":true}],"verified":false,"stats":{"checkinsCount":0,"usersCount":0,"tipCount":0},"likes":{"count":0,"groups":[]},"specials":{"count":0,"items":[]},"hereNow":{"count":0,"groups":[]}},{"id":"4dc8972f1f6e936efe47f410","name":"京都南労働基準監督署","contact":{},"location":{"address":"日本","lat":34.93009150028229,"lng":135.76544880867004,"city":"京都市","state":"京都府","country":"Japan"},"categories":[],"verified":false,"stats":{"checkinsCount":6,"usersCount":2,"tipCount":0},"likes":{"count":0,"groups":[]},"specials":{"count":0,"items":[]},"hereNow":{"count":0,"groups":[]}},{"id":"4fd14b56e4b04e713c65cd42","name":"ももやま駐輪場","contact":{},"location":{"address":"俸行前町2-2","crossStreet":"伏見区","lat":34.931631,"lng":135.765877,"city":"京都市","country":"Japan"},"categories":[{"id":"4bf58dd8d48988d123951735","name":"Smoke Shop","pluralName":"Smoke Shops","shortName":"Tobacco & Cigars","icon":{"prefix":"https:\/\/foursquare.com\/img\/categories_v2\/shops\/tobacco_","suffix":".png"},"primary":true}],"verified":false,"stats":{"checkinsCount":2,"usersCount":1,"tipCount":0},"likes":{"count":0,"groups":[]},"specials":{"count":0,"items":[]},"hereNow":{"count":0,"groups":[]}},{"id":"4e3c930e62e19d61096364f4","name":"日能研 桃山校","contact":{},"location":{"lat":34.931467,"lng":135.765826,"city":"京都市","state":"京都府","country":"Japan"},"categories":[{"id":"4bf58dd8d48988d13b941735","name":"School","pluralName":"Schools","shortName":"School","icon":{"prefix":"https:\/\/foursquare.com\/img\/categories_v2\/building\/school_","suffix":".png"},"primary":true}],"verified":false,"stats":{"checkinsCount":5,"usersCount":2,"tipCount":0},"likes":{"count":0,"groups":[]},"specials":{"count":0,"items":[]},"hereNow":{"count":0,"groups":[]}}]}}
