{"meta":{"code":200},"response":{"venues":[{"id":"4ebdb841d3e3700a5a9389b3","name":"上板橋","contact":{},"location":{"address":"上板橋町","lat":34.94228061156715,"lng":135.76290607452393,"city":"京都市伏見区","state":"京都府","country":"Japan"},"categories":[{"id":"4bf58dd8d48988d1df941735","name":"Bridge","pluralName":"Bridges","shortName":"Bridge","icon":{"prefix":"https:\/\/foursquare.com\/img\/categories_v2\/parks_outdoors\/bridge_","suffix":".png"},"primary":true}],"verified":false,"stats":{"checkinsCount":7,"usersCount":1,"tipCount":0},"likes":{"count":0,"groups":[]},"specials":{"count":0,"items":[]},"hereNow":{"count":0,"groups":[]}},{"id":"4d9e60ab36818cfa670cf300","name":"サガワ酒店","contact":{"phone":"+81756111188","formattedPhone":"+81 75-611-1188"},"location":{"address":"新町12丁目318","lat":34.941682,"lng":135.763399,"postalCode":"6128081","city":"Kyoto","state":"Kyoto Prefecture","country":"Japan"},"categories":[{"id":"4bf58dd8d48988d186941735","name":"Liquor Store","pluralName":"Liquor Stores","shortName":"Liquor Store","icon":{"prefix":"https:\/\/foursquare.com\/img\/categories_v2\/shops\/food_liquor_","suffix":".png"},"primary":true}],"verified":false,"stats":{"checkinsCount":4,"usersCount":1,"tipCount":0},"likes":{"count":0,"groups":[]},"specials":{"count":0,"items":[]},"hereNow":{"count":0,"groups":[]}},{"id":"4da66d1ff7b192b4866d2f7f","name":"フクダ花店","contact":{},"location":{"lat":34.94231,"lng":135.76403,"city":"Kyoto","state":"Kyoto Prefecture","country":"Japan"},"categories":[],"verified":false,"stats":{"checkinsCount":1,"usersCount":1,"tipCount":0},"likes":{"count":0,"groups":[]},"specials":{"count":0,"items":[]},"hereNow":{"count":0,"groups":[]}},{"id":"4cb0029aef1b37043a823700","name":"下村歯科医院","contact":{},"location":{"lat":34.942694,"lng":135.764202,"country":"Japan"},"categories":[{"id":"4bf58dd8d48988d178941735","name":"Dentist's Office","pluralName":"Dentist's Offices","shortName":"Dentist's Office","icon":{"prefix":"https:\/\/foursquare.com\/img\/categories_v2\/building\/medical_dentist_","suffix":".png"},"primary":true}],"verified":false,"stats":{"checkinsCount":11,"usersCount":2,"tipCount":1},"likes":{"count":0,"groups":[]},"specials":{"count":0,"items":[]},"hereNow":{"count":0,"groups":[]}},{"id":"4f3630c6e4b0e313d22b8ead","name":"Take-in","contact":{"phone":"+81756231335","formattedPhone":"+81 75-623-1335"},"location":{"address":"伏見区指物町559","lat":34.94047449145042,"lng":135.7630133843019,"city":"京都市","state":"京都府","country":"Japan"},"categories":[{"id":"4bf58dd8d48988d10d951735","name":"Record Shop","pluralName":"Record Shops","shortName":"Record Shop","icon":{"prefix":"https:\/\/foursquare.com\/img\/categories_v2\/shops\/record_shop_","suffix":".png"},"primary":true}],"verified":false,"stats":{"checkinsCount":3,"usersCount":1,"tipCount":0},"likes":{"count":0,"groups":[]},"specials":{"count":0,"items":[]},"hereNow":{"count":0,"groups":[]}},{"id":"4efc1dafc2ee80dc2e56dbfc","name":"常盤橋","contact":{},"location":{"address":"堀詰町","lat":34.94159901616475,"lng":135.7624313235283,"city":"京都市伏見区","state":"京都府","country":"Japan"},"categories":[{"id":"4bf58dd8d48988d1df941735","name":"Bridge","pluralName":"Bridges","shortName":"Bridge","icon":{"prefix":"https:\/\/foursquare.com\/img\/categories_v2\/parks_outdoors\/bridge_","suffix":".png"},"primary":true}],"verified":false,"stats":{"checkinsCount":0,"usersCount":0,"tipCount":0},"likes":{"count":0,"groups":[]},"specials":{"count":0,"items":[]},"hereNow":{"count":0,"groups":[]}},{"id":"4f3b2b24e4b06a3b8eeba33c","name":"京都町屋麦酒","contact":{},"location":{"address":"京都市伏見区新町11丁目337－1","lat":34.941094,"lng":135.762372,"country":"Japan"},"categories":[{"id":"4bf58dd8d48988d1d7941735","name":"Brewery","pluralName":"Breweries","shortName":"Brewery","icon":{"prefix":"https:\/\/foursquare.com\/img\/categories_v2\/nightlife\/brewery_","suffix":".png"},"primary":true}],"verified":false,"stats":{"checkinsCount":1,"usersCount":1,"tipCount":0},"likes":{"count":0,"groups":[]},"specials":{"count":0,"items":[]},"hereNow":{"count":0,"groups":[]}},{"id":"4d9fca8ec41ca143f38e39a3","name":"本成寺","contact":{},"location":{"lat":34.940591,"lng":135.763384,"country":"Japan"},"categories":[],"verified":false,"stats":{"checkinsCount":2,"usersCount":1,"tipCount":0},"likes":{"count":0,"groups":[]},"specials":{"count":0,"items":[]},"hereNow":{"count":0,"groups":[]}},{"id":"4d66fd0bf23f3704775cc233","name":"キンシ正宗","contact":{"phone":"+81756115201","formattedPhone":"+81 75-611-5201"},"location":{"address":"伏見区新町11-337-1","lat":34.940343,"lng":135.762452,"city":"京都市","state":"京都府","country":"Japan"},"categories":[{"id":"4bf58dd8d48988d1ff941735","name":"Miscellaneous Shop","pluralName":"Miscellaneous Shops","shortName":"Other - Shop","icon":{"prefix":"https:\/\/foursquare.com\/img\/categories_v2\/shops\/default_","suffix":".png"},"primary":true}],"verified":false,"stats":{"checkinsCount":120,"usersCount":16,"tipCount":0},"likes":{"count":0,"groups":[]},"specials":{"count":0,"items":[]},"hereNow":{"count":0,"groups":[]}},{"id":"4efaa541722e3406121f4da2","name":"村山ミシン","contact":{},"location":{"address":"新町10丁目379-1","lat":34.94053075346848,"lng":135.7624903763819,"city":"京都市伏見区","state":"京都府","country":"Japan"},"categories":[{"id":"4bf58dd8d48988d130941735","name":"Building","pluralName":"Buildings","shortName":"Other - Buildings","icon":{"prefix":"https:\/\/foursquare.com\/img\/categories_v2\/building\/default_","suffix":".png"},"primary":true}],"verified":false,"stats":{"checkinsCount":2,"usersCount":1,"tipCount":0},"likes":{"count":0,"groups":[]},"specials":{"count":0,"items":[]},"hereNow":{"count":0,"groups":[]}},{"id":"4efaa391775b54cdb74f9236","name":"松永歯科","contact":{},"location":{"address":"伏見区新町10-364-1","lat":34.94047885519158,"lng":135.7624718629324,"postalCode":"612-8081","city":"京都市","state":"京都府","country":"Japan"},"categories":[{"id":"4bf58dd8d48988d178941735","name":"Dentist's Office","pluralName":"Dentist's Offices","shortName":"Dentist's Office","icon":{"prefix":"https:\/\/foursquare.com\/img\/categories_v2\/building\/medical_dentist_","suffix":".png"},"primary":true}],"verified":false,"stats":{"checkinsCount":2,"usersCount":1,"tipCount":0},"likes":{"count":0,"groups":[]},"specials":{"count":0,"items":[]},"hereNow":{"count":0,"groups":[]}},{"id":"4efaa2edd3e354f0bfff56cf","name":"松永医院","contact":{},"location":{"address":"新町10丁目364","lat":34.9404741766472,"lng":135.76249963310934,"city":"京都市伏見区","state":"京都府","country":"Japan"},"categories":[{"id":"4bf58dd8d48988d196941735","name":"Hospital","pluralName":"Hospitals","shortName":"Hospital","icon":{"prefix":"https:\/\/foursquare.com\/img\/categories_v2\/building\/medical_hospital_","suffix":".png"},"primary":true}],"verified":false,"stats":{"checkinsCount":2,"usersCount":1,"tipCount":0},"likes":{"count":0,"groups":[]},"specials":{"count":0,"items":[]},"hereNow":{"count":0,"groups":[]}},{"id":"4ef5812f490124bf97debc54","name":"Niryo","contact":{},"location":{"address":"京都市伏見区深草出羽屋敷町23","lat":34.94047005655744,"lng":135.76248111965626,"postalCode":"6120088","city":"京都市","state":"京都府","country":"Japan"},"categories":[{"id":"4bf58dd8d48988d106951735","name":"Men's Store","pluralName":"Men's Stores","shortName":"Men's Store","icon":{"prefix":"https:\/\/foursquare.com\/img\/categories_v2\/shops\/apparel_men_","suffix":".png"},"primary":true}],"verified":false,"stats":{"checkinsCount":1,"usersCount":1,"tipCount":0},"likes":{"count":0,"groups":[]},"specials":{"count":0,"items":[]},"hereNow":{"count":0,"groups":[]}},{"id":"4cfb41432d80a143c1914ad8","name":"Lunch Box","contact":{"phone":"+81120307015","formattedPhone":"+81 120-307-015"},"location":{"address":"伏見区京町5-77-7","lat":34.940174,"lng":135.762312,"city":"京都市","state":"京都府","country":"Japan"},"categories":[{"id":"4bf58dd8d48988d1d0941735","name":"Dessert Shop","pluralName":"Dessert Shops","shortName":"Desserts","icon":{"prefix":"https:\/\/foursquare.com\/img\/categories_v2\/food\/dessert_","suffix":".png"},"primary":true}],"verified":false,"stats":{"checkinsCount":3,"usersCount":3,"tipCount":1},"likes":{"count":0,"groups":[]},"specials":{"count":0,"items":[]},"hereNow":{"count":0,"groups":[]}}]}}
